stop_id,stop_name,stop_lat,stop_lon
2951,85 ST@CRESPI BD,25.869733,-80.125367
2950,85 ST@HAWTHORNE AV,25.869683,-80.127193
2952,85 ST@HARDING AV,25.869867,-80.122674
2955,MT SINAI HOSPITAL@GUMENICK BLDG,25.811997,-80.140529
2954,85 ST@CRESPI BLVD,25.869877,-80.125508
1829,NW 25 ST@NW 84 AV,25.796967,-80.332274
1827,NW 25 ST@NW 79 AV,25.796981,-80.325664
1828,NW 25 ST@NW 82 AV,25.796983,-80.328504
2940,73 ST@BYRON AV,25.858241,-80.123488
2944,77 ST@CARLYLE AV,25.862183,-80.124514
2943,77 ST@ABBOTT AV,25.862321,-80.122802
2942,77 ST@COLLINS AV,25.862294,-80.121509
2948,77 ST@CARLYLE AV,25.862049,-80.124342
2947,77 ST@TATUM WATERWAY DR,25.861967,-80.12615
2946,77 ST@TATUM WATERWAY DR,25.862056,-80.127047
2945,77 ST@DICKENS AV,25.862115,-80.125715
2949,77 ST@ABBOTT AV,25.862109,-80.122721
1843,NW 25 ST@NW 82 AV,25.796784,-80.329312
1844,NW 25 ST@NW 79 AV,25.796763,-80.324622
1841,NW 25 ST@NW 87 AV,25.796741,-80.336125
1842,NW 25 ST@NW 84 AV,25.796761,-80.332694
526,NW 183 ST@NW 7 AV,25.942309,-80.213527
1836,NW 25 ST@NW 102 PL,25.796923,-80.362563
1837,NW 25 ST@NW 102 PL,25.796743,-80.362424
8904,NE 125 ST@NE 5 AV,25.890299,-80.188148
8909,NE 125 ST@N MIAMI AV,25.889811,-80.198191
8920,NW 125 ST@NW 16 AV,25.888664,-80.224783
8912,NW 125 ST@NW 4 AV,25.889515,-80.205052
8913,NW 125 ST@NW 5 AV,25.889432,-80.206625
8910,NW 125 ST@NW 1 AV,25.889709,-80.200517
8911,NW 125 ST@NW 2 AV,25.889624,-80.202468
8916,NW 125 ST@NW 11 AV,25.889349,-80.216612
8917,NW 125 ST@NW 12 AV,25.888911,-80.219087
8914,NW 125 ST@NW 8 AV,25.889141,-80.213093
8915,NW 125 ST@NW 10 AV,25.889076,-80.215103
8918,NW 125 ST@NW 13 AV,25.889166,-80.220609
8919,NW 125 ST@NW 15 AV,25.88876,-80.222677
8929,NE 135 ST@NE 4 AV,25.899169,-80.190618
8928,NE 135 ST@NE 2 AV,25.898891,-80.195979
8927,NW 135 ST@NW 2 AV,25.898491,-80.203399
8926,NW 135 ST@NW 4 AV,25.898436,-80.204984
8925,NW 135 ST@NW 8 AV,25.898139,-80.213522
8924,NW 135 ST@NW 10 AV,25.898083,-80.215021
8923,NW 135 ST@NW 12 AV,25.897922,-80.218977
8922,NW 135 ST@NW 17 AV,25.897587,-80.227127
8921,NW 125 ST@NW 17 AV,25.888594,-80.226722
8930,NE 135 ST@NE 6 AV,25.899369,-80.186515
8931,NE 135 ST@NE 8 AV,25.899519,-80.182999
8937,NE 135 ST@ARCH CREEK RD,25.900319,-80.162685
8936,NE 135 ST@BISCAYNE BD,25.900029,-80.161292
8939,NE 135 ST@NE 16 AV,25.90036,-80.166581
8938,NE 135 ST@NE 17 AV,25.900469,-80.163865
8933,NE 135 ST@NE 134 RD,25.900038,-80.170052
8932,NE 135 ST@NE 12 AV,25.89986,-80.174535
8935,NE 135 ST@ARCH CREEK RD,25.900188,-80.162733
8934,NE 135 ST@NE 16 AV,25.900202,-80.166048
8940,NE 135 ST@NE 14 AV,25.900209,-80.170195
8941,NE 135 ST@NE 12 AV,25.900037,-80.174412
8942,NE 135 ST@NE 9 AV,25.899764,-80.181081
8946,OPA LOCKA BD@NW 3 CT,25.900059,-80.205181
8945,NE 135 ST@NE 4 AV,25.899303,-80.191202
8944,NE 135 ST@NE 6 AV,25.899491,-80.187278
8943,NE 135 ST@NE 7 AV,25.899646,-80.184482
8947,OPA LOCKA BD@NW 5 AV,25.89998,-80.207126
8952,NE 163 ST@NE 35 AV,25.928709,-80.134481
6818,BRICKELL BAY DR@SE 12 ST,25.76195,-80.189817
6817,BRICKELL BAY DR@900 BLOCK,25.764954,-80.189831
2914,47 ST@MICHIGAN AV,25.822357,-80.133492
2915,47 ST@MICHIGAN AV,25.822426,-80.133346
2918,63 ST@PINETREE DR,25.843705,-80.126071
2919,63 ST@ALLISON RD,25.844083,-80.123548
2916,63 ST@ALLISON DR,25.844235,-80.123864
2917,63 ST@LA GORCE DR,25.843867,-80.126365
2901,VENETIAN WY@E SAN MARINO DR,25.790806,-80.162775
2902,VENETIAN WY@E SAN MARINO DR,25.790664,-80.162722
2903,VENETIAN WY@E DILIDO DR,25.790854,-80.158719
2904,VENETIAN WY@E RIVO ALTO DR,25.791041,-80.154735
2905,VENETIAN WY@W ISLAND AV,25.791299,-80.149377
2906,VENETIAN WY@E ISLAND AV,25.791342,-80.147616
2907,20 ST@BAY RD,25.795459,-80.143498
2900,VENETIAN WY@W DILIDO DR,25.790987,-80.159312
2938,NORMANDY DR@W BAY RD,25.851379,-80.143295
2936,NORMANDY DR@TROUVILLE ESPLANADE,25.852433,-80.138075
2934,NORMANDY DR@RUE NOTRE DAME,25.855091,-80.133133
2935,NORMANDY DR@RUE BORDEAUX,25.853396,-80.135854
2932,NORMANDY DR@BAY DR,25.855953,-80.128373
2933,NORMANDY DR@RUE VERSAILLES,25.855843,-80.129543
2930,71 ST@BYRON AV,25.856111,-80.12354
2927,71 ST@BAY DR,25.855828,-80.127428
2923,71 ST@TROUVILLE ESPLANADE,25.851591,-80.136969
2924,71 ST@RUE BORDEAUX,25.852855,-80.134717
2925,71 ST@RUE NOTRE DAME,25.854298,-80.132091
2926,71 ST@RUE VERSAILLES,25.85487,-80.129293
2920,63 ST@INDIAN CREEK DR,25.844461,-80.12112
2922,71 ST@RUE GRANVILLE,25.85126,-80.139735
2858,HAWTHORNE AV@82 ST,25.867569,-80.128511
2857,HAWTHORNE AV@80 ST,25.866055,-80.128464
2859,HAWTHORN@83 ST,25.868384,-80.128543
2854,DICKENS AV@75 ST,25.860152,-80.125535
2853,DICKENS AV@75 ST,25.86036,-80.125349
2856,HAWTHORNE AV@79 ST,25.863961,-80.1284
2855,HAWTHORNE AV@77 ST,25.862162,-80.128358
2848,WEST AV@9 ST,25.779407,-80.142196
2847,WEST AV@11 ST,25.781165,-80.142241
2846,WEST AV@12 ST,25.782957,-80.142286
2845,WEST AV@13 ST,25.783836,-80.142322
2844,WEST AV@14 ST,25.784853,-80.142418
2843,WEST AV@FLAMINGO WY,25.786341,-80.142384
2842,WEST AV@#1620,25.789838,-80.14258
2841,ALTON RD@4 ST,25.773325,-80.140198
2840,ALTON RD@8 ST,25.778298,-80.140972
2836,ALTON RD@14 ST,25.785481,-80.141189
2835,ALTON RD@15 ST,25.787506,-80.141262
2838,ALTON RD@10 ST,25.780715,-80.141032
2837,ALTON RD@13 ST,25.783637,-80.141132
2839,ALTON RD@9 ST,25.779413,-80.140997
2830,ALTON RD@23 ST,25.801667,-80.138345
2832,ALTON RD@19 ST,25.795078,-80.141239
2831,ALTON RD@21 ST,25.79912,-80.138269
2834,ALTON RD@17 ST,25.791801,-80.141371
2833,ALTON RD@DADE BD,25.794255,-80.141472
2827,ALTON RD@# 2992,25.806773,-80.138035
2826,ALTON RD@NORTH BAY RD,25.808214,-80.136697
2825,ALTON RD@41 ST,25.813585,-80.136305
2824,ALTON RD@N BAY RD,25.815903,-80.137554
2829,ALTON RD@27 ST,25.803744,-80.138435
2828,ALTON RD@29 ST,25.805018,-80.138609
2823,ALTON RD@44 ST,25.817465,-80.137162
2822,ALTON RD@45 ST,25.820406,-80.136112
2821,ALTON RD@47 ST,25.822418,-80.135868
2820,ALTON RD@48 ST,25.824526,-80.134018
2897,VENETIAN WY@E ISLAND AV,25.791522,-80.147779
2898,VENETIAN WY@CENTURY LA,25.79144,-80.149425
436,SW 136 St & US # 1,25.643851,-80.334111
2899,VENETIAN WY@E RIVO ALTO DR,25.791208,-80.155081
2893,DADE BD@MICHIGAN AV,25.794194,-80.139995
2894,DADE BD@ALTON RD,25.793724,-80.140842
2895,DADE BD@PURDY AV,25.791925,-80.144125
2896,DADE BD@PURDY AV,25.791556,-80.144535
437,Old Cutler Rd & SW 57 Ave,25.663668,-80.283929
2892,DADE BD@23 ST,25.798988,-80.131198
2891,17 ST@WASHINGTON AV,25.792158,-80.132524
2890,17 ST@PENNSYLVANIA AV,25.792107,-80.134476
2888,17 ST@JEFFERSON AV,25.792058,-80.137384
2889,17 ST@MERIDIAN AV,25.792114,-80.135873
2886,17 ST@LENOX AV,25.792169,-80.139864
2887,17 ST@MICHIGAN AV,25.792002,-80.139002
2884,17 ST@MERIDIAN AV,25.792241,-80.13696
2885,17 ST@MICHIGAN AV,25.792225,-80.138737
2882,17 ST@CONVENTION CENTER DR,25.792217,-80.134469
2883,17 ST@MERIDIAN AV,25.792185,-80.136336
2881,17 ST@WASHINGTON AV,25.79237,-80.132964
2871,5 ST@MICHIGAN AV,25.774563,-80.138631
2872,MAC ARTHUR CY@TERMINAL ISLE,25.772085,-80.149
2873,MAC ARTHUR CY@BRIDGE RD,25.772784,-80.15242
2874,MAC ARTHUR CY@FOUNTAIN ST,25.777932,-80.16442
2875,MAC ARTHUR CY@OP FOUNTAIN ST,25.777484,-80.164429
2876,MAC ARTHUR CY@BRIDGE RD,25.772447,-80.152636
2877,MAC ARTHUR CY@TERMINAL ISLE,25.771744,-80.149088
2878,5 ST@MICHIGAN AV,25.774211,-80.137968
2879,5 ST@MERIDIAN AV,25.774333,-80.1357
2870,5 ST@MERIDIAN AV,25.77473,-80.136378
2862,HAWTHORNE AV@81 ST,25.866807,-80.128656
2860,HAWTHORNE AV@STILLWATER DR,25.868952,-80.128718
2864,SOUTH POINTE DR@WASHINGTON AV,25.768128,-80.135915
2811,ALTON RD@60 ST,25.841246,-80.130292
2812,ALTON RD@59 ST,25.84032,-80.130963
2810,ALTON RD@63 ST,25.842988,-80.12825
2819,ALTON RD@DELAWARE AV,25.827281,-80.131341
2817,ALTON RD@53 ST,25.830856,-80.129076
2818,ALTON RD@52 ST,25.829238,-80.129834
2815,ALTON RD@56 ST,25.834815,-80.129417
2816,ALTON RD@54 ST,25.8332,-80.128918
2813,ALTON RD@58 ST,25.838444,-80.131315
2800,ALTON RD@DELAWARE AV,25.826865,-80.131373
2801,ALTON RD@52 ST,25.828903,-80.129791
2806,ALTON RD@58 ST,25.838261,-80.131055
2807,ALTON RD@59 ST,25.839908,-80.13089
2808,ALTON RD@60 ST,25.841309,-80.129905
2809,ALTON RD@62 ST,25.843011,-80.127916
2802,ALTON RD@53 ST,25.831226,-80.128744
2803,ALTON RD@54 ST,25.833272,-80.128697
2804,ALTON RD@56 ST,25.835289,-80.129385
2805,ALTON RD@57 ST,25.836648,-80.130329
32,BISCAYNE BD@NE 209 ST,25.969326,-80.144565
31,HALLANDALE BEACH BD@NE 14 AV,25.986013,-80.133876
49,BISCAYNE BD@NE 209 ST,25.968846,-80.14443
48,E COUNTRY CLUB DR@YACHT CLUB WY,25.956407,-80.130295
2788,ALTON RD@19 ST,25.794544,-80.14121
2787,ALTON RD@16 ST,25.789185,-80.141048
2789,ALTON RD@N MICHIGAN AV,25.796722,-80.13939
2784,ALTON RD@13 ST,25.78413,-80.140884
2783,ALTON RD@11 ST,25.782025,-80.140845
2786,ALTON RD@15 ST,25.787606,-80.14101
2785,ALTON RD@14 ST,25.785403,-80.140976
2790,ALTON RD@21 ST,25.799273,-80.137999
2791,ALTON RD@23 ST,25.8012,-80.138086
2792,ALTON RD@27 ST,25.804199,-80.138165
2793,ALTON RD@29 ST,25.805606,-80.138293
2799,ALTON RD@47 ST,25.822685,-80.135471
2798,ALTON RD@46 ST,25.821948,-80.135847
2797,ALTON RD@44 CT,25.818626,-80.135978
2796,ALTON RD@39 ST,25.812037,-80.135645
2795,ALTON RD@CHASE AV,25.808584,-80.136261
2794,ALTON RD@OP # 2982,25.806571,-80.13786
362,19 ST@CONVENTION CENTER DR,25.794992,-80.135541
360,LINCOLN RD@WASHINGTON AV,25.790629,-80.131257
364,5 ST@LENOX AV,25.77458,-80.139706
363,LINCOLN RD@WASHINGTON AV,25.790785,-80.131628
359,5 ST@LENOX AV,25.774158,-80.139677
216,NE 135 ST@W DIXIE HY,25.899887,-80.17797
219,E 4 AV@E 49 ST,25.866596,-80.274719
222,E 4 AV@E 49 ST,25.867641,-80.274547
225,NE 135 ST@W DIXIE HY,25.899664,-80.179462
5919,NE 191 ST@# 1700,25.951273,-80.167734
5917,NE 191 ST@NE 14 AV,25.951189,-80.172544
5918,NE 191 ST@# 1530,25.951238,-80.170066
5915,NE 191 ST@OP # 1201,25.95107,-80.176382
5914,NE 191 ST@# 1150,25.951036,-80.178233
5926,NE 191 ST@# 1221,25.951179,-80.176262
5922,NE 191 ST@# 1601 BUILDING B,25.951408,-80.168236
5923,NE 191 ST@# 1501,25.951348,-80.170249
5924,NE 191 ST@# 1401,25.951265,-80.172259
5925,NE 191 ST@# 1301,25.951217,-80.174507
5920,NE 191 ST@NE 18 AV,25.95135,-80.165605
5921,NE 191 ST@NE 18 AV,25.951469,-80.165845
5904,NW 186 ST@NW 79 AV,25.942452,-80.329915
5905,NW 186 ST@NW 82 AV,25.942442,-80.333349
5900,NW 186 ST@NW 68 AV,25.94197,-80.313833
5902,NW 186 ST@NW 73 AV,25.941647,-80.318947
5903,NW 186 ST@WENTWORTH DR,25.94245,-80.325215
6945,SW 2 AV@SW 9 ST,25.765134,-80.197274
6946,SW 2 AV@SW 8 ST,25.766013,-80.197284
6947,SW 2 AV@SW 8 ST,25.766604,-80.197327
6948,SW 2 AV@SW 3 ST,25.771304,-80.197493
6941,SW 2 AV@SW 3 ST,25.771204,-80.197666
6944,SW 2 AV@SW 11 ST,25.763265,-80.197199
6910,SW 1 AV@SW 13 ST,25.761639,-80.195194
5899,NW 186 ST@BOBOLINK DR,25.942464,-80.310504
5898,NW 186 ST@NW 67 AV,25.942502,-80.306042
5897,NW 186 ST@OP # 6270,25.942037,-80.302859
5896,NW 186 ST@NW 62 AV,25.939923,-80.298185
5850,NW 186 ST@BOBOLINK DR,25.942224,-80.310444
5844,NW 186 ST@NW 82 AV,25.942244,-80.333704
5847,NW 186 ST@NW 73 AV,25.941436,-80.318821
5846,NW 186 ST@WENTWORTH DR,25.942238,-80.324927
5845,NW 186 ST@NW 79 AV,25.942239,-80.329908
5849,NW 186 ST@NW 68 AV,25.941821,-80.3136
5895,NW 183 ST@NW 57 AV,25.93941,-80.294526
5894,NW 183 ST@NW 57 AV,25.939439,-80.293133
5893,NW 183 ST@NW 55 AV,25.939502,-80.291085
5892,NW 183 ST@NW 53 AV,25.939571,-80.287827
5885,NE 181 ST (MGD)@NE 9 CT,25.942462,-80.18207
5886,NE 181 ST (MGD)@NE 8 AV,25.941739,-80.184319
5889,NE 183 ST@N MIAMI AV,25.942818,-80.200707
5884,NE 181 ST (MGD)@NE 10 AV,25.943738,-80.180844
5872,NE 186 ST@NE 25 CT,25.94732,-80.149496
5861,NE 183 ST@NE 1 AV,25.942632,-80.199277
5856,NW 183 ST@NW 55 AV,25.939269,-80.291067
5857,NW 183 ST@NW 53 AV,25.93934,-80.288024
5852,NW 186 ST@# 6270,25.941813,-80.302944
5853,NW 186 ST@NW 62 AV,25.939703,-80.298308
5854,NW 183 ST@NW 57 AV,25.939263,-80.296326
5855,NW 183 ST@NW 57 AV,25.939243,-80.292673
1411,S FEDERAL HY@SE 9 ST,25.975225,-80.14236
1410,S FEDERAL HY@SE 7 ST,25.978766,-80.142309
1422,HALLANDALE BEACH BD@LAYNE BD,25.986165,-80.12987
1421,HALLANDALE BEACH BD@THREE ISLANDS B,25.98629,-80.126759
1424,HALLANDALE BEACH BD@#1515 (WINN-DIX,25.986031,-80.133189
1423,HALLANDALE BEACH BD@LAYNE BD,25.986129,-80.130992
1426,HALLANDALE BEACH BD@NE 10 AV,25.985894,-80.139061
1425,HALLANDALE BEACH BD@NE 12 AV,25.98593,-80.137112
1428,HALLANDALE BEACH BD@SE 8 AV,25.985504,-80.139968
1427,HALLANDALE BEACH BD@S FEDERAL HY,25.985465,-80.141926
1429,HALLANDALE BEACH BD@SE 10 AV,25.985546,-80.137939
1437,COLLINS AV@# 10185,25.894365,-80.124126
1436,COLLINS AV@# 10101,25.89236,-80.123995
1435,COLLINS AV@# 9701,25.889446,-80.123776
1433,HALLANDALE BEACH BD@DIPLOMAT PY,25.985884,-80.127173
1432,HALLANDALE BEACH BD@LAYNE BD,25.985777,-80.130467
1431,HALLANDALE BEACH BD@SE 16 AV,25.985718,-80.132044
1430,HALLANDALE BEACH BD@SE 14 AV,25.985642,-80.133595
1439,COLLINS AV@HARBOUR WY E,25.895075,-80.124471
1438,COLLINS AV@# 10225,25.896435,-80.124259
1440,COLLINS AV@# 9930,25.891993,-80.124282
1446,96 ST@BROADVIEW TE,25.886554,-80.137509
1445,96 ST@E BROADVIEW DR,25.886663,-80.13499
1448,96 ST@E BROADVIEW DR,25.886469,-80.135073
1442,96 ST@BAL BAY DR,25.887027,-80.126575
1441,96 ST@ABBOTT AV,25.887115,-80.124401
1444,96 ST@W BAY HARBOR DR,25.886765,-80.13297
1443,96 ST@BAY HARBOR TE,25.886856,-80.131102
1449,96 ST@BAY HARBOR TE,25.886588,-80.131399
1450,96 ST@E BAY HARBOR DR,25.886683,-80.129489
1409,S FEDERAL HY@SE 3 ST,25.981353,-80.142396
1405,S FEDERAL HY@SE 3 ST,25.982331,-80.141999
1406,S FEDERAL HY@HALLANDALE BEACH BD,25.984286,-80.142108
1407,S FEDERAL HY@HALLANDALE BEACH BD,25.984953,-80.142579
1408,S FEDERAL HY@SE 3 ST,25.982182,-80.142402
1403,S FEDERAL HY@SE 9 ST,25.976965,-80.141852
1404,S FEDERAL HY@SE 7 ST,25.979051,-80.141894
2424,E 65 ST@E 5 AV,25.881589,-80.273464
2425,E 65 ST@E 6 AV,25.881666,-80.270944
2427,E 65 ST@E 7 AV,25.881918,-80.26976
2428,E 65 ST@E 5 AV,25.88181,-80.272747
2453,W 84 ST@# 460,25.898582,-80.293785
4233,SW 72 ST@SR 874 EX,25.702306,-80.337003
2452,W 84 ST@W 6 AV,25.898604,-80.295917
4261,SW 72 ST@SW 152 AVE,25.699315,-80.438247
4263,SW 72 ST@SW 147 AV,25.699319,-80.430111
5717,NE 18 AV@OP  # 18831,25.949579,-80.165364
5718,NE 18 AV@NE 186 ST,25.946944,-80.165176
5719,NE 18 AV RD@NE 185 ST,25.94546,-80.164612
5729,NE 14 AV@OP # 18707,25.948083,-80.173487
5721,NE 18 AV@# 18901,25.949998,-80.165182
5726,NE 14 AV@# 18901,25.949549,-80.173178
5727,NE 14 AV@NE 191 ST,25.950699,-80.173014
5724,NE 14 AV@NE 185 ST,25.945784,-80.173411
5725,NE 14 AV@# 18707,25.947805,-80.17342
5730,NE 14 AV@NE 185 ST,25.945729,-80.173554
4289,SW 72 ST@SR 874 EX,25.702079,-80.336815
8531,79 STCY@E TREASURE DR,25.848169,-80.146583
8530,79 STCY@# 1800,25.848274,-80.148339
8533,79 STCY@OP # 1800,25.848563,-80.148253
8532,79 STCY@E TREASURE DR,25.848348,-80.146939
8535,79 STCY@ADVENTURE AV,25.848817,-80.154526
8534,79 STCY@HISPANOLA AV,25.848927,-80.150716
1386,AVENTURA BD@199st,25.961729,-80.140647
8528,79 STCY@ADVENTURE AV,25.848521,-80.154375
8529,79 STCY@HISPANOLA AV,25.848661,-80.15027
8542,NE 35 AV@NE 167 ST,25.933378,-80.137373
8541,NE 35 AV@NE 168 ST,25.934996,-80.13746
8540,NE 35 AV@NE 170 ST,25.936547,-80.137531
8544,NE 35 AV@NE 164 ST,25.929767,-80.135505
8543,NE 35 AV@NE 165 ST,25.931864,-80.136851
1382,NE 192 ST(LEHMAN CY)@# 3350 (SERVIC,25.954549,-80.133266
1385,AVENTURA BD@NE 29 PL,25.961319,-80.141399
1380,W COUNTRY CLUB DR@TURNBERRY ISLE RE,25.959931,-80.139348
1381,NE 192 ST(LEHMAN CY)@# 3300(NE 191,25.953757,-80.136289
1379,W COUNTRY CLUB DR@OP AVENTURA MALL,25.95741,-80.139251
1376,W COUNTRY CLUB DR@# 20500 (BISCAYNE,25.966256,-80.138734
1375,N COUNTRY CLUB DR@# 3375 (BONAVISTA,25.966713,-80.13523
1378,W COUNTRY CLUB DR@# 19501,25.955579,-80.13884
1377,W COUNTRY CLUB DR@20300 (VILLA DORA,25.964148,-80.139862
8538,NE 35 AV@NE 166 ST,25.932849,-80.13711
8539,NE 35 AV@NE 168 ST,25.934894,-80.137242
8537,NE 35 AV@NE 164 ST,25.930976,-80.135947
8568,NE 19 AV@NE 179 ST,25.940785,-80.162783
8567,NE 19 AV@NE 181 ST,25.942324,-80.162848
8570,NE 19 AV@NE 175 ST,25.937262,-80.162658
8571,NE 19 AV@NE 173 ST,25.935007,-80.16253
8572,NE 19 AV@NE 171 ST,25.933799,-80.162536
8573,NE 19 AV@NE 169 ST,25.931052,-80.162349
8574,NE 19 AV@NE 167 ST,25.929347,-80.16229
8575,NE 19 AV@NE 164 ST,25.927463,-80.161898
8576,NE 19 AV@NE 167 ST,25.929406,-80.161981
8577,NE 19 AV@NE 169 ST,25.931816,-80.162099
8578,NE 19 AV@NE 171 ST,25.93368,-80.162192
8579,NE 19 AV@NE 173 ST,25.935359,-80.162273
8569,NE 19 AV@NE 177 ST,25.938568,-80.162692
1346,BISCAYNE BD@NE 206 ST,25.967581,-80.14539
1344,BISCAYNE BD@NE 211 ST,25.970611,-80.143966
1345,BISCAYNE BD@NE 207 ST,25.968065,-80.145145
1343,BISCAYNE BD@# 21280,25.972496,-80.143095
1341,SW 8 St & 27 Ave,25.765173,-80.238844
1340,SW 1 ST@SW 1 AV,25.773455,-80.195646
8581,NE 19 AV@NE 177 ST,25.938724,-80.162428
8582,NE 19 AV@NE 179 ST,25.94059,-80.162514
8580,NE 19 AV@NE 175 ST,25.936916,-80.162337
8585,NE 18 AV@NE 186 ST,25.94745,-80.165026
8583,NE 19 AV@NE 181 ST,25.942325,-80.162591
8584,NE 18 AV@NE 185 ST,25.946332,-80.164938
1338,Cocoplum Plaza Circle,25.705401,-80.260824
1332,SW 8 St & 132 Ave,25.760957,-80.40983
1370,E COUNTRY CLUB DR@THE YACHT CLUB,25.958394,-80.130063
1374,N COUNTRY CLUB DR@NE 34 AV,25.966414,-80.13306
1373,N COUNTRY CLUB DR@# 3675,25.966121,-80.128631
1372,E COUNTRY CLUB DR@# 20191,25.963909,-80.126369
1371,E COUNTRY CLUB DR@NE 37 AV,25.959968,-80.128826
1369,W COUNTRY CLUB DR@AVENTURA MALL ENT,25.956259,-80.13933
1361,BISCAYNE BD@NE 211 ST,25.971223,-80.143333
1360,BISCAYNE BLVD@NE 207 ST,25.968042,-80.144786
1362,BISCAYNE BD@NE 213 ST,25.973556,-80.142346
806,Riverwalk Station,25.771051,-80.192558
807,Knight Center Station,25.771865,-80.191377
804,Eighth Street Station,25.766888,-80.192121
805,Fifth Street Station,25.769165,-80.192248
802,Brickell Metromover Station,25.762664,-80.195261
1319,SW 152 ST@SW 153 AV,25.625479,-80.440265
803,Tenth Street Promenade Station,25.764016,-80.19256
1318,SW 152 ST@SW 153 AV,25.625368,-80.440264
800,Freedom Tower Station,25.780544,-80.190567
1317,SW 152 ST@SW 137 AV,25.626414,-80.414171
801,Financial District Station,25.760381,-80.192881
1313,NE 19 AV@NE 183 ST,25.943767,-80.162915
1329,COLLINS AV@HAULOVER CLUB HOUSE,25.908968,-80.122864
811,College North Station,25.778926,-80.192085
812,NW 1 AV@NW 5 ST,25.778815,-80.195341
813,Government Center Station,25.775864,-80.196093
815,SE 4 ST@S MIAMI AV,25.772024,-80.193508
1300,NW 87 AV@NW 186 ST,25.943034,-80.342246
1302,SW 88 ST@SW 167 AV,25.683717,-80.462431
808,Bayfront Park Station,25.773099,-80.187323
834,Miami Avenue Station,25.773391,-80.193582
2335,E 25 ST@E 4 AV,25.844576,-80.273107
2336,E 25 ST@E 6 AV,25.844684,-80.270408
2337,E 25 ST@E 7 AV,25.844734,-80.268387
5649,NW 135 ST@NW 24 AV,25.897301,-80.239191
5648,NW 135 ST@NW 26 CT,25.89721,-80.242423
5647,NW 135 ST@# 5450,25.898002,-80.289281
5652,NW 135 ST@NW 19 AV,25.897475,-80.231619
5653,NW 135 ST@NW 18 AV,25.897514,-80.229515
5650,NW 135 ST@OP #2319,25.897339,-80.237512
5651,NW 135 ST@NW 22 AV,25.897415,-80.23489
2370,E 32 ST@PALM AV,25.85113,-80.280399
2371,E 32 ST@E 2 AV,25.851217,-80.278738
2372,E 32 ST@E 4 AV,25.851351,-80.274804
2347,E 25 ST@E 5 AV,25.844891,-80.271946
2344,E 25 ST@E 8 AV,25.84529,-80.266705
2346,E 25 ST@E 6 AV,25.844928,-80.270471
2345,E 25 ST@E 7 AV,25.844963,-80.268672
8676,NE 164 ST@NE 21 AV,25.927124,-80.158211
8675,NE 164 ST@NE 20 AV,25.927081,-80.160215
8678,NE 164 ST@NE 22 AV,25.927306,-80.15641
8677,NE 164 ST@NE 22 AV,25.927125,-80.156513
8672,NE 164 ST@NE 16 AV,25.92679,-80.1678
8674,NE 164 ST@NE 18 AV,25.926973,-80.164229
8673,NE 164 ST@NE 17 AV,25.926913,-80.165643
1288,SW 108 AV@OP # 30 G,25.768115,-80.370909
8681,NE 164 ST@NE 19 AV,25.927139,-80.162554
8680,NE 164 ST@NE 20 AV,25.927172,-80.16023
8682,NE 164 ST@NE 17 AV,25.927024,-80.166289
8679,NE 164 ST@NE 21 AV,25.927209,-80.158335
8656,NE 163 ST@NE 35 AV,25.928694,-80.135428
8655,NE 163 ST@NE 35 AV,25.929172,-80.134349
8646,NE 163 ST@NE 12 AV,25.925304,-80.175517
8647,NE 163 ST@NE 14 AV,25.925439,-80.172535
1264,SW 152 ST@SW 162 AV,25.625004,-80.455306
8661,NE 163 ST@NE 26 AV,25.926342,-80.146526
8660,NE 163 ST@NE 28 AV,25.926452,-80.143883
8659,NE 163 ST@AT # 2935,25.926553,-80.141476
8657,NE 163 ST@INTERAMA BD,25.927883,-80.137018
8658,NE 163 ST@# 3067,25.926849,-80.13918
1259,SW 112 AV@W FLAGLER ST,25.768128,-80.3769
1255,NW 2 ST@OP # 11591,25.769984,-80.383439
1256,SW 112 AV@W FLAGLER ST,25.768011,-80.377045
1241,NW 1 AV@NW 2 ST,25.775545,-80.195546
8693,NE 168 ST@N MIAMI AV,25.929019,-80.200937
8694,NW 168 ST@N MIAMI AV,25.92895,-80.200792
5664,OPA LOCKA BD@NW 12 AV,25.899485,-80.219189
5663,OPA LOCKA BD@NW 10 AV,25.899618,-80.215793
5662,NW 135 ST@OP # 5450,25.898219,-80.289282
5661,NW 135 ST@NW 2 AV,25.898717,-80.202493
5660,NE 135 ST@N MIAMI AV,25.898919,-80.198871
1228,N MIAMI AV@NE 38 ST,25.812004,-80.195292
5658,NE 135 ST@NE 2 CT,25.89919,-80.193565
5659,NE 135 ST@NE 1 AV,25.899022,-80.196807
1223,Grand Ave & Mary St,25.728245,-80.239421
5656,NW 135 ST@N MIAMI AV,25.898706,-80.199309
5657,NE 135 ST@NE 2 CT,25.898996,-80.193883
5654,NW 135 ST@NW 15 AV,25.897731,-80.223497
5655,NW 135 ST@NW 1 AV,25.898595,-80.201303
1229,NE 54 ST@NE 1 AV,25.825389,-80.191868
5669,NW 165 ST RD@OP # 500,25.924052,-80.208891
5665,OPA LOCKA BD@NW 14 AV,25.899305,-80.223679
5666,NW 165 ST RD@# 500,25.923958,-80.208859
5667,NW 165 ST@NW 2 AV,25.926009,-80.205006
5668,NW 165 ST@NW 2 AV,25.926135,-80.204962
746,WEST AV@20 ST,25.794986,-80.142626
735,COLLINS AV@176 ST,25.939453,-80.121603
737,COLLINS AV@192 ST,25.95456,-80.120118
736,COLLINS AV@GALAHAD-DADE BD,25.955068,-80.120552
733,ALTON RD@LINCOLN RD MALL,25.790973,-80.141082
726,17 ST@LENOX AV,25.792043,-80.140263
725,ALTON RD@2 ST,25.770918,-80.138279
716,47 CT@48 ST (OP HEART INST,25.822561,-80.131369
719,ALTON RD@LINCOLN RD,25.79204,-80.141277
714,NW 79 ST@NW 32 AV,25.845909,-80.249716
700,N BAY RD@174 ST,25.937593,-80.126531
708,Lincoln Rd & James Ave,25.790696,-80.130704
8719,NE 181 ST@NE 6 AV,25.941365,-80.187959
1209,NE 163 ST@# 290 (COLONIAL BNK),25.92965,-80.125021
2749,PINE TREE DR@47 ST,25.822114,-80.125998
2748,PINE TREE DR@# 4900,25.825107,-80.124974
2747,LA GORCE DR@51 ST,25.82752,-80.125044
2742,LA GORCE DR@57 ST,25.83627,-80.124813
2741,LA GORCE DR@59 ST,25.839422,-80.125135
2740,LA GORCE DR@62 ST,25.842608,-80.126208
2746,LA GORCE DR@52 ST,25.829116,-80.125414
2745,LA GORCE DR@54 ST,25.831662,-80.125391
2744,LA GORCE DR@55 ST,25.833319,-80.125144
2743,LA GORCE DR@56 ST,25.834763,-80.12491
2759,PINE TREE DR@25 ST,25.802062,-80.129673
2758,SHERIDAN AV@28 ST,25.804677,-80.129161
2751,SHERIDAN AV@45 ST,25.818481,-80.126829
2750,SHERIDAN AV@46 ST,25.820451,-80.126193
2753,SHERIDAN AV@43 ST,25.81547,-80.127357
2752,SHERIDAN AV@44 ST,25.816969,-80.127098
2755,SHERIDAN AV@37 ST,25.811172,-80.128581
2757,SHERIDAN AV@31 ST,25.807486,-80.129089
2756,SHERIDAN AV@34 ST,25.80942,-80.128799
2760,PINE TREE DR@24 ST,25.80094,-80.129844
2769,WASHINGTON AV@9 ST,25.779676,-80.133152
2768,WASHINGTON AV@12 ST,25.782623,-80.13273
2767,WASHINGTON AV@13 ST,25.784379,-80.132192
2766,WASHINGTON AV@14 ST,25.785578,-80.132036
2765,WASHINGTON AV@15 ST,25.787334,-80.13193
2764,WASHINGTON AV@17 ST,25.791974,-80.13201
2763,WASHINGTON AV@18 ST,25.794055,-80.132116
2762,WASHINGTON AV@20 ST,25.795567,-80.132175
2761,WASHINGTON AV@21 ST,25.79761,-80.132255
2770,WASHINGTON AV@8 ST,25.77859,-80.133384
2771,WASHINGTON AV@7 ST,25.776671,-80.133839
2777,MIAMI HEART INSTITUT@47 CT,25.822888,-80.131375
2776,MERIDIAN AV@18 ST,25.793451,-80.136738
2779,ALTON RD@6 ST,25.776338,-80.140659
797,Bicentennial Park Station,25.785918,-80.187934
2778,ALTON RD@4 ST,25.773306,-80.139941
796,Omni Metromover Station,25.789456,-80.187998
2773,WASHINGTON AV@4 ST,25.773447,-80.134562
795,School Board Station,25.789376,-80.193145
2772,WASHINGTON AV@5 ST,25.774767,-80.134264
2775,WASHINGTON AV@1 ST,25.770119,-80.135249
2774,WASHINGTON AV@2 ST,25.771324,-80.134981
2780,ALTON RD@8 ST,25.778361,-80.140729
2781,ALTON RD@9 ST,25.779471,-80.140753
2782,ALTON RD@10 ST,25.780834,-80.140817
2701,WASHINGTON AV@2 ST,25.771341,-80.134707
2702,WASHINGTON AV@4 ST,25.773479,-80.134221
2700,WASHINGTON AV@1 ST,25.770109,-80.134978
2705,WASHINGTON AV@7 ST,25.777663,-80.133402
2706,WASHINGTON AV@8 ST,25.778719,-80.133159
2703,WASHINGTON AV@5 ST,25.774986,-80.133925
2709,WASHINGTON AV@13 ST,25.784338,-80.131973
2707,WASHINGTON AV@9 ST,25.779983,-80.132903
2708,WASHINGTON AV@11 ST,25.782178,-80.132379
2710,WASHINGTON AV@14 ST,25.78564,-80.131793
2711,WASHINGTON AV@15 ST,25.787418,-80.13165
2712,WASHINGTON AV@16 ST,25.789878,-80.131748
775,AIRPORT TRIRAIL STA@SE 14 ST,25.811117,-80.258763
2714,WASHINGTON AV@18 ST,25.794236,-80.131862
2715,WASHINGTON AV@20 ST,25.796936,-80.13198
2716,WASHINGTON AV@WASHINGTON CT,25.797874,-80.131991
2717,PINE TREE DR@23 ST,25.799534,-80.129922
2718,PINE TREE DR@24 ST,25.800944,-80.129558
2719,PINE TREE DR@25 ST,25.802228,-80.12933
2723,SHERIDAN AV@37 ST,25.81083,-80.128486
2724,SHERIDAN AV@42 ST,25.814506,-80.127403
2721,SHERIDAN AV@31 ST,25.807545,-80.128946
2722,SHERIDAN AV@34 ST,25.809313,-80.128697
2720,SHERIDAN AV@28 ST,25.804195,-80.12904
9845,US 1@MM74 NORTH NEAR,24.85859,-80.724638
9848,OCEAN REEF CLUB VILLAGE,25.305732,-80.294997
2729,PINE TREE DR@# 4777,25.823571,-80.125304
9847,US 1@MM 98 NORTH NEAR,25.080763,-80.45493
2727,SHERIDAN AV@46 ST,25.820366,-80.126085
2728,PINE TREE DR@47 ST,25.82174,-80.125772
2725,SHERIDAN AV@44 ST,25.817039,-80.126983
769,Fort Lauderdale Tri-Rail Station,26.1225,-80.171944
2726,SHERIDAN AV@45 ST,25.818766,-80.126669
2732,PINE TREE DR@54 ST,25.831758,-80.124295
2733,PINE TREE DR@55 ST,25.833032,-80.124118
2734,PINE TREE DR@56 ST,25.834826,-80.123811
2735,PINE TREE DR@57 ST,25.836466,-80.12373
751,NW 36 ST@PALMETTO DR,25.807767,-80.28102
2730,PINE TREE DR@51 ST,25.827729,-80.124786
2731,PINE TREE DR@53 ST,25.830319,-80.124368
2736,PINE TREE DR@58 ST,25.8383,-80.123855
2737,PINE TREE DR@60 ST,25.840795,-80.124385
2738,PINE TREE DR@61 ST,25.842142,-80.124871
2739,PINE TREE DR@63 ST,25.843468,-80.125381
757,NW 21 ST@TRI RAIL STATION,25.795437,-80.258334
9840,US 1@MM 98 SOUTH NEAR,25.081652,-80.455223
9843,US 1@MM 50 SOUTH NEAR,24.716268,-81.075625
9844,US 1@MM 50 NORTH NEAR,24.71614,-81.075723
9842,US 1@MM 74 SOUTH NEAR,24.858791,-80.724598
1192,BLUE LAGOON DR@# 5201,25.782177,-80.280711
9864,NW 99 AV@NW 25 ST,25.796672,-80.357082
9863,NW 99 AV@NW 21 ST,25.794819,-80.357025
9866,NW 99 AV@NW 21 ST,25.794749,-80.357155
9865,NW 99 AV@NW 25 ST,25.796557,-80.357223
9869,NW 21 ST@NW 102 AV,25.793397,-80.3607
9868,NW 21 ST@NW 102 AV,25.793536,-80.360805
9886,HARBOR DR@WESTWOOD DR,25.687086,-80.17161
9888,ALTON RD@DADE BD,25.792906,-80.141423
9887,COLLINS AV@21 ST,25.796544,-80.128835
9881,ENGLISH AV@NE 6 ST,25.475492,-80.475329
9899,SW 147 AV@SW 180 ST,25.599968,-80.429805
9898,SW 147 AV@SW 93 TE,25.68051,-80.431139
9897,SW 147 AV@SW 149 AV,25.679048,-80.432791
9889,77 ST@HAWTHORNE AV,25.861839,-80.127657
2683,COLLINS AV@4500 BLK,25.819191,-80.123112
2682,COLLINS AV@4700 BLK,25.822342,-80.122737
2681,COLLINS AV@4900 BLK,25.825259,-80.122221
2680,COLLINS AV@5000 BLOCK,25.826957,-80.121961
2679,COLLINS AV@OP # 5025,25.828023,-80.122049
2677,COLLINS AV@# 5333,25.831875,-80.122014
2678,COLLINS AV@5200 BLK,25.830234,-80.12231
2675,COLLINS AV@5500 BLK,25.836003,-80.120969
2676,COLLINS AV@# 5400,25.833502,-80.121392
2673,COLLINS AV@# 5750,25.839482,-80.121206
2674,COLLINS AV@# 5660,25.837331,-80.121096
2670,INDIAN CREEK DR@65 ST,25.848779,-80.121637
2672,COLLINS AV@# 5800,25.841147,-80.121566
2671,INDIAN CREEK DR@63 ST,25.844028,-80.121592
2666,HARDING AV@77 ST,25.861999,-80.12222
2667,HARDING AV@75 ST,25.860411,-80.122331
2668,HARDING AV@74 ST,25.859285,-80.12227
2669,ABBOTT AV@INDIAN CREEK DR,25.852292,-80.122316
2662,HARDING AV@85 ST,25.870404,-80.122554
2663,HARDING AV@83 ST,25.867817,-80.122354
2664,HARDING AV@81 ST,25.865854,-80.122321
2665,HARDING AV@79 ST,25.86426,-80.122302
2697,COLLINS AV@19 ST,25.794818,-80.129435
2698,COLLINS AV@18 ST,25.794039,-80.129543
2695,COLLINS AV@23 ST,25.79866,-80.127993
2699,COLLINS AV@17 ST,25.792497,-80.129778
2690,INDIAN CREEK DR@31 ST,25.807055,-80.125509
2692,INDIAN CREEK DR@27 ST,25.804228,-80.12685
5531,NW 17 AV@NW 129 ST,25.891715,-80.227154
2691,INDIAN CREEK DR@29 ST,25.805395,-80.126394
5532,NW 17 AV@NW 127 ST,25.890538,-80.227108
2694,COLLINS AV@24 ST,25.800318,-80.12726
2693,INDIAN CREEK DR@26 ST,25.801863,-80.126323
5530,NW 17 AV@NW 131 ST,25.89427,-80.227275
2684,COLLINS AV@4441 ENTRANCE,25.817489,-80.123445
2685,INDIAN CREEK DR@44 ST,25.816274,-80.123636
2686,INDIAN CREEK DR@43 ST,25.814338,-80.123803
2687,INDIAN CREEK DR@37 ST,25.810584,-80.124565
2688,INDIAN CREEK DR@35 ST,25.809182,-80.124541
2689,INDIAN CREEK DR@33 ST,25.808127,-80.124612
1145,WEST AV@15 TE,25.787995,-80.142458
1175,NE 36 ST@BISCAYNE BD,25.810568,-80.18907
1159,THREE ISLAND BD@WALMART,25.987516,-80.123481
8880,NW 125 ST@NW 8 AV,25.889045,-80.213014
8881,NW 125 ST@NW 5 AV,25.889306,-80.206641
8882,NW 125 ST@NW 4 AV,25.889407,-80.204456
8883,NW 125 ST@NW 2 AV,25.889499,-80.202373
8884,NW 125 ST@NW 1 AV,25.889591,-80.200435
8885,NW 125 ST@N MIAMI AV,25.889648,-80.198902
8878,NW 125 ST@NW 11 AV,25.888572,-80.217174
8877,NW 125 ST@NW 12 AV,25.888825,-80.219045
8879,NW 125 ST@NW 10 AV,25.888976,-80.215104
8875,NW 125 ST@NW 15 AV,25.888686,-80.222681
8876,NW 125 ST@NW 13 AV,25.888394,-80.221205
8873,NW 125 ST@NW 17 AV,25.888537,-80.226398
8874,NW 125 ST@NW 16 AV,25.888606,-80.224566
8869,NE 123 ST@NE 18 AV,25.889525,-80.16247
8868,NE 123 ST@NE 19 AV,25.889406,-80.160512
8867,NE 123 ST@SAN SOUCI BD,25.889517,-80.156826
8866,NE 123 ST@# 2185,25.889623,-80.154387
8862,NE 123 ST@# 2116,25.889362,-80.155943
8863,NE 123 ST@# 2206,25.88945,-80.15384
8864,NE 123 ST@N BAYSHORE DR,25.889373,-80.151668
8860,NE 123 ST@BISCAYNE BD,25.889333,-80.162672
8861,NE 123 ST@NE 19 AV,25.889208,-80.16029
623,MT SINAI HOSPITAL@MAIN DOOR,25.813377,-80.139381
622,ALTON RD@39 ST,25.811901,-80.135885
627,ALTON RD@5 ST,25.775291,-80.140544
625,ALTON RD@6 ST,25.775832,-80.140924
624,WASHINGTON AV@LINCOLN RD,25.790036,-80.131984
8858,NE 123 ST@NE 16 AV,25.889221,-80.165549
628,WASHINGTON AV@LINCOLN RD,25.791289,-80.131723
8851,NW 17 AV@NW 135 ST,25.89818,-80.227319
8850,NW 17 AV@NW 134 ST,25.896214,-80.227256
612,CRANDON BD@CAPE FLA STATE PK,25.683721,-80.158603
613,HARBOR DR@W MASHTA DR,25.685641,-80.170582
8849,NW 17 AV@NW 131 ST,25.894345,-80.227174
8848,NW 17 AV@NW 129 ST,25.89269,-80.227105
619,RICKENBACKER CY@SEAQUARIUM PKG LOT,25.73464,-80.165084
2647,COLLINS AV@# 5875,25.841011,-80.121152
2646,COLLINS AV@# 5775,25.839274,-80.120798
2645,COLLINS AV@# 5601,25.837468,-80.120715
688,41 ST@COLLINS AV,25.813065,-80.123131
2644,COLLINS AV@# 5555,25.835604,-80.12054
2643,COLLINS AV@# 5445,25.834339,-80.120642
2642,COLLINS AV@# 5401,25.832779,-80.121326
2641,COLLINS AV@# 5313,25.831563,-80.121673
2640,COLLINS AV@# 5225,25.829899,-80.121916
2649,COLLINS AV@# 6365,25.846374,-80.12016
2648,COLLINS AV@63 ST,25.844212,-80.120597
2650,COLLINS AV@65 ST,25.847973,-80.120181
2656,COLLINS AV@79 ST,25.864346,-80.121018
678,COLLINS AV@SUNNY ISLES BD,25.930455,-80.121857
2655,COLLINS AV@77 ST,25.862101,-80.120973
677,COLLINS AV@96 ST,25.886963,-80.122624
2658,COLLINS AV@83 ST,25.86833,-80.121106
2657,COLLINS AV@81 ST,25.866339,-80.121082
674,ALTON RD@2 ST,25.770612,-80.138366
2652,COLLINS AV@67 ST,25.850423,-80.120241
673,COLLINS AV@163 ST,25.929178,-80.122427
2654,COLLINS AV@76 ST,25.861097,-80.120939
672,NE 191 ST@#  1101 (CIRCLE),25.951117,-80.179871
9911,SW 180 ST@SW 146 CT,25.599917,-80.428913
2659,COLLINS AV@85 ST,25.870341,-80.121294
670,OPA LOCKA BD@NW 17 AV,25.899184,-80.227914
2660,COLLINS AV@87 ST,25.871918,-80.121413
2661,HARDING AV@87 ST,25.872162,-80.122301
2621,COLLINS AV@18 ST,25.793728,-80.129453
2620,COLLINS AV@17 ST,25.792145,-80.129691
2625,COLLINS AV@26 ST,25.802838,-80.125893
9908,SW 104 ST@SW 165 AV,25.669273,-80.463423
2624,COLLINS AV@24 ST,25.800243,-80.126999
9909,SW 152 ST@SW 133 AV,25.626565,-80.40852
2623,COLLINS AV@22 ST,25.797212,-80.128372
2622,COLLINS AV@20 ST,25.795427,-80.129118
2629,COLLINS AV@32 ST,25.807662,-80.123755
9904,SW 167 AV@SW 96 ST,25.676657,-80.46552
2628,COLLINS AV@31 ST,25.806692,-80.124143
9905,SW 167 AV@SW 96 ST,25.676757,-80.465365
2627,COLLINS AV@29 ST,25.805357,-80.124712
2626,COLLINS AV@27 ST,25.803993,-80.125409
9907,SW 104 ST@SW 165 AV,25.669421,-80.463412
9903,SW 160 AV@SW 147 ST,25.629464,-80.453321
9910,SW 152 ST@SW 133 AV,25.626267,-80.408344
2630,COLLINS AV@35 ST,25.809246,-80.123509
695,SHERIDAN AV@41 ST,25.814371,-80.12762
2632,COLLINS AV@44 ST,25.815727,-80.122521
2631,COLLINS AV@43 ST,25.814295,-80.122736
693,COLLINS AV@HAULOVER CLUB PARKIN,25.908457,-80.12421
2634,COLLINS AV@# 4525,25.820333,-80.122554
2633,C0LLINS AV@# 4441(FONTAINEBLEAU,25.818081,-80.12298
699,COLLINS AV@LIFEGUARD BLDG,25.913637,-80.122498
2636,COLLINS AV@# 4833,25.824233,-80.122034
697,SHERIDAN AV@40 ST,25.813037,-80.127633
2635,COLLINS AV@# 4747,25.822727,-80.122308
2638,COLLINS AV@# 5005,25.826479,-80.12158
2637,COLLINS AV@# 4925,25.825283,-80.121816
2639,COLLINS AV@# 5101,25.828263,-80.121693
692,N BAY RD@174 ST,25.937635,-80.126663
2608,HARBOR DR@CYPRESS DR,25.697086,-80.169625
2609,HARBOR DR@# 250 (HARBOR CT),25.696582,-80.170246
2606,HARBOR DR@FERNWOOD RD,25.699377,-80.164772
2607,HARBOR DR@WOODCREST RD,25.698993,-80.167095
2604,CRANDON BD@#235 (KEY COLONY),25.697368,-80.162796
2605,CRANDON BD@OCEAN LA DR,25.699856,-80.161726
2602,CRANDON BD@HEATHER DR,25.693658,-80.162705
642,NW 168 ST@NW 1 AV,25.928929,-80.203123
2603,CRANDON BD@SONESTA DR,25.695591,-80.162841
2600,CRANDON BD@E ENID DR,25.689507,-80.16364
644,OPA LOCKA BD@NW 7 AV,25.899777,-80.211855
2601,CRANDON BD@GALEN DR,25.691559,-80.163449
640,NE 163 ST@BISCAYNE BD,25.926223,-80.15275
641,NE 164 ST@NE 15 AV,25.926704,-80.169389
2619,HARBOR DR@FERNWOOD RD,25.699286,-80.164561
639,NE 163 ST@COLLINS AV,25.93074,-80.123225
9955,NW 83 ST@NW 1 AV,25.851027,-80.199154
2615,HARBOR DR@W HEATHER DR,25.694181,-80.172179
2616,HARBOR DR@HARBOR CT,25.69469,-80.17208
2617,HARBOR DR@CYPRESS DR,25.696888,-80.169659
635,SW 104 ST@# 15205,25.67013,-80.441785
2618,HARBOR  DR@WOODCREST RD,25.698655,-80.167413
2611,HARBOR DR@W MCINTIRE ST,25.6908,-80.172563
633,SW 88 ST@SW 89 CT,25.687744,-80.33836
2612,HARBOR DR@HARBOR LA,25.688938,-80.172786
2613,HARBOR DR@HARBOR LN,25.688968,-80.172687
2614,HARBOR DR@W MCINTYRE ST,25.691284,-80.172388
632,SW 104 ST@HAMMOCKS BD,25.669819,-80.442339
2610,HARBOR DR@W HEATHER DR,25.69413,-80.172281
669,NW 125 ST@NW 7 AV,25.889207,-80.211467
660,NW 17 AV@NW 134 ST,25.897053,-80.22741
661,NW 125 ST@NW 7 AV,25.889115,-80.211458
662,COLLINS AV@# 9700 (BAL HARBOUR),25.888006,-80.123886
663,ABBOTT AV@69 ST,25.854743,-80.12234
666,COLLINS AV@41 ST,25.812969,-80.122982
667,COLLINS AV@69 ST,25.854134,-80.120339
9954,NW 83 ST@NW 1 AV,25.851107,-80.199319
9935,SW 88 ST@SW 162 AV,25.684235,-80.454361
9933,SW 72 ST@SW 154 AV,25.699163,-80.442978
651,NW 135 ST@NW 7 AV,25.898184,-80.211915
655,NE 163 ST@BISCAYNE BD,25.925856,-80.152922
653,NW 168 ST@NW 1 AV,25.928849,-80.203148
654,NE 164 ST@NE 15 AV,25.92656,-80.169581
1098,COLLINS AV@ATLANTIC AV,25.927981,-80.122104
4397,OLD CUTLER RD@DEERING BAY,25.645023,-80.292009
9999,SW 27 TE@SW 27 AV,25.740694,-80.238132
1084,SE 8 ST@BRICKELL AV,25.766143,-80.191036
1083,BRICKELL MOVER@SW 1 AV/11 ST,25.763335,-80.19532
1085,BRICKELL KEY@MANDARIN ORIENTAL,25.765596,-80.184672
1074,NE 183 ST@NE 2 AV,25.942941,-80.197605
1077,N AMERICA WAY@PORT ADMIN BLDG,25.778244,-80.177574
1076,ROYAL CARIBBEAN@TERMINAL J,25.775834,-80.177346
2599,CRANDON BD@E WOOD DR,25.687959,-80.163583
2598,CRANDON BD@SEAVIEW DR,25.686346,-80.162584
4369,RICKENBACKER CY@MAST ACADEMY,25.738205,-80.167115
2597,CRANDON BD@# 951 US.POST OFFICE,25.685373,-80.161164
4368,RICKENBACKER CY@NOAA,25.73388,-80.162395
4367,CRANDON BD@OP SUNDAYS ON BAY,25.726206,-80.15371
2596,CRANDON BD@W MASHTA DR,25.686303,-80.162938
9992,SW 37 AV@S DIXIE HWY,25.73336,-80.253835
2592,CRANDON BD@HEATHER DR,25.693776,-80.162961
2593,CRANDON BD@MCINTIRE ST,25.691698,-80.163678
2595,CRANDON BD@W WOOD DR,25.687886,-80.163822
1063,SW 88 ST@SW 127 AV,25.686023,-80.401486
2590,CRANDON BD@HARBOR DR,25.698565,-80.162689
2591,CRANDON BD@EAST DR,25.695555,-80.16311
2589,CRANDON BD@HARBOR DR,25.69975,-80.162096
2586,LUCY ST@KROME AV,25.462565,-80.47705
2585,LUCY ST@US 1,25.462501,-80.474479
9988,NE 2 AV@NE 62 ST,25.832925,-80.192328
4360,RICKENBACKER CY@UM MARINE LAB,25.733653,-80.162628
4362,CRANDON BD@CRANDON GOLF COURSE,25.713721,-80.154718
4361,CRANDON BD@SUNDAYS ON THE BAY,25.725976,-80.154057
4364,CRANDON BD@AT FIRE STATION,25.70262,-80.160611
4363,CRANDON BD@INTL TENNIS CENTER,25.708376,-80.157757
4366,CRANDON BD@OP LINKS AT KEY BISC,25.714681,-80.153519
4365,CRANDON BD@OP INTERNATIONAL TEN,25.708925,-80.156664
4358,RICKENBACKER CY@OP MARINE STADIUM,25.741124,-80.171019
4359,RICKENBACKER CY@OP MAST ACADEMY,25.737416,-80.16689
5479,NW 6 AV@S BISCAYNE RIVER DR,25.915846,-80.209773
5478,NW 6 AV@NW 151 ST,25.913566,-80.209653
1050,METROZOO@MAIN ENTRANCE,25.611738,-80.396213
5483,NW 6 AV@NW 157 ST,25.918048,-80.209997
5484,NW 6 AV@S BISCAYNE RIVER DR,25.915844,-80.209862
5481,NW 6 AV@NW 159 ST,25.920114,-80.209993
5482,NW 6 AV@NW 159 ST,25.919901,-80.210083
1052,CORAL REEF P-R LOT@SW 117 AV/152 ST,25.628103,-80.381529
5485,NW 6 AV@NW 151 ST,25.913523,-80.209753
5480,NW 6 AV@NW 157 ST,25.918336,-80.209898
1029,SW 132 AV@SW 6 ST (N/F),25.762077,-80.409737
1028,SW 137 AV@SW 88 ST,25.685878,-80.416457
1027,SW 137 AV@SW 152 ST,25.625233,-80.414366
1026,SW 137 AV@SW 184 ST,25.597048,-80.413456
1025,SW 137 AV@SW 184 ST,25.598135,-80.41365
1024,SW 137 AV@SW 152 ST,25.627359,-80.414679
1023,SW 137 AV@SW 88 ST,25.685625,-80.416709
1030,HAMMOCKS TOWN CENTER@15201 SW 104 S,25.671123,-80.441877
1017,DADE BD@ALTON RD,25.793038,-80.14173
1018,DADE BD@WEST AV,25.792951,-80.142218
1015,BRICKELL AV@SE 13 ST,25.761173,-80.192184
5374,PANAMA WAY@N CRUISE BLVD,25.776035,-80.173444
5378,COLLINS AV@HAULOVER PIER,25.903872,-80.123934
5376,S AMERICA WAY@TERMINAL H,25.77999,-80.1799
5375,N CRUISE BLVD@TERMINAL F,25.778842,-80.17599
3291,SW 137 AV@SW 90 ST,25.683957,-80.416666
3295,SW 137 AV@SW 109 ST,25.666623,-80.416356
3294,SW 137 AV@SW 104 ST,25.671146,-80.416553
3293,SW 137 AV@SW 96 ST,25.678143,-80.41672
10099,WEST AV@LINCOLN RD,25.790155,-80.142355
3292,SW 137 AV@9300 BLOCK,25.680642,-80.416779
3299,SW 137 AV@OP#13205,25.643631,-80.415213
3298,SW 137 AV@SW 128 ST,25.647846,-80.415701
3297,SW 137 AV@SW 120 ST,25.656485,-80.41594
3296,SW 137 AV@SW 112 ST,25.663082,-80.416224
10084,SW 128 ST@SW 109 PL,25.649822,-80.372581
10083,SW 128 ST@SW 107 AV,25.650128,-80.367393
10085,SW 128 ST@SW 114 AV,25.648693,-80.378968
10080,SW 128 ST@SW 87 AV,25.651204,-80.334608
10082,SW 128 ST@SW 89 AV,25.651062,-80.338613
10081,SW 128 ST@SW 117 AV,25.648019,-80.382832
10078,SW 129 TE@SW 91 CT,25.64969,-80.341405
10079,SW 129 TE@SW 91 CT,25.649519,-80.341349
10076,SW 120 ST@SW 127 AV,25.656684,-80.400251
10077,SW 120 ST@SW 131 AV,25.656493,-80.406198
10075,SW 120 ST@SW 123 PS,25.656224,-80.395887
10074,SW 120 ST@SW 122 AV,25.656475,-80.391982
10073,SW 107 AV@SW 130 TE,25.647683,-80.36702
10072,SW 107 AV@SW 131 TE,25.647082,-80.367129
5337,NW 2 ST@NW 114 AV,25.770013,-80.381844
10066,SW 136 ST@SW 95 AV,25.64579,-80.343864
10065,SW 136 ST@SW 97 AV,25.643337,-80.354165
10068,SW 89 PL@SW 136 ST,25.6477,-80.340034
10067,SW 136 ST@SW 95 AV,25.645501,-80.34377
10069,SW 120 ST@SW 122 AV,25.656668,-80.392073
10060,SW 136 ST@SW 102 CT,25.643005,-80.359294
10061,SW 136 ST@SW 104 AV,25.64291,-80.362486
10062,SW 136 ST@SW 104 AV,25.643025,-80.36253
10063,SW 136 ST@SW 102 CT,25.643126,-80.359395
10064,SW 136 ST@SW 99 PL,25.643264,-80.356345
10057,SW 120 ST@SW 137 AV,25.656181,-80.415402
3251,SW 122 AV@SW 185 ST,25.596269,-80.389022
10056,SW 128 ST@SW 114 AV,25.648715,-80.379299
10055,SW 128 ST@SW 109 PL,25.649991,-80.372736
3254,SW 122 AV@SW 191 TE,25.588259,-80.389047
3255,SW 122 AV@SW 195 TE,25.585264,-80.389027
3252,SW 122 AV@SW 187 TE,25.59338,-80.389015
10059,SW 120 ST@SW 131 AV,25.656682,-80.406656
3253,SW 122 AV@SW 189 ST,25.591427,-80.389052
10058,SW 120 ST@SW 137 AV,25.656384,-80.415437
10052,SW 128 ST@SW 107 AV,25.650179,-80.367664
10053,SW 128 ST@SW 89 AV,25.651182,-80.338719
3263,SW 122 AV@SW 189 ST,25.59118,-80.388911
5311,NW 6 ST@NW 122 AV,25.773385,-80.392448
3264,SW 122 AV@SW 187 TE,25.593366,-80.388928
3265,SW 122 AV@SW 185 ST,25.596251,-80.388894
5310,NW 6 ST@NW 124 AV,25.773133,-80.39733
3260,SW 122 AV@QUAIL ROOST DR,25.584086,-80.388882
3261,SW 122 AV@SW 195 TE,25.585268,-80.388913
3262,SW 122 AV@SW 191 TE,25.588393,-80.388893
8200,SE 10 ST@S MIAMI AV,25.764536,-80.193089
5309,NW 6 ST@NW 127 AV,25.77301,-80.400418
5308,NW 6 ST@NW 128 PL,25.772895,-80.404427
5307,NW 6 ST@NW 130 AV,25.772835,-80.406555
5306,NW 6 ST@NW 132 AV,25.772751,-80.408618
5305,NW 6 ST@NW 130 AV,25.772904,-80.406821
5304,NW 6 ST@NW 128 PL,25.772967,-80.404988
5303,NW 6 ST@NW 127 AV,25.773105,-80.400765
5302,NW 6 ST@NW 124 AV,25.773231,-80.396957
5300,NW 7 ST@OP # 6605,25.777713,-80.302798
10036,SW 136 ST@SW 107 AV,25.642861,-80.366778
5301,NW 6 ST@NW 122 AV,25.773457,-80.392704
10034,SW 136 ST@SW 107 AV,25.64278,-80.366647
3270,SW 124 AV@GOLD COAST RR MUSE,25.615854,-80.396159
3271,SW 124 AV@SW 152 ST,25.626491,-80.393204
3269,SW 124 AV@GOLD COAST RR MUSE,25.615693,-80.396477
3268,SW 124 AV@SW 152 ST,25.626088,-80.393648
6018,COLLINS AV@# 6565,25.849494,-80.120264
8298,RICKENBACKER CY@OP HOBIE CAT BEACH,25.746128,-80.195194
8297,RICKENBACKER CY@# 3301 MAD FISHHOUS,25.744529,-80.174292
8299,RICKENBACKER CY@OP SMITH PATHWAY,25.746586,-80.199096
8294,RICKENBACKER CY@OP RUSTY PELICAN,25.745796,-80.176324
8293,RICKENBACKER CY@RESTROOMS,25.745856,-80.19452
8296,RICKENBACKER CY@AT MARINE STADIUM,25.742044,-80.171409
8295,RICKENBACKER CY@OP #3301 MAD FISH H,25.744608,-80.17485
8292,RICKENBACKER CY@HOBIE CAT BEACH,25.745851,-80.19724
8291,RICKENBACKER CY@BRICKELL AV,25.749604,-80.203704
3218,SW 117 AV@SW 208 ST,25.574418,-80.37946
3219,SW 117 AV@SW 114 PL,25.573317,-80.377889
3217,SW 117 AV@SW 204 ST,25.576908,-80.38047
3221,SW 117 AV@# 20121,25.579629,-80.380416
3220,SW 117 AV@SW 203 TE,25.577064,-80.38038
8266,TIGERTAIL AV@BLAINE ST,25.732881,-80.236057
8267,TIGERTAIL AV@SW 27 AV,25.732103,-80.23707
8258,TIGERTAIL AV@BLAINE ST,25.732903,-80.235817
10137,NW 29 AV@NW 46 ST,25.816586,-80.242616
10138,NW 54 St & 32 Ct,25.823557,-80.250205
10148,SW 87 AV@SW 112 ST,25.665662,-80.334769
10146,SW 107 AV@SW 134 ST,25.644729,-80.367059
10147,SW 87 AV@SW 112 ST,25.665657,-80.334954
10144,SW 128 ST@SW 87 AV,25.65133,-80.334632
10145,SW 107 AV@SW 134 ST,25.644592,-80.366915
10126,SW 136 ST@SW 89 PL,25.647526,-80.340276
10103,WEST AV@9 ST,25.779513,-80.142008
10102,WEST AV@10 ST,25.780786,-80.14205
10101,WEST AV@14 CT,25.786487,-80.142238
10100,WEST AV@15 TR,25.788024,-80.142286
10107,WEST AV@12 ST,25.78248,-80.142117
10106,WEST AV@13 ST,25.784105,-80.142162
5379,COLLINS AV--OP@HAULOVER CLUB HOUSE,25.908738,-80.122561
5384,COLLINS AV@HAULOVER MARINA,25.903624,-80.124437
5382,COLLINS AV@HAULOVER LIFEGUARD B,25.913376,-80.122822
5383,COLLINS AV@HAULOVER PIER,25.907447,-80.122869
5380,COLLINS AV@OP # 15000(BOAT RAMP,25.91678,-80.12242
5381,COLLINS AV@# 15000(BOAT RAMP),25.916451,-80.122704
5257,NW 25 ST@NW 75 AV,25.796922,-80.318137
5256,NW 25 ST@NW 75 AV,25.797168,-80.318305
3380,SW 152 AV@SW 148 TER,25.629243,-80.439041
3381,SW 152 AV@SW 153 ST,25.624178,-80.438791
3382,SW 152 AV@SW 158 ST,25.620101,-80.438662
3383,SW 152 AV@SW 160 ST,25.618281,-80.438587
3378,SW 152 AV@SW 155 TE,25.6223,-80.438753
3377,HAMMOCKS BD@SW 103 ST,25.671381,-80.444069
3379,SW 152 AV@COUNTRY WALK DR,25.632624,-80.439196
7438,PAN AMERICAN DR@#3500 (CITY HALL),25.727845,-80.234517
3362,SW 147 AV@SW 178 TE,25.601267,-80.429744
3363,SW 147 AV@SW 176 ST,25.603435,-80.429785
3364,SW 147 AV@SW 173 TE,25.605778,-80.429851
3365,SW 147 AV@SW 171 TE,25.607949,-80.429869
3371,HAMMOCKS BD@# 1001,25.674038,-80.443738
3372,HAMMOCKS BD@SW 151 AV,25.675808,-80.439286
3370,HAMMOCKS BD@SW 103 ST,25.671383,-80.443834
3375,HAMMOCKS BD@SW 151 AV,25.676028,-80.43933
3376,HAMMOCKS BD@OP # 1001,25.673911,-80.444039
3373,HAMMOCKS BD@SW 96 ST,25.677827,-80.435633
3374,HAMMOCKS BD@SW 96 ST,25.67783,-80.435918
3369,SW 147 AV@# 9175 (NE/N),25.682117,-80.429885
3367,SW 147 AV@SW 96 ST (N/F),25.678182,-80.432679
3366,SW 147 AV@SW 168 ST,25.610868,-80.42997
9648,SW 328 ST@SW 167 AV (W/F),25.462621,-80.461118
3338,SW 142 AV@SW 167 TE,25.612105,-80.422906
3333,SW 142 AV@SW 166 TE,25.612575,-80.42294
3340,SW 142 AV@SW 163 TE,25.61506,-80.422441
9655,E PALM DR@US HWY 1 (W/N),25.447992,-80.474494
9656,SW 344 ST@SW 2 AV (E/F),25.447694,-80.479102
9657,SW 167 AV@SW 336 ST (S/F),25.45396,-80.460696
9639,N KROME AV@NE 2 ST (S/N),25.471824,-80.477433
9638,N KROME AV@NE 2 ST (N/N),25.471543,-80.477305
9637,N KROME AV@NE 8 ST (N/N),25.476864,-80.477327
9636,N KROME AV@NE 4 ST (N/F),25.473877,-80.477326
3348,SW 147 AV@SW 171 TE,25.607685,-80.429999
3349,SW 147 AV@SW 173 ST,25.6065,-80.430015
3345,SW 147 AV@OP # 9175,25.682426,-80.430091
3346,SW 147 AV@SW 92 ST RD,25.680892,-80.431065
3347,SW 147 AV@SW 96 ST,25.6779,-80.432947
3351,SW 147 AV@SW 178 TE,25.601467,-80.429853
3350,SW 147 AV@SW 176 TE,25.60351,-80.429917
8197,SE 8 ST@BRICKELL AV,25.76596,-80.190105
9641,N KROME AV@E MOWRY DR (N/N),25.469688,-80.477258
8199,SE 10 ST@SE 1 AV,25.764542,-80.192713
9642,N KROME AV@SW 3 ST (S/N),25.466862,-80.477406
8198,SE 8 ST@EXIT GATE-BRKEY,25.766039,-80.185764
9640,N KROME AV@W MOWRY DR (S/N),25.469939,-80.477415
9645,W LUCY ST@US HWY 1 (E/F),25.46243,-80.474565
9646,E LUCY ST@# 451 (E/N),25.462395,-80.472427
9643,N KROME AV@SW 3 ST (N/N),25.466716,-80.47722
9644,N KROME AV@W LUCY ST (S/N),25.462983,-80.477375
3319,SW 139 AV@SW 180 ST,25.600701,-80.417759
3313,SW 137 AV@SW 109 ST,25.666173,-80.416023
3314,SW 137 AV@SW 104 ST,25.671538,-80.416249
3311,SW 137 AV@SW 120 ST,25.655275,-80.415597
3312,SW 137 AV@SW 112 ST,25.66322,-80.415917
3317,SW 137 AV@SW 88 ST,25.684132,-80.416353
3318,SW 139 AV@SW 176 TE,25.603778,-80.417787
3315,SW 137 AV@SW 96 ST,25.67841,-80.416404
3316,SW 137 AV@# 9225,25.680616,-80.416461
3321,SW 139 AV@SW 180 ST,25.600792,-80.417668
3320,SW 139 AV@SW 176 TE,25.60394,-80.417687
2276,HIALEAH DR@SE 5 AV,25.822898,-80.271436
9635,ENGLISH AV@PARK PL (S/N),25.474126,-80.475297
3323,SW 142 AV@SW 180 ST,25.600613,-80.421649
3324,SW 142 AV@SW 176 ST,25.603879,-80.421765
3325,SW 142 AV@SW 173 ST,25.606502,-80.421926
3326,SW 142 AV@SW 173 ST,25.606367,-80.422114
3327,SW 142 AV@SW 176 ST,25.604134,-80.421873
3328,SW 142 AV@SW 180 ST,25.600603,-80.421753
3332,SW 142 AV@SW 163 TE,25.615125,-80.422714
3331,SW 142 AV@SW 161 ST,25.617675,-80.422654
9695,SW 72 ST@SW 154 AV (E/N),25.698899,-80.442836
9694,SW 72 ST@SW 152 AV (E/F),25.699051,-80.438275
9697,SW 72 ST@SW 157 AV (W/F),25.698958,-80.447745
9696,SW 72 ST@SW 157 AV (E/N),25.698798,-80.446795
9691,SW 162 AV@SW 72 ST (N/N),25.698367,-80.454471
9690,SW 162 AV@SW 72 ST (S/F),25.698288,-80.454671
9693,SW 162 AV@SW 88 ST (N/F),25.684482,-80.453929
9692,SW 162 AV@SW 80 ST (N/N),25.691086,-80.454196
3307,SW 137 AV@COUNTRY WALK DR,25.631334,-80.414504
3306,SW 137 AV@SW 160 ST,25.619782,-80.414446
3301,SW 137 AV@COUNTRY WALK DR,25.631915,-80.41484
3300,SW 137 AV@SW 136 ST,25.641545,-80.414942
3303,SW 137 AV@SW 160 ST,25.619498,-80.414679
3302,SW 137 AV@15300 BLOCK,25.625134,-80.414631
3309,SW 137 AV@#13205,25.644439,-80.415
3308,SW 137 AV@SW 136 ST,25.641672,-80.414637
9689,SW 162 AV@SW 80 ST (S/F),25.691087,-80.454389
3310,SW 137 AV@SW 128 ST,25.648041,-80.415417
9669,SW 195 AVENUE RD@SW 194 AV (S/F),25.41693,-80.505307
9677,SW 147 AV@SW 112 ST (N/N),25.662734,-80.432152
9676,SW 112 ST@SW 145 AV (E/N),25.662907,-80.430038
9678,SW 147 AV@SW 114 TE (N/F),25.660881,-80.432078
9673,SW 120 ST@SW 144 CT (W/F),25.655727,-80.42857
9672,SW 380 TE@SW 193 PL (E/F),25.414081,-80.504367
9675,SW 112 ST@SW 142 AV (E/N),25.663136,-80.424552
9674,SW 120 ST@SW 142 AV (W/F),25.655956,-80.424245
8141,BEACOM BD@SW 7 ST,25.76623,-80.237243
9670,SW 195 AVENUE RD@SW 379 ST (S/F),25.415853,-80.50644
8140,BEACOM BD@SW 4 ST,25.768227,-80.235351
9658,SW 167 AV@SW 336 ST (N/F),25.454275,-80.460592
9659,SW 167 AV@SW 344 ST (N/F),25.448629,-80.460551
9668,SW 187 AV@SW 358 ST (N/N),25.434996,-80.493221
8136,BEACOM BD@SW 6 ST,25.766935,-80.236312
9667,SW 187 AV@SW 358 ST (S/F),25.435001,-80.493352
8137,BEACOM BD@SW 4 ST,25.768739,-80.23461
9666,SW 187 AV@SW 354 TE (S/F),25.438109,-80.493372
8138,BEACOM BD@SW 2 ST,25.770649,-80.23272
9665,SW 187 AV@SW 354 TE (N/N),25.438201,-80.493275
8139,BEACOM BD@SW 1 ST,25.771675,-80.231965
9664,SW 187 AV@SW 348 ST (N/F),25.443555,-80.493316
9663,SW 7 ST@SW 8 AV (W/N),25.440534,-80.489075
9662,SW 6 AV@SW 7 ST (S/N),25.440697,-80.485351
9661,SW 6 AV@SW 4 ST (S/N),25.443737,-80.485377
8135,BEACOM BD@SW 2 TE,25.770045,-80.233585
9660,SW 6 AV@SW 1 ST (S/F),25.446543,-80.485408
7402,SW 27 AV@SHIPPING AV,25.73388,-80.237637
7401,SW 27 AV@BIRD RD,25.735201,-80.23772
7405,SW 27 AV@TRAPP AV,25.733743,-80.23753
7406,SW 27 AV@BIRD AV,25.735381,-80.237582
7403,SW 27 AV@DAY AV,25.732037,-80.237569
7404,SW 27 AV@DAY AV,25.732379,-80.237481
10000,SW 27 TE@SW 27 AV,25.740797,-80.238238
10017,SW 168 ST@SW 88 CT,25.614372,-80.336047
10018,SW 168 ST@SW 88 CT,25.614238,-80.336029
10019,NW 117 AV@W FLAGLER ST,25.768458,-80.3848
10020,W FLAGLER ST@NW 112 AV,25.768473,-80.377356
5276,BLUE LAGOON DR@# 5835,25.783245,-80.293331
5277,BLUE LAGOON DR@# 6161,25.783242,-80.295828
5278,BLUE LAGOON DR@# 6100,25.783026,-80.29629
5279,BLUE LAGOON DR@# 5820,25.783048,-80.293583
5281,BLUE LAGOON DR@# 5500,25.782047,-80.284908
5282,NW 7 ST@# 6605,25.777819,-80.303914
5280,BLUE LAGOON DR@# 5800,25.782652,-80.291189
5283,NW 7 ST@NW 72 AV,25.776833,-80.311164
5299,NW 7 ST@NW 72 AV,25.776564,-80.311482
3477,SW 112 ST@SW 108 CT,25.664756,-80.370782
3476,SW 112 ST@SW 112 AV,25.664517,-80.375136
3479,SW 112 ST@SW 104 PL,25.665007,-80.365156
3478,SW 112 ST@SW 107 AV,25.664868,-80.368063
3480,SW 112 ST@SW 103 CT,25.665117,-80.361568
3481,SW 112 ST@SW 102 AV,25.665198,-80.359888
3482,SW 112 ST@SW 99 CT,25.665325,-80.357296
3483,SW 112 ST@# 9890,25.665397,-80.35418
3484,COUNTRY WALK DR@SW 147 CIR LN,25.631676,-80.416746
3485,COUNTRY WALK DR@SW 139 AV CIR,25.631113,-80.418859
3486,COUNTRY WALK DR@SW 142 AV,25.628833,-80.422965
3488,COUNTRY WALK DR@SW 147 CT,25.630989,-80.431925
3487,COUNTRY WALK DR@CAMPO RD,25.629376,-80.426766
5132,NW 79 ST@NW 19 AV,25.846291,-80.229129
5131,NW 79 ST@NW 21 AV,25.846216,-80.231849
5136,NW 79 ST@NW 14 AV,25.846529,-80.221481
5135,NW 79 ST@NW 15 AV,25.846476,-80.223133
5133,NW 79 ST@NW 17 PL,25.846331,-80.227336
5115,NW 83 ST@NW 2 AV,25.851097,-80.201412
5116,NW 83 ST@NW 4 AV,25.85102,-80.203513
5117,NW 83 ST@NW 5 AV,25.850963,-80.205107
5118,NW 83 ST@NW 5 AV,25.850859,-80.204988
5119,NW 83 ST@NW 4 AV,25.850894,-80.203399
5121,NW 83 ST@N MIAMI AV,25.851088,-80.197514
5120,NW 83 ST@NW 2 AV,25.850971,-80.201411
5123,NW 79 ST@NW 36 AV,25.845464,-80.255516
5122,NW 79 ST@NW 36 PL,25.845407,-80.25729
5125,NW 79 ST@NW 33 AV,25.845599,-80.251437
5124,NW 79 ST@NW 35 AV,25.845509,-80.253869
5114,NW 83 ST@N MIAMI AV,25.85118,-80.197582
7377,AVIATION AV@S BAYSHORE DR,25.732786,-80.233732
9549,ENGLISH AV@NE 6 ST (S/F),25.474842,-80.475324
3408,SW 167 AV@# 10300 CARROLL HS,25.670442,-80.465752
3407,SW 167 AV@SW 92 ST,25.68004,-80.463538
3400,SW 160 AV@SW 151 ST,25.626148,-80.453365
3401,SW 160 AV@SW 144 ST,25.632256,-80.45341
9570,SW 37 AV@S DIXIE HWY (S/N),25.732824,-80.254005
9572,S DIXIE HWY@SW 70 ST (N/F),25.706171,-80.287014
9571,S DIXIE HWY@SW 70 ST (S/N),25.706194,-80.287463
9576,S DIXIE HWY@SW 68 CT (S/F),25.690917,-80.30612
9575,S DIXIE HWY@SW 68 CT (N/N),25.69091,-80.305674
9563,SW 193 AV@SW 378 ST (N/N),25.416574,-80.503313
3422,SW 167 AV@SW 92 ST,25.679944,-80.463277
4005,SW 137 AV@SW 14 ST,25.754045,-80.416502
3421,SW 167 AV@OP # 10300 CARROLL HS,25.671054,-80.465498
4002,SW 137 AV@SW 28 ST,25.742333,-80.416025
3441,SW 104 ST@SW 146 AV,25.670509,-80.429959
4000,SW 137 AV@SW 34 ST,25.736047,-80.415765
3440,SW 104 ST@SW 142 AV,25.670689,-80.424193
4001,SW 137 AV@SW 30 ST,25.739556,-80.415913
3434,SW 104 ST@SW 122 AV,25.67174,-80.39247
3435,SW 104 ST@SW 127 AV,25.671485,-80.400049
3438,SW 104 ST@SW 137 AV,25.670913,-80.417392
3439,SW 104 ST@SW 139 AV,25.670802,-80.420775
3436,SW 104 ST@SW 132 AV,25.671222,-80.408038
3437,SW 104 ST@SW 134 AV,25.671075,-80.412588
3451,SW 104 ST@SW 150 PL,25.669875,-80.440278
3450,SW 104 ST@SW 156 AV,25.669639,-80.447839
3453,SW 104 ST@SW 147 AV,25.670158,-80.431795
3452,SW 104 ST@MAHOGANY CR,25.67003,-80.4353
3443,SW 104 ST@SW 148 AV,25.670344,-80.435415
3444,SW 104 ST@SW 150 PL,25.670168,-80.440178
3445,SW 104 ST@SW 156 AV,25.669909,-80.448444
3446,SW 104 ST@SW 16O CT,25.669632,-80.45613
3447,SW 104 ST@SW 162 PL,25.669553,-80.459124
3448,SW 104 ST@SW 162 PL,25.669416,-80.458956
3449,SW 104 ST@SW 161 AV,25.669381,-80.456024
6240,W BUNCHE PARK DR@NW 22 CT,25.922627,-80.237299
6241,W BUNCHE PARK DR@NW 24 AV RD,25.922195,-80.238668
6242,W BUNCHE PARK DR@NW 160 ST,25.920499,-80.239764
3462,SW 104 ST@SW 122 AV,25.671489,-80.39166
3461,SW 104 ST@SW 123 CT,25.671392,-80.394526
3460,SW 104 ST@SW 127 AV,25.671229,-80.399732
6238,W BUNCHE PARK DR@NW 24 AV RD,25.922115,-80.238549
6237,W BUNCHE PARK DR@NW 161 ST,25.920898,-80.239608
3458,SW 104 ST@SW 134 AV,25.670796,-80.412622
6239,W BUNCHE PARK DR@NW 22 CT,25.922502,-80.237165
3459,SW 104 ST@SW 132 AV,25.670954,-80.407764
3456,SW 104 ST@SW 139 AV,25.670561,-80.420504
3457,SW 104 ST@SW 137 AV,25.670683,-80.416595
3454,SW 104 ST@SW 145 AV,25.670297,-80.428783
3455,SW 104 ST@SW 142 AV,25.670479,-80.423679
3473,SW 112 ST@SW 107 AV,25.665003,-80.368001
3472,SW 112 ST@SW 104 PL,25.66511,-80.36473
3475,SW 112 ST@SW 112 AV,25.664674,-80.375329
3474,SW 112 ST@SW 108 CT,25.664866,-80.37039
6236,NW 27 AV SERVICE RD@NW 160 ST,25.920669,-80.24426
3471,SW 112 ST@SW 103 CT,25.665237,-80.361404
3470,SW 112 ST@OP # 9890,25.665607,-80.353791
3468,SW 107 ST@SW 112 AV,25.669222,-80.375023
6202,E BUNCHE PARK DR@# 15815,25.918784,-80.233683
6201,E BUNCHE PARK DR@NW 20 AV RD,25.917564,-80.234907
6200,E BUNCHE PARK DR@NW 20 AV RD,25.917991,-80.234624
3509,SW 152 ST@SW 112 AV,25.627837,-80.375017
5160,NW 79 ST@NW 37 AV,25.845646,-80.257841
5159,NW 79 ST@NW 36 AV,25.845695,-80.256291
5142,NW 79 ST@NW 8 CT,25.847057,-80.211763
5143,NW 79 ST@NW 10 CT,25.847007,-80.213832
5140,NW 79 ST@NW 9 AV,25.846858,-80.212239
5141,NW 79 ST@NW 8 AV,25.84691,-80.210973
5146,NW 79 ST@NW 15 AV,25.846719,-80.223152
5144,NW 79 ST@NW 11 CT,25.846934,-80.216206
5145,NW 79 ST@NW 12 PL,25.846844,-80.218393
5139,NW 79 ST@NW 10 CT,25.846775,-80.214297
5138,NW 79 ST@NW 11 CT,25.846676,-80.216277
5137,NW 79 ST@NW 13 AV,25.846602,-80.219035
5156,NW 79 ST@NW 31 AV,25.845975,-80.247483
5157,NW 79 ST@NW 33 AV,25.845838,-80.251726
5158,NW 79 ST@NW 35 AV,25.845737,-80.254588
5149,NW 79 ST@NW 21 AV,25.846498,-80.231288
5148,NW 79 ST@NW 19 AV,25.846553,-80.229342
2008,E 4 AV@E 21 ST,25.841416,-80.273929
2009,E 4 AV@E 23 ST,25.84305,-80.274039
2012,E 4 AV@E 29 ST,25.848492,-80.274342
2011,E 4 AV@E 27 ST,25.846587,-80.27424
2010,E 4 AV@E 25 ST,25.845168,-80.274163
2017,E 4 AV@E 39 ST,25.85806,-80.274561
2018,E 4 AV@E 41 ST,25.859535,-80.274552
2019,E 4 AV@E 43 ST,25.861517,-80.274541
2013,E 4 AV@E 31 ST,25.850686,-80.274464
2014,E 4 AV@E 33 ST,25.85276,-80.274562
2015,E 4 AV@E 35 ST,25.854382,-80.274564
2016,E 4 AV@E 37 ST,25.855957,-80.27457
2021,E 4 AV@E 47 ST,25.86547,-80.274527
2020,E 4 AV@E 45 ST,25.86335,-80.274533
2023,E 4 AV@E 54 ST,25.871571,-80.274698
2022,E 4 AV@E 52 ST,25.87013,-80.274616
3598,SW 184 ST@SW 136 AV,25.596594,-80.411328
3597,SW 184 ST@SW 136 AV,25.596672,-80.411396
3599,SW 184 ST@SW 134 AV,25.596603,-80.409556
8301,10 ST MOVER STATION@BRICKELL PLAZA,25.764214,-80.192499
8300,BRICKELL STA@SW 1 AV (WEST SIDE),25.764951,-80.195589
9481,NW 167 ST@NW 17 AV (W/F),25.927269,-80.228854
9482,NW 11 ST@OP #5500 (W/M),25.782228,-80.284847
9472,SW 137 AV@SW 84 ST (N/N),25.688301,-80.416118
9473,SW 137 AV@SW 124 ST (S/F),25.652124,-80.415846
9471,SW 137 AV@SW 84 ST (S/F),25.688277,-80.416389
8345,NW 138 ST@NW 58 CT,25.898715,-80.295943
9477,SW 2 ST@# 10824 (E/N),25.76657,-80.371961
9474,SW 137 AV@SW 124 ST (N/N),25.652122,-80.415532
8344,NW 138 ST@NW 57 AV,25.898765,-80.292899
9475,NW 71 ST@NW 1 AV (W/N),25.840049,-80.198606
9456,W COUNTRY CLUB DR@OP #19333 (S/N),25.954735,-80.138907
3538,SW 160 ST@SW 139 AV,25.618809,-80.418416
3537,SW 160 ST@SW 139 AV,25.618724,-80.417982
3536,SW 160 ST@SW 142 AV,25.618557,-80.422404
3535,SW 160 ST@SW 144 CT,25.618388,-80.426847
3534,SW 160 ST@SW 147 AV,25.618253,-80.43058
3550,SW 168 ST@SW 144 CT,25.611142,-80.426052
3547,SW 168 ST@SW 142 CT,25.611314,-80.423804
3549,SW 168 ST@SW 147 AV,25.611184,-80.4297
3548,SW 168 ST@SW 144 CT,25.611287,-80.42624
3512,SW 152 ST@SW 122 AV,25.62708,-80.390565
3511,SW 152 ST@# 11905,25.627274,-80.38626
3510,SW 152 ST@SW 117 AV,25.627537,-80.380938
3516,SW 152 ST@SW 134 CT,25.62649,-80.410811
3515,SW 152 ST@SW 130 AV,25.626693,-80.403254
3514,SW 152 ST@SW 129 AVE,25.62677,-80.400204
3513,SW 152 ST@SW 127 AV,25.626948,-80.394584
3519,SW 152 ST@SW 129 AV,25.626513,-80.400167
3518,SW 152 ST@SW 130 AV,25.626422,-80.403113
3517,SW 152 ST@SW 134 CT,25.626224,-80.410778
3521,SW 152 ST@SW 122 AV,25.626852,-80.389666
3520,SW 152 ST@SW 127 AV,25.626699,-80.394205
3523,SW 152 ST@SW 112 AV,25.627542,-80.375539
3522,SW 152 ST@OP # 11905,25.626969,-80.386408
3525,SW 152 ST@SW 155 AV,25.625312,-80.445354
3524,SW 152 ST@SW 155 AV,25.62543,-80.445006
3581,SW 180 ST@SW 137 PL,25.600487,-80.415111
3580,SW 180 ST@SW 137 PL,25.600346,-80.415033
3579,SW 180 ST@SW 143 CT,25.600031,-80.425003
2047,E 4 AV@E 23 ST,25.842907,-80.274197
3578,SW 180 ST@SW 143 CT,25.600146,-80.42462
2046,E 4 AV@E 27 ST,25.846745,-80.274429
3594,SW 184 ST@SW 127 AV,25.597155,-80.39739
3593,SW 184 ST@SW 125 AV,25.597249,-80.394803
3596,SW 184 ST@SW 134 AV,25.596711,-80.409789
3595,SW 184 ST@SW 129 AV,25.597,-80.401407
3592,SW 184 ST@SW 122 AV,25.597408,-80.389727
2030,E 4 AV@E 62 ST,25.878714,-80.275016
3563,SW 172 ST@SW 139 PL,25.607307,-80.419883
2031,E 4 AV@E 60 ST,25.876823,-80.274988
2032,E 4 AV@E 58 ST,25.875492,-80.274949
2033,E 4 AV@E 56 ST,25.873688,-80.274887
2034,E 4 AV@E 53 ST,25.870547,-80.274806
2025,E 4 AV@E 58 ST,25.875154,-80.274799
2024,E 4 AV@E 56 ST,25.873709,-80.274734
2027,E 4 AV@E 62 ST,25.878735,-80.274869
2026,E 4 AV@E 60 ST,25.876986,-80.274848
2029,E 4 AV@E 64 ST,25.880865,-80.275077
2028,E 4 AV@E 64 ST,25.880916,-80.274944
2040,E 4 AV@E 38 ST,25.857324,-80.274748
2041,E 4 AV@E 37 ST,25.855864,-80.274754
2044,E 4 AV@E 31 ST,25.850077,-80.274608
2045,E 4 AV@E 29 ST,25.848862,-80.274546
2042,E 4 AV@E 35 ST,25.85455,-80.274782
2043,E 4 AV@E 33 ST,25.852602,-80.27478
3564,SW 172 ST@SW 139 PL,25.607412,-80.419529
2038,E 4 AV@E 43 ST,25.861443,-80.274737
2037,E 4 AV@E 45 ST,25.86324,-80.27474
2036,E 4 AV@E 47 ST,25.865531,-80.274719
2035,E 4 AV@E 51 ST,25.868721,-80.274769
2039,E 4 AV@E 41 ST,25.8594,-80.274748
3603,SW 184 ST@SW 122 AV,25.597238,-80.389209
3601,SW 184 ST@SW 127 AV,25.59698,-80.397316
3602,SW 184 ST@SW 124 AV,25.597109,-80.393273
3600,SW 184 ST@SW 129 AV,25.596894,-80.401411
5025,NW 75 AV CORP WAY@NW 19 ST,25.790615,-80.318795
5026,NW 75 AV CORP WAY@NW 19 ST,25.790681,-80.318638
5044,NW 107 AV@FOUNTAINEBLEAU BD,25.77533,-80.369385
5050,NW 107 AV@# 322,25.773188,-80.369485
5051,NW 107 AV@# 230,25.770904,-80.369297
5057,NW 118 AV@NW 2 ST,25.770175,-80.387097
5058,NW 118 AV@NW 2 ST,25.770176,-80.387225
5059,NW 132 AV@NW 2 ST,25.769608,-80.408951
5052,NW 107 AV@W FLAGLER ST,25.77096,-80.36904
5053,NW 107 AV@# 461,25.773047,-80.369215
5049,NW 107 AV@NW 7 ST,25.775018,-80.369668
5061,NW 132 AV@NW 2 ST,25.768674,-80.409021
5060,NW 132 AV@NW 6 ST,25.771973,-80.409093
6498,NW 183 ST@NW 19 AV,25.941289,-80.233157
6497,NW 183 ST@NW 20 AV,25.941222,-80.235112
6496,NW 183 ST@NW 22 AV,25.941141,-80.236982
9319,COLLINS AV@88 ST,25.873455,-80.121301
9322,COLLINS AV@92 ST,25.879699,-80.121948
9323,COLLINS AV@93 ST,25.881703,-80.12213
9320,COLLINS AV@90 ST,25.87602,-80.121519
9321,COLLINS AV@# 9011,25.877072,-80.121659
9326,HARDING AV@94 ST,25.883738,-80.12347
9327,HARDING AV@93 ST,25.88142,-80.123238
9324,COLLINS AV@94 ST,25.883307,-80.122284
9325,COLLINS AV@95 ST,25.885148,-80.122451
9329,HARDING AV@SURFSIDE BD,25.877775,-80.122852
9328,HARDING AV@92 ST,25.879598,-80.12306
9330,HARDING AV@90 ST,25.876352,-80.122672
9331,HARDING AV@88 ST,25.873343,-80.122366
9347,88 ST@HARDING AV,25.873265,-80.122091
9340,BAY DR@96 ST,25.886639,-80.126946
9355,SW 109 AV@W FLAGLER ST,25.768084,-80.373048
3662,SW 200 ST@SW 122 AV,25.580927,-80.388209
3661,SW 200 ST@SW 118 PL,25.580961,-80.385038
3660,SW 200 ST@SW 117 CT,25.580938,-80.382249
3673,SW 211 ST@US 1,25.571194,-80.375485
3672,SW 211 ST@SW 112 AV,25.571304,-80.373736
3663,SW 200 ST@SW 118 PL,25.58083,-80.383896
3664,SW 200 ST@SW 117 CT,25.580834,-80.381309
6413,NW 167 ST@NW 24 AV,25.926921,-80.240256
6412,NW 167 ST@NW 19 AV,25.92718,-80.232404
6403,NW 167 ST@# 2320,25.926204,-80.239294
6404,NW 167 ST@NW 19 ST,25.926406,-80.233131
7930,NW 11 ST@NW 8 ST RD,25.784003,-80.210022
7927,NW 11 ST@NW 10 CT,25.784092,-80.212381
7926,NW 11 ST@NW 10 AV,25.784134,-80.211119
7921,NW 13 TE@NW NORTH RIVER DR,25.786564,-80.22011
7920,NE 13 ST@N BAYSHORE DR,25.787137,-80.187648
7923,NW 13 TE@NW NORTH RIVER DR,25.786442,-80.220702
7922,NW 13 TE@NW 14 AV,25.787403,-80.219157
7929,NW 11 ST@NW 10 CT,25.783943,-80.212383
7919,MAC ARTHUR CY@JAPANESE GARDENS,25.784531,-80.174776
7918,MAC ARTHUR CY@WATSON ISLAND,25.78371,-80.174724
7900,NE 14 ST@NE 2 AV,25.78831,-80.190911
7901,NE 14 ST@NE 2 AV,25.788428,-80.191078
7902,NE 14 ST@NE MIAMI CT,25.788376,-80.193273
7903,NW 14 ST@NW MIAMI CT,25.788302,-80.195454
7904,NW 14 ST@NW 1 CT,25.788271,-80.196987
155,NW 25 AV@NW 165 ST,25.924941,-80.241563
6388,NW 160 ST@# 2501,25.920355,-80.241711
6389,NW 160 ST@NW 26 AV,25.920304,-80.243165
9201,COLLINS AV@# 18101,25.943802,-80.120993
9202,COLLINS AV@183 ST,25.945982,-80.12084
9200,COLLINS AV@178 ST,25.94241,-80.121072
9205,COLLINS AV@189 ST,25.9501,-80.120567
9206,COLLINS AV@189 ST,25.950317,-80.121022
9203,COLLINS AV@185 ST,25.947026,-80.120769
6390,NW 160 ST@NW 26 AV,25.920167,-80.243079
9204,COLLINS AV@186 ST,25.94896,-80.120653
6391,NW 160 ST@# 2450,25.920215,-80.241403
9208,COLLINS AV@185 ST,25.946862,-80.12111
9207,COLLINS AV@186 ST,25.948841,-80.120966
9209,COLLINS AV@183 ST,25.945441,-80.121205
9210,COLLINS AV@182 ST,25.944527,-80.121254
9211,COLLINS AV@# 18080,25.943028,-80.12135
9212,COLLINS AV@178 ST,25.941074,-80.121482
9213,COLLINS AV@174 ST,25.937859,-80.121684
9214,COLLINS AV@172 ST,25.935862,-80.121798
9215,COLLINS AV@170 ST,25.933377,-80.121945
9216,COLLINS AV@# 16830,25.932029,-80.122043
9217,COLLINS AV@ATLANTIC AV,25.926642,-80.122474
9220,COLLINS AV@OP # 15645,25.921317,-80.122595
9226,174 ST@COLLINS AV,25.937726,-80.122104
9225,174 ST@COLLINS AV,25.93753,-80.121807
9228,178 DR@CHURCH ST,25.940071,-80.124849
9227,174 ST@# 231,25.937221,-80.124725
9222,N BAY RD@178 DR,25.938864,-80.126073
9221,N BAY RD@178 DR,25.938964,-80.126203
9224,174 ST@BLK 230,25.937057,-80.124455
9223,NE 163 ST@N BAY RD,25.930655,-80.12566
9218,COLLINS AV@159 ST-KINGS PT DR,25.924074,-80.122535
9219,COLLINS AV@BAYVIEW DR-158 ST,25.922754,-80.122557
9231,178 DR@CHURCH ST,25.940119,-80.124968
9230,178 ST@ATLANTIC BD,25.941464,-80.123152
9229,178 DR@178 ST,25.94102,-80.123543
10399,SW 88 Street @ 162 Ave East Far,25.683972,-80.453529
10397,NW 21 ST@NW 19 AV,25.795613,-80.22729
10395,23 ST@LIBERTY AVE,25.798564,-80.128941
10394,BAY RD@20 ST,25.795028,-80.143681
10392,NW 67 AV@NW 174 ST S-F,25.93055,-80.30997
10391,NW 59 AV@NW 186 ST S-F,25.93746,-80.29935
7889,N VENETIAN WY@NE 12 PL,25.790858,-80.169409
7888,N VENETIAN WY@NE 13 PL,25.790963,-80.167621
7887,S VENETIAN WY@NE 13 PL,25.790055,-80.16756
7897,NW 14 ST@NW 1 CT,25.788073,-80.197334
7892,VENETIAN WY@N VENETIAN DR,25.790219,-80.175632
7890,VENETIAN WY@OP VENETIAN CT,25.790356,-80.172494
7891,VENETIAN WY@OP # 1000 BLDG,25.790303,-80.173883
10470,SW 80 ST@SW 158 AV,25.69208,-80.450091
7883,VENETIAN WY@OP N VENETIAN DR,25.790047,-80.175694
7884,VENETIAN WAY@#  1000,25.790144,-80.173677
7885,VENETIAN WY@VENETIAN CT,25.7902,-80.172508
7886,S VENETIAN WY@NE 12 PL,25.789973,-80.169249
7880,NE 15 ST@HERALD PLAZA,25.789733,-80.186147
7882,NE 15 ST@HERALD PLAZA,25.789511,-80.186374
9192,COLLINS AV@BAYVIEW DR,25.922121,-80.122244
9194,COLLINS AV@160 ST,25.925404,-80.122163
9193,COLLINS AV@159 ST-KINGS PT DR,25.923465,-80.122223
9196,COLLINS AV@170 ST,25.933874,-80.121606
9195,COLLINS AV@OP # 16830,25.932001,-80.121714
9198,COLLINS AV@174 ST,25.937453,-80.121388
9197,COLLINS AV@172 ST,25.935863,-80.121484
9199,COLLINS AV@175 TE(#17555),25.939186,-80.121295
7899,NE 14 ST@NE 1 AV,25.788235,-80.192592
7898,NW 14 ST@NW MIAMI CT,25.788124,-80.195178
7865,NW NORTH RIVER DR@NW 17 AV,25.787138,-80.222802
7873,NW NORTH RIVER DR@NW 17 AV,25.786499,-80.221761
7856,NW 17 ST@NW 9 AV,25.791348,-80.209851
10400,SW 88 ST@SW 157 AV,25.684211,-80.446405
10401,NW 1 AV@NW 5 ST (S/F),25.778538,-80.195394
8018,NW 5 ST@NW 3 AV,25.778693,-80.200388
10296,SW 136 ST@SW 100 AV,25.643194,-80.355707
9143,OLD CUTLER RD@DEERING BAY,25.645615,-80.291166
10271,OLD CUTLER RD@LUGO AV,25.652562,-80.285605
3033,SW 87 AV@CARIBBEAN BD.,25.593315,-80.332073
10284,E BUNCHE PARK DR@# 15820,25.918497,-80.23412
3049,SW 97 AV@SW 92 ST,25.683955,-80.35176
3048,SW 97 AV@# 9000,25.684452,-80.351695
3047,SW 97 AV@# 8980,25.685657,-80.351001
9107,SW 168 ST@SW 92 AV,25.614197,-80.341239
3052,SW 97 AV@SW 99 ST,25.677402,-80.351521
3053,SW 97 AV@SW 104 ST,25.672503,-80.351408
3050,SW 97 AV@SW 93 TE,25.682609,-80.351712
3051,SW 97 AV@SW 96 ST,25.679875,-80.351631
3056,SW 97 AV@SW 112 ST,25.665918,-80.351195
3054,SW 97 AV@SW 106 TE,25.6702,-80.351323
3055,SW 97 AV@SW 110 ST,25.667548,-80.351234
9108,SW 168 ST@SW 94 AV,25.614075,-80.344816
9109,SW 168 ST@SW 94 AV,25.613971,-80.344697
9110,SW 168 ST@SW 92 AV,25.614104,-80.341089
3044,SW 87 AV@CARIBBEAN BD,25.594087,-80.33194
3045,SW 87 AV@SW 184 ST,25.599014,-80.332004
3046,SW 97 AV@SW 88 ST,25.686719,-80.349981
3069,SW 97 AV@SW 110 ST,25.667527,-80.351065
3070,SW 97 AV@SW 106 ST,25.670814,-80.35115
3071,SW 97 AV@SW 104 ST,25.672643,-80.351243
3078,SW 102 AV@SW 110 ST,25.667241,-80.359324
3079,SW 102 AV@SW 112 ST,25.665487,-80.359351
3076,SW 97 AV@# 9101,25.685713,-80.350599
3077,SW 97 AV@SW 88 ST,25.686904,-80.349639
3074,SW 97 AV@SW 94 ST,25.68193,-80.351549
3075,SW 97 AV@SW 92 ST,25.683701,-80.351558
3072,SW 97 AV@SW 99 ST,25.677364,-80.351364
3073,SW 97 AV@SW 97 ST,25.679108,-80.351443
3068,SW 97 AV@SW 112 ST,25.666227,-80.351019
10333,NW 3 AV@NW 10 ST,25.783745,-80.199809
10334,NW 3 AV@NW 10 ST,25.783434,-80.199643
10335,NW 5 AV@NW 17 ST,25.792023,-80.203137
10336,NW 4 CT@NW 19 TE,25.794001,-80.202377
10330,NW 1 AV@NW 5 ST,25.779131,-80.195269
10331,NW 9 ST@NW 2 CT,25.782737,-80.198709
10332,NW 9 ST@NW 2 CT,25.782624,-80.198703
10337,NW 8 ST@NW 6 AV,25.781727,-80.207113
10324,NW 11 ST@NW 11 AVE,25.784245,-80.212749
10328,NW 8 ST@NW 6 AV,25.781456,-80.204426
10329,NW 8 ST@NW 6 AV,25.781625,-80.204444
10327,NW 8 ST RD@NW 11 ST,25.783695,-80.209237
10317,SW 167 AV @SW 88 ST SOUTH FAR,25.683747,-80.462122
10319,NW 17 ST @ 62 AV,25.790649,-80.297069
3936,SW 132 AV@SW 2 ST (N/F),25.765982,-80.408871
3937,SW 132 AV@SW 2 ST (S/F),25.765005,-80.40895
7714,NE 39 ST@NE MIAMI CT,25.81264,-80.194433
3970,SW 137 AV@SW 42 ST,25.725708,-80.415714
10387,NW 75 PL@NW 186 ST N-N,25.94178,-80.32212
10386,NW 75 PL@NW 179 ST N-F,25.93636,-80.32398
10385,NW 75 PL@NW 176 ST N-F,25.93327,-80.32476
10384,NW 75 PL@NW 173 TR N-N,25.92931,-80.32456
10382,NW 173 DR@NW 72 AV W-N,25.92881,-80.3177
3967,SW 137 AV@SW 38 ST,25.732093,-80.415951
10383,NW 173 DR@73 PL W-F,25.92881,-80.3212
3966,SW 137 AV@SW 34 ST,25.735561,-80.41609
10380,NW 173 DR@#6881 W-F,25.93012,-80.31147
3965,SW 137 AV@SW 30 ST,25.739095,-80.416229
10381,NW 173 DR@NW 69 CT W-F,25.92912,-80.31484
3964,SW 137 AV@SW 26 ST,25.74278,-80.416387
3962,SW 137 AV@SW 14 ST,25.753976,-80.416804
3961,SW 137 AV@SW 11 ST,25.756697,-80.416901
3960,SW 137 AV@SW 8 ST,25.760014,-80.417038
3969,SW 137 AV@SW 42 ST,25.728223,-80.415795
3968,SW 137 AV@SW 42 ST,25.729376,-80.415855
10377,Sheridan Street Tri-Rail Station,26.031717,-80.167774
10379,NW 67 AV@NW 178 ST S-F,25.93607,-80.30813
10376,NW 177 ST@NW 59 AV,25.933812,-80.297778
9097,SW 87 AV@SW 178 ST,25.604324,-80.332335
9099,SW 87 AV@SW 178 ST,25.60478,-80.332241
9098,SW 87 AV@SW 184 ST,25.599442,-80.332135
10369,US 1@MM87 NORTH NEAR,24.959922,-80.568438
10368,US 1@MM 87 SOUTH NEAR,24.960387,-80.568001
3985,SW 137 AV@SW 79 ST,25.692784,-80.415623
3984,SW 137 AV@SW 82 ST,25.690175,-80.415575
3988,SW 137 AV@SW 72 ST,25.699726,-80.414338
7767,NE 36 ST@NE 6 AV,25.810633,-80.186428
3987,SW 137 AV@SW 74 ST,25.697074,-80.414399
3986,SW 137 AV@SW 76 ST,25.694805,-80.415196
3972,SW 137 AV@SW 53 ST,25.717387,-80.415395
3971,SW 137 AV@SW 47 ST,25.72212,-80.415614
3973,SW 137 AV@SW 56 ST,25.71479,-80.415274
3979,SW 137 AV@SW 72 ST,25.699652,-80.414649
6667,NW 3 ST@NW 2 AV,25.77689,-80.196971
10308,SW 187 AV@SW 352 ST,25.440796,-80.493243
10303,COLLINS AV@40 ST,25.812504,-80.122934
9045,OPA LOCKA BD@NW 22 AV,25.898234,-80.236055
9046,OPA LOCKA BD@NW 24 AV,25.898125,-80.239641
9047,OPA LOCKA BD@# 2525,25.898108,-80.241172
9049,FISHERMAN ST@OPA LOCKA BD,25.902117,-80.251452
10159,SW 192 AV@# 36590,25.431952,-80.501524
3155,SW 112 AV@SW 109 ST,25.667526,-80.375741
3154,SW 112 AV@SW 107 ST,25.668763,-80.375766
9040,NW 135 ST@NW 42 AV,25.896592,-80.267903
10155,SW 89 PL@SW 136 ST,25.647707,-80.339846
9041,NW 135 ST@NW 45 AV,25.896455,-80.272329
9042,NW 135 ST@NW 47 AV,25.89637,-80.275094
9043,OPA LOCKA BD@NW 19 AV,25.898376,-80.232209
9044,OPA LOCKA BD@# 2151,25.89834,-80.234337
10161,SW 120 ST@SW 123 PSGE,25.656363,-80.395505
10160,SW 192 AV@# 36590,25.431924,-80.5014
10163,SW 136 ST@SW 92 AV,25.646736,-80.342647
10162,SW 120 ST@SW 127 AV,25.656931,-80.400034
10164,SW 136 ST@SW 97 AV,25.643414,-80.349934
10165,SW 136 ST@SW 92 AV,25.646593,-80.342243
10170,SW 162 AV@SW 85 ST,25.686661,-80.453993
3994,SW 137 AV@SW 49 TE,25.717757,-80.415045
3999,SW 137 AV@SW 38 ST,25.732422,-80.415638
10172,SW 162 AV@SW 85 ST,25.686588,-80.454283
3998,SW 137 AV@SW 42 ST,25.729773,-80.415535
9023,NW 135 ST@NW 47 AV,25.896192,-80.275662
9024,NW 135 ST@NW 45 AV,25.896311,-80.27189
9038,NW 135 ST@NW 37/42 AV CONNECTO,25.89673,-80.259521
9032,NW 135 ST@NW 27 AV,25.897168,-80.244372
9031,NW 135 ST@NW 28 AV,25.897122,-80.245415
10196,NW 29 AV@NW 43 TER,25.814753,-80.242516
10199,NW 31 AV@NW 53 LN,25.823387,-80.246905
3189,SW 112 AV@SW 109 ST,25.666998,-80.375508
10207,NW 43  TER@NW 31 AV,25.814519,-80.246398
10205,NW 48 TER@NW 30 AV,25.818571,-80.244801
10206,NW 44 ST@NW 32 AV,25.814932,-80.248393
7610,NE 79 ST@NE MIAMI CT,25.847546,-80.196256
10200,NW 31 AV@NW 50 ST,25.819835,-80.24678
10203,NW 33 AV@NW 51 ST,25.820796,-80.250844
10204,NW 33 AV@NW 53 ST,25.822756,-80.2509
10201,NW 33 AV@NW 47 ST,25.816881,-80.250606
10202,NW 33 AV@NW 49 ST,25.819053,-80.250772
7607,NE 79 ST@NE 4 AV,25.847775,-80.189212
7608,NE 79 ST@NE 3 AV,25.847704,-80.191125
7606,NE 79 ST@NE 5 AV,25.847852,-80.186931
7603,NE 79 ST@NE 8 CT,25.848078,-80.179297
7604,NE 79 ST@NE 7 AV,25.847978,-80.182546
7601,NE 79 ST@N BAYSHORE DR,25.848209,-80.174642
7602,NE 79 ST@NE 10 AV,25.848149,-80.176729
7600,NE 79 ST@PELICAN HARBOR DR,25.848509,-80.166322
7633,NW 71 ST@NW 1 AV,25.839851,-80.199215
7632,NW 71 ST@NW 2 AV,25.839959,-80.200363
7631,NE 71 ST@NE 2 AV,25.840225,-80.193346
10220,SW 216 ST@SW 98 CT,25.566405,-80.350501
7625,NE 79 ST@NE 7 AV,25.84781,-80.182335
7626,NE 79 ST@NE 8 CT,25.84789,-80.179725
7623,NE 79 ST@NE 4 AV,25.847601,-80.189084
7624,NE 79 ST@NE 5 AV,25.84768,-80.186588
7629,NE 79 ST@PELICAN HARBOR DR,25.848192,-80.166226
7627,NE 79 ST@NE 10 AV,25.847971,-80.176559
7628,NE 79 ST@N BAYSHORE DR,25.848046,-80.174172
10216,SW 162 AV@SW 88 ST NORTH NEAR,25.683732,-80.457073
10214,E 2 AV@HIALEAH  DR,25.822849,-80.277219
7620,NE 79 ST@NE MIAMI CT,25.847375,-80.196125
10211,MERIDIAN AV@LINCOLN RD,25.790429,-80.13663
7621,NE 79 ST@NE 1 CT,25.847432,-80.194457
7613,NW 79 ST@NW 3 AV,25.84734,-80.202801
7614,NW 79 ST@NW 4 AV,25.847305,-80.203831
7615,NW 79 ST@NW 5 AV,25.847257,-80.20553
7616,NW 79 ST@NW 5 AV,25.847092,-80.205145
7617,NW 79 ST@NW 4 AV,25.84716,-80.203189
7619,NW 79 ST@# 140,25.847246,-80.199923
10244,SW 152 ST@SW 117 AV,25.627133,-80.381973
10243,SW 104 ST@SW 79 AV,25.673692,-80.322677
10242,SW 104 ST@SW 82 AV,25.673627,-80.326696
10241,SW 104 ST@SW 87 AV,25.673408,-80.334692
10245,SW 216 ST@SW 98 CT,25.566663,-80.350165
10240,SW 104 ST@SW 82 AV,25.67376,-80.326422
10231,SW 87 AV@SW 116 ST,25.662135,-80.334839
10230,SW 87 AV@SW 104 ST,25.673065,-80.335212
10233,SW 87 AV@SW 124 ST,25.655186,-80.334579
10232,SW 87 AV@SW 120 ST,25.65883,-80.334736
10235,SW 87 AV@SW 124 ST,25.655237,-80.334431
10234,SW 87 AV@SW 127 ST,25.651883,-80.334343
10237,SW 87 AV@SW 116 ST,25.662533,-80.334712
10236,SW 87 AV@SW 120 ST,25.658855,-80.334571
10239,SW 104 ST@SW 79 AV,25.673914,-80.322696
7634,NE 71 ST@N MIAMI AV,25.839964,-80.196069
10254,NW 107 AV@NW 14 ST,25.786415,-80.368906
10250,SW 72 ST@SW 158 PATH,25.698912,-80.449809
10251,SW 72 ST@SW 158 PATH,25.698703,-80.449984
1915,US 1@34900 BLOCK,25.442353,-80.474882
1913,US 1@E PALM DR,25.446419,-80.475285
1914,US 1@34800 BLOCK,25.442033,-80.475195
1911,US 1@#33525 (G. CORRAL),25.455872,-80.473396
6519,NW 183 ST@NW 18 AV,25.941573,-80.231614
6514,NW 183 ST@NW 10 CT,25.942124,-80.218112
6515,NW 183 ST@NW 12 AV,25.94201,-80.220755
6513,NW 183 ST@NW 8 PL,25.942231,-80.215772
6521,NW 183 ST@NW 22 AV,25.941355,-80.237079
6520,NW 183 ST@NW 19 AV,25.941474,-80.234244
6505,NW 183 ST@NW 8 PL,25.942003,-80.215212
6503,NW 183 ST@NW 12 AV,25.941802,-80.220619
6504,NW 183 ST@NW 10 CT,25.941892,-80.218332
