stop_id,stop_name,stop_lat,stop_lon
828179503,ktran9,28.248141,-82.355116
828178128,ktran9,28.129602,-82.5075
828196969,ktran9,28.135334,-82.464311
828179440,ktran9,28.172537,-82.382659
828177288,ktran9,28.062213,-82.646182
828183437,ktran9,28.059179,-82.645945
828183492,ktran9,28.060192,-82.645881
828183493,ktran9,28.064246,-82.644199
828197780,ktran9,28.05522,-82.622825
828198539,ktran9,28.05594,-82.6265
828180228,ktran9,27.968072,-82.727184
828180089,ktran9,27.960399,-82.727877
828180106,ktran9,27.960393,-82.733203
828180209,ktran9,27.96422,-82.73403
828177195,ktran9,27.968108,-82.717109
828180094,ktran9,27.960485,-82.725415
828197581,ktran9,27.960489,-82.72053
828197636,ktran9,27.960588,-82.718096
828180112,ktran9,27.960974,-82.712691
828180125,ktran9,27.964913,-82.712794
828186542,ktran9,27.96064,-82.71195
828192657,ktran9,28.081853,-82.541822
828197453,ktran9,28.081731,-82.54651
828182667,ktran9,28.111354,-82.502617
828181120,ktran9,28.103287,-82.502123
828182693,ktran9,28.107285,-82.502575
828183879,ktran9,28.10364,-82.502529
828181107,ktran9,28.098692,-82.502451
828189174,ktran9,28.101676,-82.502518
828198331,ktran9,28.101368,-82.502112
828182691,ktran9,28.092841,-82.502507
828181139,ktran9,28.088733,-82.503636
828181150,ktran9,28.086791,-82.504429
828181230,ktran9,28.086872,-82.503997
828198386,ktran9,28.088257,-82.50344
828181090,ktran9,28.08287,-82.50603
828189192,ktran9,28.08155,-82.506575
828185534,ktran9,28.087816,-82.452494
828192319,ktran9,28.087859,-82.457645
828197777,ktran9,28.086998,-82.459693
828186685,ktran9,28.083433,-82.459502
828186981,ktran9,28.082596,-82.459654
828195315,ktran9,28.0812,-82.45962
828195319,ktran9,28.084246,-82.459511
828196519,ktran9,28.082121,-82.459483
828196537,ktran9,28.083888,-82.459668
828196956,ktran9,28.08649,-82.459521
828185430,ktran9,28.086221,-82.451256
828185520,ktran9,28.08192,-82.451251
828185569,ktran9,28.0823,-82.451509
828187028,ktran9,28.086248,-82.45159
828179905,ktran9,28.066258,-82.5769
828179910,ktran9,28.065943,-82.575536
828182641,ktran9,28.065771,-82.580681
828182645,ktran9,28.064512,-82.582346
828189071,ktran9,28.062122,-82.582732
828190086,ktran9,28.061877,-82.582362
828197443,ktran9,28.076127,-82.570107
828180606,ktran9,28.065947,-82.572423
828192578,ktran9,28.065923,-82.569372
828192606,ktran9,28.065957,-82.571095
828192623,ktran9,28.066272,-82.57264
828192711,ktran9,28.066275,-82.570779
828195682,ktran9,28.065368,-82.56415
828196684,ktran9,28.06573,-82.564201
828195596,ktran9,28.065266,-82.558037
828195631,ktran9,28.065,-82.553484
828195701,ktran9,28.065595,-82.560624
828195719,ktran9,28.065611,-82.557662
828196728,ktran9,28.065309,-82.560541
828195608,ktran9,28.064529,-82.55319
828182663,ktran9,28.062226,-82.550374
828182673,ktran9,28.059903,-82.549782
828182674,ktran9,28.059888,-82.549625
828184027,ktran9,28.062551,-82.541671
828190833,ktran9,28.061443,-82.542855
828191802,ktran9,28.063303,-82.547805
828195646,ktran9,28.063791,-82.549488
828195795,ktran9,28.061895,-82.543221
828195844,ktran9,28.063609,-82.550117
828195853,ktran9,28.06255,-82.546462
828184227,ktran9,28.059628,-82.537632
828195444,ktran9,28.059186,-82.536
828195678,ktran9,28.060053,-82.537846
828189144,ktran9,28.05603,-82.582747
828189147,ktran9,28.058439,-82.582744
828190101,ktran9,28.056671,-82.582394
828190111,ktran9,28.057875,-82.582396
828189136,ktran9,28.051059,-82.582864
828189137,ktran9,28.053392,-82.582818
828189413,ktran9,28.050748,-82.582505
828189419,ktran9,28.052949,-82.582459
828196701,ktran9,28.048829,-82.582533
828196710,ktran9,28.048756,-82.582948
828177301,ktran9,28.045057,-82.598785
828177349,ktran9,28.044785,-82.598868
828183468,ktran9,28.044645,-82.583572
828197463,ktran9,28.044899,-82.582567
828179693,ktran9,28.040543,-82.582985
828189114,ktran9,28.039039,-82.583033
828189436,ktran9,28.03904,-82.582607
828177499,ktran9,28.057968,-82.549643
828177500,ktran9,28.057207,-82.549916
828180563,ktran9,28.053803,-82.549698
828180585,ktran9,28.05392,-82.549871
828195432,ktran9,28.057225,-82.531841
828195824,ktran9,28.05899,-82.53613
828195827,ktran9,28.055868,-82.52966
828182678,ktran9,28.050226,-82.549896
828182736,ktran9,28.049936,-82.549714
828182699,ktran9,28.04635,-82.549912
828182743,ktran9,28.045499,-82.549738
828182749,ktran9,28.040665,-82.548789
828197786,ktran9,28.040119,-82.542616
828198102,ktran9,28.040285,-82.548718
828198532,ktran9,28.040526,-82.543245
828181235,ktran9,28.076506,-82.506694
828189187,ktran9,28.076838,-82.50699
828198378,ktran9,28.080153,-82.506589
828181222,ktran9,28.074687,-82.506681
828189768,ktran9,28.07084,-82.50664
828198263,ktran9,28.07108,-82.50636
828198399,ktran9,28.07337,-82.50667
828181238,ktran9,28.06915,-82.505863
828181245,ktran9,28.06639,-82.504905
828188648,ktran9,28.06572,-82.50029
828189759,ktran9,28.068828,-82.506039
828197676,ktran9,28.065758,-82.501659
828187831,ktran9,28.06585,-82.48752
828187851,ktran9,28.065581,-82.493985
828187852,ktran9,28.0657,-82.4861
828187855,ktran9,28.065833,-82.492248
828188632,ktran9,28.065674,-82.488926
828188637,ktran9,28.06571,-82.48768
828188646,ktran9,28.06584,-82.49302
828188649,ktran9,28.065716,-82.490289
828188653,ktran9,28.065853,-82.488898
828193285,ktran9,28.065855,-82.485475
828183871,ktran9,28.061963,-82.503593
828189198,ktran9,28.061537,-82.503947
828197832,ktran9,28.05941,-82.503459
828198286,ktran9,28.062001,-82.500704
828195457,ktran9,28.075908,-82.459528
828195501,ktran9,28.080476,-82.459609
828195519,ktran9,28.078546,-82.459575
828196474,ktran9,28.07667,-82.459356
828196516,ktran9,28.0785,-82.459422
828196533,ktran9,28.080365,-82.45945
828183793,ktran9,28.077936,-82.451397
828183796,ktran9,28.080716,-82.451468
828185502,ktran9,28.078597,-82.451082
828185507,ktran9,28.080196,-82.451187
828187008,ktran9,28.076117,-82.451117
828197884,ktran9,28.080468,-82.450491
828197885,ktran9,28.076379,-82.451366
828197891,ktran9,28.080711,-82.443246
828197894,ktran9,28.080479,-82.446228
828197931,ktran9,28.080354,-82.446185
828197933,ktran9,28.080526,-82.443234
828186704,ktran9,28.071281,-82.45925
828186945,ktran9,28.071144,-82.459456
828195323,ktran9,28.074471,-82.459342
828195473,ktran9,28.074359,-82.459503
828196486,ktran9,28.072032,-82.459305
828196502,ktran9,28.070601,-82.459446
828183788,ktran9,28.074595,-82.447178
828183790,ktran9,28.074595,-82.449044
828184897,ktran9,28.074721,-82.444953
828184900,ktran9,28.0747,-82.448988
828184905,ktran9,28.074722,-82.446937
828184912,ktran9,28.074586,-82.444775
828185268,ktran9,28.074495,-82.451112
828186695,ktran9,28.073763,-82.442839
828186838,ktran9,28.073907,-82.443011
828196025,ktran9,28.072931,-82.442723
828196212,ktran9,28.070602,-82.45099
828197901,ktran9,28.074662,-82.451303
828197904,ktran9,28.073065,-82.451291
828197930,ktran9,28.073125,-82.451097
828182687,ktran9,28.06922,-82.47829
828187820,ktran9,28.066205,-82.483725
828187841,ktran9,28.06856,-82.48052
828187874,ktran9,28.06824,-82.48063
828188581,ktran9,28.069306,-82.47605
828188638,ktran9,28.066084,-82.483617
828193283,ktran9,28.069391,-82.478141
828193303,ktran9,28.069443,-82.47535
828187858,ktran9,28.06944,-82.473495
828187859,ktran9,28.068899,-82.470216
828187864,ktran9,28.068762,-82.470344
828188596,ktran9,28.069082,-82.467876
828188603,ktran9,28.069259,-82.46362
828188604,ktran9,28.069303,-82.473856
828190946,ktran9,28.069348,-82.467274
828179604,ktran9,28.065412,-82.459262
828186709,ktran9,28.068265,-82.459445
828187860,ktran9,28.069365,-82.46126
828187861,ktran9,28.069189,-82.456479
828187886,ktran9,28.06925,-82.461252
828188594,ktran9,28.069201,-82.453374
828190959,ktran9,28.069316,-82.453028
828190967,ktran9,28.069343,-82.45615
828190997,ktran9,28.069403,-82.463249
828195381,ktran9,28.067597,-82.459259
828196490,ktran9,28.069922,-82.459273
828196500,ktran9,28.065111,-82.459424
828196501,ktran9,28.066988,-82.459435
828197648,ktran9,28.069188,-82.460216
828197650,ktran9,28.069382,-82.460195
823543657,EdHillsman,28.0693436,-82.4435407
823543662,EdHillsman,28.069095,-82.4430421
823584961,EdHillsman,28.0693647,-82.4457456
828182066,ktran9,28.068737,-82.451314
828182093,ktran9,28.065776,-82.451324
828182220,ktran9,28.065359,-82.450999
828182949,ktran9,28.0689,-82.45098
828183805,ktran9,28.064702,-82.442885
828184614,ktran9,28.067529,-82.45108
828184861,EdHillsman,28.069304,-82.4491452
828185213,ktran9,28.06546,-82.44221
828188544,ktran9,28.069183,-82.45034
828190925,EdHillsman,28.0693716,-82.4468122
828190989,ktran9,28.069316,-82.450787
828194843,ktran9,28.067578,-82.451324
828194898,EdHillsman,28.065614,-82.4419869
828195615,EdHillsman,28.0691018,-82.4456052
828195627,EdHillsman,28.0691089,-82.4474935
828196230,ktran9,28.070068,-82.451324
828191826,ktran9,28.062569,-82.459454
828195417,ktran9,28.060411,-82.459441
828195418,ktran9,28.062044,-82.459454
828196465,ktran9,28.062348,-82.459277
828196471,ktran9,28.059992,-82.459287
828196499,ktran9,28.06427,-82.459272
828180772,ktran9,28.059963,-82.451019
828182079,ktran9,28.062661,-82.451354
828182118,ktran9,28.059302,-82.451343
828182123,ktran9,28.06143,-82.451354
828182204,ktran9,28.062607,-82.451009
828183613,ktran9,28.060244,-82.442747
828190376,ktran9,28.062077,-82.442864
828190389,ktran9,28.0645,-82.442737
828190394,ktran9,28.061756,-82.442747
828190610,ktran9,28.060313,-82.44287
828195591,ktran9,28.061212,-82.451019
828195566,ktran9,28.05548,-82.528291
828195785,ktran9,28.055411,-82.528775
828183261,ktran9,28.052839,-82.524964
828184228,ktran9,28.05131,-82.522803
828195548,ktran9,28.052351,-82.523706
828195550,ktran9,28.048141,-82.51821
828189177,ktran9,28.059027,-82.50381
828189184,ktran9,28.057028,-82.503974
828198307,ktran9,28.056376,-82.50367
828181278,ktran9,28.049276,-82.504196
828181438,ktran9,28.051043,-82.504041
828189209,ktran9,28.053319,-82.504196
828189221,ktran9,28.049259,-82.504475
828189231,ktran9,28.050463,-82.504397
828197834,ktran9,28.053415,-82.50388
828195817,ktran9,28.048045,-82.518502
828195534,ktran9,28.045775,-82.515445
828195657,ktran9,28.044354,-82.513715
828195746,ktran9,28.045234,-82.515102
828195879,ktran9,28.043947,-82.513628
828178790,ktran9,28.042114,-82.511338
828178803,ktran9,28.04211,-82.510906
828187628,ktran9,28.040445,-82.509134
828187673,ktran9,28.039857,-82.508532
828197825,ktran9,28.038617,-82.507994
828198529,ktran9,28.038544,-82.508288
828181292,ktran9,28.047308,-82.504338
828181321,ktran9,28.043554,-82.504562
828189233,ktran9,28.043629,-82.504905
828189236,ktran9,28.046585,-82.504705
828185641,ktran9,28.040187,-82.506673
828189254,ktran9,28.041513,-82.505016
828195230,ktran9,28.040046,-82.506671
828197822,ktran9,28.040249,-82.504671
828197417,ktran9,28.037855,-82.488324
828197439,ktran9,28.038117,-82.487848
828179036,ktran9,28.053676,-82.467683
828179252,ktran9,28.054564,-82.463567
828189704,ktran9,28.054482,-82.46744
828190167,ktran9,28.054676,-82.464526
828197793,ktran9,28.05469,-82.467421
828179045,ktran9,28.050923,-82.467722
828179258,ktran9,28.050875,-82.46761
828188661,ktran9,28.053522,-82.46751
828179029,ktran9,28.054678,-82.463342
828179087,ktran9,28.05472,-82.453
828179253,ktran9,28.054474,-82.45857
828179264,ktran9,28.054502,-82.45707
828179454,ktran9,28.05515,-82.459302
828179468,ktran9,28.058134,-82.459293
828179483,ktran9,28.055006,-82.459511
828184625,ktran9,28.054706,-82.459181
828196505,ktran9,28.05773,-82.459449
828178901,ktran9,28.054683,-82.444776
828178926,ktran9,28.054672,-82.442068
828179083,ktran9,28.054738,-82.451934
828179225,ktran9,28.054313,-82.444906
828179230,ktran9,28.05445,-82.451995
828179248,ktran9,28.054343,-82.442292
828180743,ktran9,28.055107,-82.451019
828180758,ktran9,28.056774,-82.451086
828182052,ktran9,28.053601,-82.451304
828182148,ktran9,28.056993,-82.451353
828183814,ktran9,28.055513,-82.442903
828184624,ktran9,28.054693,-82.449589
828190122,ktran9,28.055626,-82.442757
828190558,ktran9,28.054805,-82.442925
828190609,ktran9,28.058403,-82.442881
828194194,ktran9,28.057863,-82.442757
828194230,ktran9,28.053987,-82.442767
828177439,ktran9,28.049842,-82.459328
828177461,ktran9,28.052411,-82.459314
828186931,ktran9,28.053017,-82.459495
828180715,ktran9,28.04916,-82.451017
828182038,ktran9,28.051098,-82.451332
828182046,ktran9,28.049522,-82.451332
828183757,ktran9,28.05229,-82.442905
828186145,ktran9,28.050628,-82.442767
828186149,ktran9,28.051923,-82.442777
828186581,ktran9,28.052787,-82.451057
828186583,ktran9,28.049714,-82.451095
828186603,ktran9,28.048807,-82.451332
828190576,ktran9,28.051046,-82.442909
828190603,ktran9,28.053306,-82.442921
828195605,ktran9,28.05109,-82.451092
828179073,ktran9,28.046024,-82.467781
828188669,ktran9,28.047183,-82.467589
828188671,ktran9,28.045372,-82.467609
828188676,ktran9,28.043525,-82.467608
828189268,ktran9,28.043715,-82.467791
828197718,ktran9,28.045318,-82.467791
828179874,ktran9,28.037217,-82.482889
828183974,ktran9,28.039899,-82.480134
828189291,ktran9,28.039927,-82.477894
828191226,ktran9,28.03777,-82.482403
828191799,ktran9,28.040056,-82.480554
828195198,ktran9,28.03991,-82.474823
828195241,ktran9,28.040081,-82.477681
828179257,ktran9,28.042004,-82.467628
828179273,ktran9,28.038381,-82.467647
828188678,ktran9,28.039767,-82.467637
828195167,ktran9,28.039885,-82.467952
828195193,ktran9,28.03991,-82.472664
828195258,ktran9,28.040073,-82.474266
828195283,ktran9,28.04003,-82.47238
828195303,ktran9,28.039893,-82.469867
828195345,ktran9,28.040001,-82.463748
828195384,ktran9,28.040025,-82.467695
828195391,ktran9,28.040002,-82.466044
828195404,ktran9,28.040056,-82.469604
828195634,ktran9,28.039867,-82.466066
828197721,ktran9,28.042221,-82.467811
828197740,ktran9,28.038547,-82.467761
828197751,ktran9,28.040455,-82.467783
828179446,ktran9,28.042947,-82.459277
828179456,ktran9,28.047124,-82.459335
828186944,ktran9,28.048091,-82.459491
828197148,ktran9,28.043663,-82.4595
828197166,ktran9,28.047393,-82.459491
828180669,ktran9,28.043437,-82.451109
828180682,ktran9,28.044906,-82.451104
828180699,ktran9,28.047038,-82.451102
828181992,ktran9,28.043777,-82.451285
828182007,ktran9,28.047431,-82.451331
828186260,ktran9,28.045692,-82.451341
828190580,ktran9,28.045873,-82.442916
828190584,ktran9,28.043723,-82.442919
828190586,ktran9,28.047349,-82.442913
828194248,ktran9,28.04706,-82.442787
828194268,ktran9,28.045638,-82.442787
828194295,ktran9,28.043429,-82.442797
828179522,ktran9,28.037297,-82.459265
828179525,ktran9,28.040665,-82.459266
828186222,ktran9,28.041806,-82.459591
828191641,ktran9,28.0399,-82.458861
828194930,ktran9,28.039995,-82.458239
828195017,ktran9,28.039979,-82.455826
828195040,ktran9,28.039964,-82.4529
828195360,ktran9,28.040009,-82.460402
828195373,ktran9,28.041417,-82.459276
828195406,ktran9,28.038872,-82.459631
828195630,ktran9,28.039868,-82.463259
828195662,ktran9,28.039868,-82.460077
828196568,ktran9,28.039833,-82.453033
828196580,ktran9,28.039851,-82.456023
828197156,ktran9,28.040013,-82.4596
828180555,ktran9,28.038313,-82.451145
828180632,ktran9,28.042352,-82.45112
828180646,ktran9,28.039755,-82.45114
828182014,ktran9,28.042396,-82.451361
828182464,ktran9,28.03795,-82.451381
828190554,ktran9,28.040047,-82.442929
828190579,ktran9,28.041864,-82.44292
828194319,ktran9,28.041627,-82.442797
828194845,ktran9,28.040141,-82.451315
828195049,ktran9,28.039983,-82.450975
828195059,ktran9,28.039807,-82.44302
828195064,ktran9,28.039807,-82.445351
828195069,ktran9,28.039825,-82.447611
828195078,ktran9,28.039834,-82.449709
828195081,ktran9,28.03995,-82.449392
828195089,ktran9,28.039947,-82.446717
828195105,ktran9,28.039942,-82.445214
828196565,ktran9,28.039843,-82.450651
828180598,ktran9,28.114878,-82.378873
828189264,ktran9,28.088881,-82.432306
828196261,ktran9,28.0885,-82.430935
828196393,ktran9,28.091559,-82.431349
828196421,ktran9,28.089888,-82.430701
828180868,ktran9,28.081729,-82.43076
828180915,ktran9,28.086411,-82.430721
828189415,ktran9,28.083659,-82.430742
828196286,ktran9,28.08202,-82.430935
828196287,ktran9,28.083776,-82.430914
828196302,ktran9,28.08654,-82.43085
828178314,ktran9,28.080264,-82.43491
828178939,ktran9,28.080264,-82.438256
828178943,ktran9,28.080264,-82.436938
828178953,ktran9,28.080427,-82.441257
828178964,ktran9,28.080264,-82.439584
828180839,ktran9,28.081024,-82.430772
828185177,ktran9,28.076597,-82.438083
828186286,ktran9,28.08035,-82.436424
828191353,ktran9,28.078199,-82.434524
828191556,ktran9,28.079168,-82.434747
828192011,ktran9,28.075945,-82.434616
828193614,ktran9,28.079114,-82.434565
828193628,ktran9,28.078308,-82.434707
828196042,ktran9,28.075628,-82.434707
828196050,ktran9,28.075574,-82.43857
828196154,ktran9,28.07573,-82.438608
828197836,ktran9,28.080511,-82.438237
828197876,ktran9,28.080529,-82.440206
828182344,ktran9,28.080746,-82.420958
828182374,ktran9,28.080519,-82.422141
828182385,ktran9,28.077143,-82.426027
828182426,ktran9,28.077303,-82.426335
828189393,ktran9,28.080511,-82.430206
828196141,ktran9,28.080254,-82.429241
828196329,ktran9,28.080535,-82.427933
828179370,ktran9,28.075519,-82.434433
828179379,ktran9,28.073645,-82.434444
828196053,ktran9,28.072812,-82.438824
828196064,ktran9,28.073654,-82.43859
828196099,ktran9,28.072794,-82.440334
828196156,ktran9,28.073962,-82.438773
828196158,ktran9,28.072942,-82.439056
828196168,ktran9,28.072944,-82.44028
828196744,ktran9,28.073917,-82.434626
828196757,EdHillsman,28.0706569,-82.4346669
828197431,EdHillsman,28.071082,-82.4344739
828182461,ktran9,28.070736,-82.426213
828196151,ktran9,28.07316,-82.426234
828196322,ktran9,28.072313,-82.425897
456529255,ktran9,28.0804436,-82.4128934
456529256,ktran9,28.0804511,-82.4109364
456529953,dforsi,28.0788199,-82.4099411
456529954,dforsi,28.0766162,-82.4098639
456532322,ktran9,28.0792894,-82.4141897
456532323,ktran9,28.0778203,-82.4142155
828182085,ktran9,28.078251,-82.414225
828182097,ktran9,28.076159,-82.414134
828182114,ktran9,28.080509,-82.41816
828182126,ktran9,28.080382,-82.414472
828182330,ktran9,28.07831,-82.414113
828182357,ktran9,28.080805,-82.417712
828182437,ktran9,28.076111,-82.414026
456529952,dforsi,28.0732114,-82.4098292
456532324,EdHillsman,28.0718411,-82.4141102
456532325,ktran9,28.07462,-82.4141208
828182378,ktran9,28.072556,-82.414125
828196741,ktran9,28.072175,-82.414115
828196776,ktran9,28.072728,-82.413943
823371608,EdHillsman,28.0690803,-82.4367754
823371615,EdHillsman,28.0693311,-82.4363351
823478335,EdHillsman,28.0693436,-82.4350356
823478337,EdHillsman,28.0690737,-82.4347833
823663176,ktran9,28.0690879,-82.4401345
823663184,EdHillsman,28.0690732,-82.4387924
823678125,EdHillsman,28.0693548,-82.4384759
828183807,EdHillsman,28.065623,-82.4406689
828185231,EdHillsman,28.065441,-82.434931
828185924,EdHillsman,28.0656039,-82.4350419
828186727,EdHillsman,28.06928,-82.4323149
828186744,EdHillsman,28.0691309,-82.43255
828188207,EdHillsman,28.0690994,-82.4306787
828190819,ktran9,28.069281,-82.440081
828191310,EdHillsman,28.0654509,-82.436755
828193457,EdHillsman,28.065156,-82.434615
828193461,EdHillsman,28.0696609,-82.434677
828193576,EdHillsman,28.0688969,-82.4345249
828193586,EdHillsman,28.0672609,-82.434484
828193607,EdHillsman,28.0681309,-82.434484
828194703,EdHillsman,28.065605,-82.4365219
828194704,EdHillsman,28.065579,-82.43101
828194707,EdHillsman,28.065554,-82.4323279
828194857,EdHillsman,28.065918,-82.434539
828194861,ktran9,28.065451,-82.438915
828194871,EdHillsman,28.065432,-82.4324569
828194882,ktran9,28.06546,-82.44077
828194896,ktran9,28.065441,-82.430723
828194909,EdHillsman,28.0662019,-82.4346669
828194912,EdHillsman,28.065605,-82.4385089
828194981,EdHillsman,28.0669809,-82.4346669
828194994,ktran9,28.0690879,-82.4401345
828197062,EdHillsman,28.0652991,-82.4345289
623751775,EdHillsman,28.0668566,-82.4203245
743557413,caribarchgirl84,28.0690267,-82.4230723
743557414,EdHillsman,28.0692777,-82.4234892
743557416,EdHillsman,28.0687547,-82.4233954
743561913,EdHillsman,28.0679784,-82.4253295
798636994,EdHillsman,28.0659892,-82.4207524
798637002,EdHillsman,28.06611,-82.4207497
821351222,EdHillsman,28.0690586,-82.4300563
824795217,ktran9,28.0656648,-82.4247329
824795218,EdHillsman,28.0660222,-82.4245399
824795219,ktran9,28.0661097,-82.42355
828177922,caribarchgirl84,28.0690007,-82.4198081
828179193,EdHillsman,28.0692585,-82.4200706
828179617,EdHillsman,28.0656129,-82.4283099
828179622,EdHillsman,28.06545,-82.4283809
828188520,EdHillsman,28.0661389,-82.4294819
828190829,EdHillsman,28.0693479,-82.4273233
828191536,EdHillsman,28.0692519,-82.420747
828192326,EdHillsman,28.0672299,-82.4259299
828193686,EdHillsman,28.0675147,-82.4262552
828194709,EdHillsman,28.0656219,-82.4273069
828194848,caribarchgirl84,28.065459,-82.4273068
828196313,ktran9,28.066832,-82.420449
828196551,EdHillsman,28.0661097,-82.42355
828198460,EdHillsman,28.0668539,-82.4294859
842901597,caribarchgirl84,28.0690921,-82.429993
842903764,caribarchgirl84,28.0690301,-82.4230719
454996509,ktran9,28.0636432,-82.4343523
828178924,EdHillsman,28.0612951,-82.4346
828178931,EdHillsman,28.063647,-82.434598
828179234,EdHillsman,28.063594,-82.4344849
828179243,EdHillsman,28.0615661,-82.434495
454063878,EdHillsman,28.0626315,-82.4196423
454063886,EdHillsman,28.0613537,-82.4196568
616351968,EdHillsman,28.063819,-82.4203032
798636991,xybot,28.0643028,-82.4200456
828179620,ktran9,28.064336,-82.426242
828193672,ktran9,28.060313,-82.425948
828193690,ktran9,28.060433,-82.426205
454063890,EdHillsman,28.064909,-82.419023
454063893,EdHillsman,28.0650164,-82.4188763
454063895,EdHillsman,28.0659821,-82.4191043
454063897,EdHillsman,28.0661273,-82.4191948
454063901,EdHillsman,28.0654261,-82.4179792
454063903,EdHillsman,28.0664448,-82.4177071
454063906,EdHillsman,28.0664453,-82.4176257
454063909,EdHillsman,28.0677896,-82.4146455
454063911,EdHillsman,28.0677285,-82.4160802
454063912,EdHillsman,28.067929,-82.4165168
454063915,EdHillsman,28.0671748,-82.4133054
454063919,EdHillsman,28.0658059,-82.412027
454063920,EdHillsman,28.0656079,-82.411248
456529956,EdHillsman,28.0684297,-82.4130664
552602135,EdHillsman,28.0676003,-82.4148344
614927951,EdHillsman,28.0650025,-82.4165439
614943558,EdHillsman,28.0647918,-82.4163243
614968216,EdHillsman,28.0655001,-82.4177664
653972360,EdHillsman,28.0656168,-82.4094789
655174250,EdHillsman,28.0647891,-82.4146673
655174252,EdHillsman,28.0650234,-82.4142864
655288739,EdHillsman,28.0678963,-82.4133332
661059668,EdHillsman,28.0671289,-82.4131028
663479688,EdHillsman,28.0658116,-82.4098151
828179111,EdHillsman,28.068952,-82.4141161
828179113,caribarchgirl84,28.0690007,-82.4168684
828179195,EdHillsman,28.069251,-82.4137411
828179199,EdHillsman,28.069211,-82.4172591
828182449,EdHillsman,28.0693011,-82.4145667
454063844,EdHillsman,28.0656023,-82.4027141
454063846,EdHillsman,28.0656071,-82.4028321
454063847,EdHillsman,28.0657949,-82.4074325
454063849,caribarchgirl84,28.0656659,-82.4075048
454063850,EdHillsman,28.0665472,-82.4080207
454063851,EdHillsman,28.0678848,-82.4077176
617066622,ktran9,28.0647206,-82.4079786
617066627,EdHillsman,28.0649817,-82.4082539
618485499,EdHillsman,28.0647864,-82.4079991
652203688,EdHillsman,28.0662779,-82.402486
742892524,ktran9,28.0662122,-82.4017507
828179127,ktran9,28.0662122,-82.4017507
454063859,EdHillsman,28.0607498,-82.4134113
454063860,EdHillsman,28.060641,-82.4134239
454063883,EdHillsman,28.0625998,-82.419021
454063884,EdHillsman,28.0612272,-82.4194166
456523866,EdHillsman,28.0600640,-82.4086329
456523869,EdHillsman,28.0601637,-82.4088375
456526021,EdHillsman,28.0613407,-82.4088503
573393331,EdHillsman,28.0611814,-82.4085902
790069574,EdHillsman,28.0599262,-82.4130699
454063837,ktran9,28.0598215,-82.4048794
454063838,ktran9,28.0599226,-82.4045812
454063840,EdHillsman,28.0601331,-82.4028918
454063841,EdHillsman,28.0601782,-82.4026042
454063842,EdHillsman,28.0631924,-82.4026264
454063843,EdHillsman,28.063538,-82.4028839
736996851,ktran9,28.0624574,-82.4019984
736996853,ktran9,28.0624431,-82.4016819
739086088,caribarchgirl84,28.0593039,-82.4019447
739086089,EdHillsman,28.0592351,-82.4016624
739086091,EdHillsman,28.0634675,-82.4017881
739086092,ktran9,28.0636523,-82.4019893
828179115,caribarchgirl84,28.0593038,-82.4019365
828181995,ktran9,28.0624431,-82.4016819
828180242,ktran9,28.069064,-82.395695
828188113,ktran9,28.066159,-82.393819
828188129,ktran9,28.068128,-82.393833
828188153,ktran9,28.066183,-82.393516
828177308,ktran9,28.062118,-82.393488
828177339,ktran9,28.061211,-82.393806
455005586,EdHillsman,28.0586739,-82.4350841
828189686,ktran9,28.057475,-82.436651
828190867,ktran9,28.054667,-82.440466
828191994,ktran9,28.053679,-82.43466
828197027,ktran9,28.053675,-82.434559
454063872,EdHillsman,28.0589393,-82.4200778
454063875,EdHillsman,28.0590489,-82.4197623
455032070,EdHillsman,28.0571046,-82.4281407
456546513,EdHillsman,28.05785,-82.4230895
456546518,EdHillsman,28.0578411,-82.4228063
726837484,EdHillsman,28.0564328,-82.4257934
808136905,EdHillsman,28.0581517,-82.4196986
828193632,EdHillsman,28.053833,-82.4263149
828193696,EdHillsman,28.0577531,-82.4262539
828183699,ktran9,28.052049,-82.434516
828183701,ktran9,28.050863,-82.434698
828193440,ktran9,28.049577,-82.434708
828193443,ktran9,28.051947,-82.434624
828197037,ktran9,28.050682,-82.434526
828197070,ktran9,28.049016,-82.434526
828183560,ktran9,28.051045,-82.426262
828193643,ktran9,28.050822,-82.426099
828193649,ktran9,28.052574,-82.426031
454063856,ktran9,28.0573205,-82.4096629
454063857,EdHillsman,28.0589586,-82.4130023
454063861,EdHillsman,28.0580348,-82.4160199
454063862,EdHillsman,28.057755,-82.4159264
454063869,EdHillsman,28.0582059,-82.4184151
456523861,Ropino,28.0582229,-82.4088250
456523864,EdHillsman,28.0582911,-82.4085934
742892499,EdHillsman,28.0549532,-82.4134743
794567407,EdHillsman,28.0579549,-82.4130075
821345374,EdHillsman,28.0573782,-82.4134803
828181805,EdHillsman,28.0580511,-82.4178021
454063852,ktran9,28.0576504,-82.4054932
454063853,ktran9,28.0576856,-82.4053376
454063855,EdHillsman,28.0567268,-82.4083414
736993282,EdHillsman,28.0570823,-82.401746
736993284,ktran9,28.0572161,-82.4019285
736993285,EdHillsman,28.0580575,-82.4017539
736993287,caribarchgirl84,28.0583594,-82.4019473
806511956,EdHillsman,28.0542474,-82.401137
806511957,caribarchgirl84,28.0542455,-82.3979052
828179165,ktran9,28.0572161,-82.4019285
828179168,caribarchgirl84,28.058357,-82.4019553
828186408,EdHillsman,28.0545751,-82.399757
828186470,EdHillsman,28.0545771,-82.401516
842905636,caribarchgirl84,28.0542502,-82.401116
828181818,EdHillsman,28.0509138,-82.4164844
828181821,EdHillsman,28.053456,-82.4164415
828181826,EdHillsman,28.050535,-82.4160767
828182943,EdHillsman,28.0535886,-82.4160526
828192734,ktran9,28.046136,-82.434526
828193416,ktran9,28.043693,-82.434643
828193422,ktran9,28.04578,-82.43464
828193426,ktran9,28.047312,-82.434633
828197069,ktran9,28.047024,-82.434526
828197079,ktran9,28.043411,-82.434536
828183272,ktran9,28.043362,-82.426114
828183548,ktran9,28.043801,-82.426278
828183558,ktran9,28.04653,-82.426272
828193476,ktran9,28.046904,-82.426112
828193482,ktran9,28.045185,-82.426111
828193589,ktran9,28.04482,-82.42609
828193633,ktran9,28.045507,-82.426277
828191985,ktran9,28.04006,-82.434749
828191992,ktran9,28.041826,-82.43465
828192144,ktran9,28.037439,-82.434648
828196622,ktran9,28.041591,-82.434547
828196634,ktran9,28.03968,-82.434557
828183502,ktran9,28.03784,-82.42629
828183516,ktran9,28.041227,-82.426273
828183521,ktran9,28.03917,-82.42629
828193538,ktran9,28.03891,-82.42613
828193551,ktran9,28.041295,-82.426117
828193566,ktran9,28.038276,-82.426115
828182904,EdHillsman,28.044172,-82.4164683
828182944,EdHillsman,28.0443471,-82.4160499
828181788,EdHillsman,28.0391769,-82.4164737
828182916,EdHillsman,28.039461,-82.4160607
812649955,EdHillsman,28.054619,-82.3928503
812649958,ktran9,28.0546025,-82.3892937
821044595,caribarchgirl84,28.0536608,-82.3938872
828177571,caribarchgirl84,28.0536608,-82.3938953
828182198,EdHillsman,28.05457,-82.3974531
828186430,EdHillsman,28.054568,-82.395391
828187679,EdHillsman,28.0542041,-82.3927831
812653347,ktran9,28.0545931,-82.386008
825321619,EdHillsman,28.0545623,-82.3771754
825342630,EdHillsman,28.054579,-82.3815447
828191377,EdHillsman,28.0542041,-82.3761481
828191387,EdHillsman,28.0542061,-82.3800711
828191397,ktran9,28.054227,-82.384613
828179174,caribarchgirl84,28.0502735,-82.3938604
828184530,ktran9,28.049894,-82.393464
828190050,caribarchgirl84,28.0513252,-82.3938491
828197686,EdHillsman,28.050772,-82.3943961
825310959,EdHillsman,28.0545529,-82.3693165
828191376,EdHillsman,28.054136,-82.3680591
825310955,ktran9,28.0544724,-82.363043
828191595,EdHillsman,28.0540791,-82.362292
828193117,EdHillsman,28.053593,-82.360549
828191585,ktran9,28.050578,-82.356619
828193047,EdHillsman,28.053424,-82.3603661
828193171,ktran9,28.050668,-82.356436
828184543,ktran9,28.04753,-82.393466
828184548,ktran9,28.042622,-82.393377
828184556,caribarchgirl84,28.0477761,-82.3938577
828190234,caribarchgirl84,28.0428901,-82.3937102
828177856,ktran9,28.03996,-82.393682
828177882,ktran9,28.03843,-82.393633
828184702,ktran9,28.039661,-82.393358
828191567,ktran9,28.044221,-82.356554
828193133,ktran9,28.043841,-82.356351
828189092,ktran9,28.033244,-82.583145
828189095,ktran9,28.036522,-82.583069
828189303,ktran9,28.034765,-82.583127
828189382,ktran9,28.033824,-82.58274
828189385,ktran9,28.033389,-82.58274
828189407,ktran9,28.036468,-82.582674
828178148,ktran9,28.028126,-82.584433
828177659,ktran9,28.026263,-82.582839
828189310,ktran9,28.030935,-82.583181
828189336,ktran9,28.031479,-82.582777
828189346,ktran9,28.026706,-82.58284
828185099,ktran9,28.02001,-82.596451
828185853,ktran9,28.015357,-82.597502
828185866,ktran9,28.015485,-82.596378
828185875,ktran9,28.01765,-82.596351
828185012,ktran9,28.025579,-82.58605
828185040,ktran9,28.024187,-82.590516
828185050,ktran9,28.02478,-82.586997
828185056,ktran9,28.022842,-82.594263
828185071,ktran9,28.024277,-82.592282
828177337,ktran9,28.02581,-82.582524
828177470,ktran9,28.026088,-82.579686
828177477,ktran9,28.024824,-82.583211
828177479,ktran9,28.022821,-82.583265
828177513,ktran9,28.026063,-82.574006
828177529,ktran9,28.026117,-82.576465
828177636,ktran9,28.025814,-82.579727
828177908,ktran9,28.022921,-82.582925
828183813,ktran9,28.025203,-82.575602
828187386,ktran9,28.025794,-82.574164
828188986,ktran9,28.022885,-82.575426
828189327,ktran9,28.025792,-82.575421
828189352,ktran9,28.026107,-82.583943
828177435,David Hey,28.0152088,-82.5833878
828177437,ktran9,28.017071,-82.583324
828177447,ktran9,28.018511,-82.583304
828177482,ktran9,28.019991,-82.583282
828177831,ktran9,28.0166,-82.582965
828177855,ktran9,28.019969,-82.58295
828177881,ktran9,28.018185,-82.582987
828180330,ktran9,28.018792,-82.575561
828180729,ktran9,28.020486,-82.575493
828188747,ktran9,28.015567,-82.57661
828182758,ktran9,28.034506,-82.541181
828179732,ktran9,28.031192,-82.540335
828180346,ktran9,28.031247,-82.53992
828182698,ktran9,28.027309,-82.538669
828177551,ktran9,28.026041,-82.564447
828177568,ktran9,28.026034,-82.567385
828177604,ktran9,28.025797,-82.571631
828182995,ktran9,28.025699,-82.562551
828183027,ktran9,28.025748,-82.567547
828187277,ktran9,28.026115,-82.571033
828189368,ktran9,28.025732,-82.56548
828197184,ktran9,28.023508,-82.562548
828197187,ktran9,28.022086,-82.562566
828197198,ktran9,28.025545,-82.56251
828182902,ktran9,28.025622,-82.55864
828182913,ktran9,28.025597,-82.556704
828183623,ktran9,28.025932,-82.557019
828183625,ktran9,28.025966,-82.559208
828184933,ktran9,28.023445,-82.562224
828187231,ktran9,28.025839,-82.551385
828187261,ktran9,28.02585,-82.554502
828187329,ktran9,28.025512,-82.551678
828187349,ktran9,28.025639,-82.559785
828187359,ktran9,28.025682,-82.561629
828197167,ktran9,28.02464,-82.562205
828197243,ktran9,28.021507,-82.562251
828184815,ktran9,28.019523,-82.562623
828184935,ktran9,28.01946,-82.562309
828197189,ktran9,28.01779,-82.562572
828197192,ktran9,28.017819,-82.562576
828197251,ktran9,28.017332,-82.562326
828179713,ktran9,28.02545,-82.541281
828183615,ktran9,28.025791,-82.54738
828187401,ktran9,28.025496,-82.550077
828187429,ktran9,28.02549,-82.547006
828188656,ktran9,28.025738,-82.541523
828188659,ktran9,28.025822,-82.55026
828179601,ktran9,28.022241,-82.535248
828182142,ktran9,28.024847,-82.537339
828182905,ktran9,28.025403,-82.533681
828183347,ktran9,28.022266,-82.535561
828183590,ktran9,28.025654,-82.529809
828183621,ktran9,28.025746,-82.534664
828187083,ktran9,28.025426,-82.538231
828187107,ktran9,28.025428,-82.536458
828187119,ktran9,28.025361,-82.53028
828188616,ktran9,28.025761,-82.537978
828188617,ktran9,28.025701,-82.53325
828189059,ktran9,28.025343,-82.529314
828195452,ktran9,28.024549,-82.536821
828183319,ktran9,28.016068,-82.533894
828183332,ktran9,28.019932,-82.534458
828195487,ktran9,28.019679,-82.5341
828195622,ktran9,28.015315,-82.533467
828185985,ktran9,28.011989,-82.599899
828186001,ktran9,28.014313,-82.598757
828177423,ktran9,28.010884,-82.583409
828177426,ktran9,28.013147,-82.583332
828178056,ktran9,28.013059,-82.582999
828178080,ktran9,28.010496,-82.583066
828178112,ktran9,28.014888,-82.582962
828178564,ktran9,28.013214,-82.575269
828189029,ktran9,28.010135,-82.575274
828192864,ktran9,28.009746,-82.575101
828185607,ktran9,28.00487,-82.590352
828185934,ktran9,28.006336,-82.591954
828177389,ktran9,28.004392,-82.583481
828177428,ktran9,28.00479,-82.583481
828177434,ktran9,28.008326,-82.583408
828177963,ktran9,28.005113,-82.58311
828178006,ktran9,28.008513,-82.583052
828178037,ktran9,28.005542,-82.583088
828189020,ktran9,28.007962,-82.575301
828189076,ktran9,28.007464,-82.575108
828185582,ktran9,28.003353,-82.588804
828192516,ktran9,28.001408,-82.58682
828177344,ktran9,28.002564,-82.575049
828177381,ktran9,27.999201,-82.583495
828177393,ktran9,28.003015,-82.583499
828177981,ktran9,28.002644,-82.583123
828179706,ktran9,28.0027,-82.575242
828185599,ktran9,28.002516,-82.583984
828177347,ktran9,27.996594,-82.577646
828177383,ktran9,27.996629,-82.580417
828178123,ktran9,27.996808,-82.577021
828178134,David Hey,27.998305,-82.582978
828178140,ktran9,27.996843,-82.579724
828192738,ktran9,27.996887,-82.581503
828192748,ktran9,27.996566,-82.575417
828192787,ktran9,27.996777,-82.574756
828184824,ktran9,28.010619,-82.5626
828197175,ktran9,28.013171,-82.562548
828197236,ktran9,28.01043,-82.562451
828197247,ktran9,28.0128,-82.5624
828197177,ktran9,28.00764,-82.562641
828197181,ktran9,28.004228,-82.56272
828197232,ktran9,28.00724,-82.562506
828187862,ktran9,28.007489,-82.562049
828179609,ktran9,28.013541,-82.53307
828183321,ktran9,28.013818,-82.533412
828186676,ktran9,28.01078,-82.531355
828186839,ktran9,28.010943,-82.531608
828178243,ktran9,27.998968,-82.568722
828184797,ktran9,28.000028,-82.568633
828184806,ktran9,28.001448,-82.562777
828184813,ktran9,27.999271,-82.562845
828184924,ktran9,28.001552,-82.562618
828186573,ktran9,27.999125,-82.566433
828197132,ktran9,28.00049,-82.56279
828197240,ktran9,28.003857,-82.562575
828197256,ktran9,27.998948,-82.562701
828197821,ktran9,28.000149,-82.562229
828177261,ktran9,27.996495,-82.566679
828178322,ktran9,27.996305,-82.564795
828178332,ktran9,27.996131,-82.564897
828184830,ktran9,27.99819,-82.56288
828186562,ktran9,27.997791,-82.568926
828187453,ktran9,27.997221,-82.56881
828192596,ktran9,27.996483,-82.564521
828192708,ktran9,27.996518,-82.569248
828192719,ktran9,27.996538,-82.572097
828192802,ktran9,27.996755,-82.572013
828192812,ktran9,27.996691,-82.563689
828192835,ktran9,27.996726,-82.568107
828192847,ktran9,27.996705,-82.565084
828197136,ktran9,27.996829,-82.562945
828197212,ktran9,27.997273,-82.562748
828197603,ktran9,27.996452,-82.563084
828177267,ktran9,27.996426,-82.557181
828177269,ktran9,27.996439,-82.559243
828177277,ktran9,27.996397,-82.553123
828182589,ktran9,27.996661,-82.559418
828192810,ktran9,27.996639,-82.556358
828192826,ktran9,27.99662,-82.553584
828177271,ktran9,27.99622,-82.542264
828192529,ktran9,27.996275,-82.549156
828192895,ktran9,27.996524,-82.548751
828192930,ktran9,27.996469,-82.540496
828177282,ktran9,27.9962,-82.537742
828192536,ktran9,27.996147,-82.533345
828192887,ktran9,27.996432,-82.537866
828192973,ktran9,27.99642,-82.534204
828185687,ktran9,28.034157,-82.500663
828185701,ktran9,28.035923,-82.500553
828195535,ktran9,28.036377,-82.500411
828195878,ktran9,28.036229,-82.50019
828197513,ktran9,28.032529,-82.500801
828197526,ktran9,28.032472,-82.500642
828198542,ktran9,28.034456,-82.50085
828195507,ktran9,28.035997,-82.492258
828195872,ktran9,28.035864,-82.491983
828183950,ktran9,28.02622,-82.50062
828197516,ktran9,28.028475,-82.500805
828197814,ktran9,28.029212,-82.500649
828197818,ktran9,28.027139,-82.500628
828198502,ktran9,28.027427,-82.500776
828183584,ktran9,28.025592,-82.521701
828183595,ktran9,28.025616,-82.526153
828187122,ktran9,28.02531,-82.525351
828187123,ktran9,28.025295,-82.522504
828188626,ktran9,28.025632,-82.519708
828188629,ktran9,28.025645,-82.528673
828182912,ktran9,28.025267,-82.511135
828187132,ktran9,28.02528,-82.517417
828187142,ktran9,28.025259,-82.509209
828187159,ktran9,28.025265,-82.513262
828187160,ktran9,28.025273,-82.514904
828188576,ktran9,28.025575,-82.5088
828188608,ktran9,28.025568,-82.512898
828188611,ktran9,28.025566,-82.510896
828188615,ktran9,28.025573,-82.514478
828188627,ktran9,28.025578,-82.516945
828179315,ktran9,28.025599,-82.501356
828183587,ktran9,28.025585,-82.50594
828187170,ktran9,28.025262,-82.503899
828187174,ktran9,28.0253,-82.501042
828187183,ktran9,28.025302,-82.498407
828188582,ktran9,28.025579,-82.503707
828188586,ktran9,28.025522,-82.498195
828197489,ktran9,28.025735,-82.500801
828197558,ktran9,28.025264,-82.500657
828197568,ktran9,28.021343,-82.500623
828198503,ktran9,28.024093,-82.500802
828198513,ktran9,28.021615,-82.500806
828183530,ktran9,28.025517,-82.49498
828187209,ktran9,28.025171,-82.488598
828187217,ktran9,28.025258,-82.495235
828187219,ktran9,28.02525,-82.492682
828188590,ktran9,28.025501,-82.492348
828188593,ktran9,28.025409,-82.488115
828197432,ktran9,28.01888,-82.500824
828198019,ktran9,28.018708,-82.500652
828179331,ktran9,28.033269,-82.48389
828179787,ktran9,28.031751,-82.484192
828179791,ktran9,28.034228,-82.484236
828189280,ktran9,28.03583,-82.48349
828191232,ktran9,28.035161,-82.483668
828191253,ktran9,28.032046,-82.484052
828191263,ktran9,28.033682,-82.484098
828195464,ktran9,28.033496,-82.47892
828195768,ktran9,28.033531,-82.48388
828195943,ktran9,28.033307,-82.479117
828179001,ktran9,28.036634,-82.467839
828179274,ktran9,28.034506,-82.467686
828182893,ktran9,28.033039,-82.467625
828188682,ktran9,28.03667,-82.467657
828190161,ktran9,28.032269,-82.467675
828190723,ktran9,28.032804,-82.463754
828190780,ktran9,28.033259,-82.467549
828190787,ktran9,28.03304,-82.463815
828195304,ktran9,28.033476,-82.47161
828195950,ktran9,28.033362,-82.471698
828197755,ktran9,28.031997,-82.467804
828197758,ktran9,28.034613,-82.467833
828179786,ktran9,28.026187,-82.484333
828179879,ktran9,28.028288,-82.484131
828191255,ktran9,28.031168,-82.484072
828191280,ktran9,28.029918,-82.484294
828188684,ktran9,28.02613,-82.467613
828188693,ktran9,28.030784,-82.467655
828188694,ktran9,28.028855,-82.467644
828198447,ktran9,28.029072,-82.467836
828198464,ktran9,28.031034,-82.46778
828183538,ktran9,28.033027,-82.460922
828190794,ktran9,28.032864,-82.459974
828195369,ktran9,28.034155,-82.459295
828195430,ktran9,28.034037,-82.45965
828195440,ktran9,28.036484,-82.459588
828180510,ktran9,28.035271,-82.451163
828180531,ktran9,28.036963,-82.451066
828180544,ktran9,28.031937,-82.451106
828180549,ktran9,28.033487,-82.451168
828182428,ktran9,28.036558,-82.451324
828182435,ktran9,28.035325,-82.45133
828186373,ktran9,28.031881,-82.451357
828186587,ktran9,28.03379,-82.451362
828190728,ktran9,28.032644,-82.447265
828190764,ktran9,28.032907,-82.446895
828179519,ktran9,28.027933,-82.459314
828182894,ktran9,28.02928,-82.45336
828183389,ktran9,28.027979,-82.458067
828183394,ktran9,28.02797,-82.457328
828183539,ktran9,28.029475,-82.453361
828183547,ktran9,28.030823,-82.453406
828183550,ktran9,28.028966,-82.458888
828183567,ktran9,28.029138,-82.459172
828186614,ktran9,28.029753,-82.456404
828195149,ktran9,28.02912,-82.457976
828195181,ktran9,28.026566,-82.459324
828195362,ktran9,28.031139,-82.459294
828195420,ktran9,28.028948,-82.457834
828195831,ktran9,28.029574,-82.456404
828195847,ktran9,28.029422,-82.456407
828195901,ktran9,28.029293,-82.456244
828195906,ktran9,28.029742,-82.456248
828196153,ktran9,28.029263,-82.456419
828197146,ktran9,28.027073,-82.459668
828197723,ktran9,28.029428,-82.456456
828197749,ktran9,28.029594,-82.456243
828180423,ktran9,28.029168,-82.451212
828180432,ktran9,28.030536,-82.45121
828180446,ktran9,28.026736,-82.451212
828180490,ktran9,28.027704,-82.451218
828182400,ktran9,28.028072,-82.451299
828182405,ktran9,28.029697,-82.451296
828182421,ktran9,28.026718,-82.451307
828183564,ktran9,28.029193,-82.451937
828179780,ktran9,28.022981,-82.484371
828183534,ktran9,28.025388,-82.481912
828187215,ktran9,28.025209,-82.484545
828187708,ktran9,28.025219,-82.481474
828187721,ktran9,28.02522,-82.478799
828187730,ktran9,28.025221,-82.476955
828187742,ktran9,28.025221,-82.476094
828188547,ktran9,28.025367,-82.475728
828188556,ktran9,28.025383,-82.478018
828188562,ktran9,28.025439,-82.484001
828191235,ktran9,28.024421,-82.48417
828191243,ktran9,28.026024,-82.48415
828191246,ktran9,28.021533,-82.484209
828191266,ktran9,28.021451,-82.484391
828191284,ktran9,28.025218,-82.484342
828185732,ktran9,28.025222,-82.473378
828185769,ktran9,28.025295,-82.469658
828188527,ktran9,28.025395,-82.468523
828188537,ktran9,28.025386,-82.471543
828188538,ktran9,28.025388,-82.469545
828188551,ktran9,28.025386,-82.473176
828188685,ktran9,28.025034,-82.467632
828188723,ktran9,28.021955,-82.467672
828189053,ktran9,28.025232,-82.471493
828196441,ktran9,28.025306,-82.467949
828196443,ktran9,28.025308,-82.46605
828196444,ktran9,28.02531,-82.463487
828196450,ktran9,28.02539,-82.46575
828196451,ktran9,28.025406,-82.467541
828198482,ktran9,28.021873,-82.467854
828198492,ktran9,28.025972,-82.467774
828189255,ktran9,28.016787,-82.484905
828189313,ktran9,28.018843,-82.484237
828191071,ktran9,28.017013,-82.484986
828191244,ktran9,28.019565,-82.484213
828191275,ktran9,28.018798,-82.48442
828191276,ktran9,28.020129,-82.48441
828179008,ktran9,28.020524,-82.467864
828179022,ktran9,28.019517,-82.467813
828179265,ktran9,28.016322,-82.467731
828187806,ktran9,28.016429,-82.467854
828187817,ktran9,28.015263,-82.467933
828188702,ktran9,28.019437,-82.467681
828188710,ktran9,28.017961,-82.467711
828188726,ktran9,28.020524,-82.467682
828198424,ktran9,28.018187,-82.467834
828178041,ktran9,28.0226,-82.459394
828178066,ktran9,28.024125,-82.459445
828189461,ktran9,28.024459,-82.459563
828190125,ktran9,28.02519,-82.457854
828190129,ktran9,28.025361,-82.457824
828194938,ktran9,28.0251,-82.453
828194944,ktran9,28.025154,-82.454621
828196446,ktran9,28.025302,-82.461965
828196448,ktran9,28.025413,-82.461286
828196449,ktran9,28.025409,-82.463187
828196541,ktran9,28.02532,-82.455
828196548,ktran9,28.025254,-82.452686
828197101,ktran9,28.022509,-82.459576
828178881,ktran9,28.021404,-82.451329
828178892,ktran9,28.022807,-82.451389
828180260,ktran9,28.021031,-82.451214
828180315,ktran9,28.022444,-82.451209
828180317,ktran9,28.024975,-82.451171
828182376,ktran9,28.024214,-82.451334
828182415,ktran9,28.025417,-82.451346
828183755,ktran9,28.025329,-82.445756
828184634,ktran9,28.025137,-82.447437
828184690,ktran9,28.025223,-82.450426
828184695,ktran9,28.025091,-82.450528
828185753,ktran9,28.0252,-82.445856
828185790,ktran9,28.025228,-82.442624
828185801,ktran9,28.02521,-82.444336
828188505,ktran9,28.025345,-82.443944
828188506,ktran9,28.025382,-82.441955
828188528,ktran9,28.025329,-82.44718
828195588,ktran9,28.0236,-82.451202
828177942,ktran9,28.016016,-82.459402
828177989,ktran9,28.017619,-82.459402
828195169,ktran9,28.019485,-82.459393
828197090,ktran9,28.019675,-82.459575
828197091,ktran9,28.017719,-82.459585
828197093,ktran9,28.016315,-82.459585
828178839,ktran9,28.018399,-82.451337
828178845,ktran9,28.016277,-82.451334
828180225,ktran9,28.015986,-82.451233
828180237,ktran9,28.017832,-82.451226
828180248,ktran9,28.019317,-82.451239
828194831,ktran9,28.01925,-82.451341
828182689,ktran9,28.010699,-82.518994
828182703,ktran9,28.010696,-82.523138
828182719,ktran9,28.010822,-82.519176
828186648,ktran9,28.010311,-82.517231
828188763,ktran9,28.010331,-82.517356
828178288,ktran9,28.008699,-82.517442
828178290,ktran9,28.007277,-82.517451
828178295,ktran9,28.005892,-82.51746
828186618,ktran9,28.006957,-82.517345
828186630,ktran9,28.008864,-82.517326
828186675,ktran9,28.005294,-82.517277
828177502,ktran9,28.014261,-82.500872
828197411,ktran9,28.010865,-82.500889
828197991,ktran9,28.010712,-82.500717
828198037,ktran9,28.013428,-82.500699
828198053,ktran9,28.014325,-82.500679
828183934,ktran9,28.010365,-82.488468
828186687,ktran9,28.010723,-82.486405
828186830,ktran9,28.010822,-82.486427
828196740,ktran9,28.009883,-82.488532
828197413,ktran9,28.007515,-82.500928
828197421,ktran9,28.008719,-82.500908
828197953,ktran9,28.005061,-82.500764
828197985,ktran9,28.006863,-82.500755
828197987,ktran9,28.008683,-82.500726
828198517,ktran9,28.005405,-82.500946
828188166,ktran9,28.005884,-82.488529
828196716,ktran9,28.008288,-82.488533
828196747,ktran9,28.008345,-82.488396
828196760,ktran9,28.005656,-82.488435
828177335,ktran9,28.003771,-82.519312
828186817,ktran9,28.003592,-82.519427
828186857,ktran9,28.000239,-82.519349
828188851,ktran9,28.000333,-82.51948
828178310,ktran9,28.003918,-82.517468
828186790,ktran9,28.003619,-82.51764
828177211,ktran9,27.995974,-82.518818
828179671,ktran9,27.996353,-82.527679
828179683,ktran9,27.996336,-82.524837
828186876,ktran9,27.998039,-82.51945
828188857,ktran9,27.998609,-82.51957
828192506,ktran9,27.996125,-82.527318
828192962,ktran9,27.996309,-82.519859
828192969,ktran9,27.996322,-82.5223
828197606,ktran9,27.996077,-82.523015
828177188,ktran9,27.995916,-82.511869
828177200,ktran9,27.995837,-82.507443
828177202,ktran9,27.99589,-82.510056
828177216,ktran9,27.995967,-82.516195
828179677,ktran9,27.996283,-82.51745
828182607,ktran9,27.996203,-82.507826
828182609,ktran9,27.996235,-82.51127
828188913,ktran9,27.993723,-82.513387
828188921,ktran9,27.994176,-82.51358
828192489,ktran9,27.995979,-82.512933
828192499,ktran9,27.995962,-82.513803
828192936,ktran9,27.996261,-82.513961
828192952,ktran9,27.996267,-82.514812
828197966,ktran9,27.998794,-82.500982
828188221,ktran9,28.001119,-82.488452
828188246,ktran9,28.002839,-82.488433
828196668,ktran9,27.999651,-82.488462
828196700,ktran9,28.002921,-82.488616
828197268,ktran9,27.999914,-82.488644
828197274,ktran9,28.00101,-82.488635
828179505,ktran9,27.996221,-82.501659
828183956,ktran9,27.996765,-82.500829
828192467,ktran9,27.995939,-82.500511
828192484,ktran9,27.995952,-82.49709
828193061,ktran9,27.996195,-82.497458
828197394,ktran9,27.995751,-82.501051
828197396,ktran9,27.996249,-82.501021
828182579,ktran9,27.996191,-82.490708
828182605,ktran9,27.996198,-82.495186
828188232,ktran9,27.994845,-82.48847
828188281,ktran9,27.997822,-82.488653
828191782,ktran9,27.996017,-82.494618
828192420,ktran9,27.996036,-82.492177
828192426,ktran9,27.996083,-82.490201
828192431,ktran9,27.996081,-82.488218
828193024,ktran9,27.996672,-82.488632
828193060,ktran9,27.996199,-82.49242
828193071,ktran9,27.99621,-82.488429
828196662,ktran9,27.99842,-82.488471
828196906,ktran9,27.996714,-82.488551
828197296,ktran9,27.994972,-82.488613
828179808,ktran9,28.012119,-82.484751
828183033,ktran9,28.010571,-82.476019
828186594,ktran9,28.01066,-82.476371
828186649,ktran9,28.010674,-82.484466
828186721,ktran9,28.010813,-82.477263
828186742,ktran9,28.010798,-82.478746
828186753,ktran9,28.010795,-82.480165
828186774,ktran9,28.010813,-82.482341
828186809,ktran9,28.010828,-82.484133
828188253,ktran9,28.01064,-82.480312
828188260,ktran9,28.010675,-82.482409
828188419,ktran9,28.010641,-82.477607
828188430,ktran9,28.01064,-82.478965
828189260,ktran9,28.014224,-82.485218
828189305,ktran9,28.011873,-82.484554
828191058,ktran9,28.010385,-82.484456
828191073,ktran9,28.014143,-82.485309
828179269,ktran9,28.014852,-82.467789
828186552,ktran9,28.010692,-82.468028
828186553,ktran9,28.01066,-82.474314
828186910,ktran9,28.010805,-82.474306
828187059,ktran9,28.010804,-82.467638
828188516,ktran9,28.013555,-82.467719
828189703,ktran9,28.011124,-82.467729
828197790,ktran9,28.010961,-82.467901
828198504,ktran9,28.01366,-82.467912
828183013,ktran9,28.00618,-82.476148
828183044,ktran9,28.009011,-82.476026
828183072,ktran9,28.005688,-82.476004
828183738,ktran9,28.007418,-82.476025
828187786,ktran9,28.007748,-82.476143
828187808,ktran9,28.009485,-82.476126
828189242,ktran9,28.008906,-82.484337
828189247,ktran9,28.006537,-82.484333
828191037,ktran9,28.00883,-82.484434
828191040,ktran9,28.006808,-82.484442
828177807,ktran9,28.011063,-82.459411
828177869,ktran9,28.014223,-82.459392
828177900,ktran9,28.01233,-82.459411
828186282,ktran9,28.010659,-82.459775
828186306,ktran9,28.01063,-82.4572
828186368,ktran9,28.010583,-82.455551
828186963,ktran9,28.010746,-82.455237
828186991,ktran9,28.010722,-82.456962
828187027,ktran9,28.010722,-82.463322
828187063,ktran9,28.010746,-82.45928
828187082,ktran9,28.010736,-82.460882
828188407,ktran9,28.010582,-82.461245
828188418,ktran9,28.010635,-82.463318
828197082,ktran9,28.014407,-82.459552
828197084,ktran9,28.010972,-82.459593
828197100,ktran9,28.012616,-82.459549
828178827,ktran9,28.014465,-82.451339
828178834,ktran9,28.012593,-82.451345
828178856,ktran9,28.010202,-82.451374
828180289,ktran9,28.01048,-82.451226
828180291,ktran9,28.012364,-82.451243
828180302,ktran9,28.014291,-82.451237
828185264,ktran9,28.01067,-82.44496
828185293,ktran9,28.010684,-82.442826
828185295,ktran9,28.010655,-82.44907
828185314,ktran9,28.01067,-82.447
828186232,ktran9,28.01056,-82.447177
828186235,ktran9,28.010548,-82.445207
828186257,ktran9,28.01053,-82.44314
828186405,ktran9,28.010566,-82.45083
828187011,ktran9,28.010722,-82.45074
828192641,ktran9,28.010548,-82.44931
828194303,ktran9,28.010403,-82.442876
828177676,ktran9,28.009496,-82.45939
828177716,ktran9,28.004895,-82.459349
828177743,ktran9,28.006281,-82.459369
828195170,ktran9,28.008255,-82.45937
828197086,ktran9,28.009566,-82.459566
828197088,ktran9,28.008105,-82.459531
828197265,ktran9,28.005118,-82.459526
828197283,ktran9,28.00609,-82.4596
828177378,ktran9,28.004542,-82.451354
828178851,ktran9,28.006678,-82.451347
828178863,ktran9,28.008134,-82.451343
828180083,ktran9,28.006811,-82.451266
828180087,ktran9,28.004934,-82.451267
828180275,ktran9,28.008152,-82.451263
828183749,ktran9,28.008954,-82.443048
828190510,ktran9,28.00526,-82.443038
828190546,ktran9,28.007116,-82.443048
828194433,ktran9,28.005033,-82.442846
828194435,ktran9,28.007252,-82.442866
828194452,ktran9,28.009625,-82.442866
828179292,ktran9,28.000671,-82.476053
828182919,ktran9,27.999222,-82.476072
828182936,ktran9,28.001776,-82.476053
828182986,ktran9,28.001824,-82.476166
828183004,ktran9,28.003519,-82.476159
828183078,ktran9,28.003188,-82.476044
828183221,ktran9,27.99908,-82.47619
828183233,ktran9,28.00051,-82.47632
828189206,ktran9,28.003245,-82.484344
828189211,ktran9,28.00195,-82.48434
828189220,ktran9,28.000552,-82.484344
828189229,ktran9,27.998883,-82.484343
828189270,ktran9,28.002232,-82.484454
828189277,ktran9,28.003479,-82.484451
828189389,ktran9,28.000631,-82.484459
828191020,ktran9,27.999148,-82.484457
828179368,ktran9,27.996194,-82.48457
828179678,ktran9,27.996053,-82.47443
828179920,ktran9,27.993709,-82.484411
828182567,ktran9,27.996078,-82.478532
828182571,ktran9,27.996122,-82.481814
828182926,ktran9,27.997555,-82.476061
828182964,ktran9,27.993571,-82.476151
828182977,ktran9,27.995029,-82.476101
828183159,ktran9,27.994008,-82.476248
828183246,ktran9,27.99625,-82.476205
828183255,ktran9,27.997768,-82.476182
828189335,ktran9,27.99607,-82.47597
828189384,ktran9,27.995795,-82.484306
828189387,ktran9,27.997506,-82.484346
828191006,ktran9,27.997665,-82.484464
828191191,ktran9,27.996491,-82.484489
828191195,ktran9,27.993966,-82.484508
828192417,ktran9,27.995916,-82.476496
828192445,ktran9,27.996022,-82.484752
828192451,ktran9,27.99595,-82.481581
828192465,ktran9,27.995924,-82.478877
828177208,ktran9,27.995817,-82.473852
828179556,ktran9,27.995965,-82.464239
828179592,ktran9,27.995782,-82.472627
828179596,ktran9,27.995846,-82.469557
828179613,ktran9,27.995946,-82.467704
828179648,ktran9,27.996062,-82.472677
828179653,ktran9,27.996308,-82.467876
828189243,ktran9,27.996322,-82.464118
828189252,ktran9,27.996176,-82.469766
828177593,ktran9,28.001527,-82.459328
828177609,ktran9,28.003265,-82.459338
828177646,ktran9,27.999525,-82.459317
828197273,ktran9,28.003503,-82.459506
828197286,ktran9,28.00185,-82.459487
828197293,ktran9,27.999515,-82.459479
828177356,ktran9,27.999848,-82.451273
828177361,ktran9,28.00189,-82.451345
828177369,ktran9,28.003038,-82.451374
828177421,ktran9,27.998906,-82.451248
828180049,ktran9,27.999928,-82.451193
828180050,ktran9,28.001858,-82.451239
828180056,ktran9,27.998681,-82.451168
828180084,ktran9,28.003183,-82.451245
828190494,ktran9,28.001655,-82.443028
828190498,ktran9,27.999808,-82.443048
828190512,ktran9,28.003466,-82.443028
828194401,ktran9,27.99959,-82.442856
828194415,ktran9,28.001492,-82.442856
828194426,ktran9,28.003168,-82.442846
828177510,ktran9,27.995839,-82.459316
828177522,ktran9,27.994185,-82.459373
828177622,ktran9,27.99775,-82.459317
828182548,ktran9,27.996346,-82.461808
828186925,ktran9,27.997112,-82.459511
828189208,ktran9,27.996002,-82.461676
828192360,ktran9,27.99593,-82.455558
828192416,ktran9,27.995975,-82.459752
828193145,ktran9,27.996299,-82.460303
828193313,ktran9,27.996243,-82.45561
828197284,ktran9,27.995439,-82.459505
828177399,ktran9,27.994374,-82.451187
828177404,ktran9,27.996385,-82.451208
828177412,ktran9,27.996931,-82.451223
828179568,ktran9,27.995994,-82.448125
828180062,ktran9,27.99578,-82.451076
828180078,ktran9,27.994217,-82.451098
828182539,ktran9,27.99614,-82.449632
828190199,ktran9,27.996711,-82.442845
828190524,ktran9,27.994474,-82.443028
828190539,ktran9,27.997997,-82.443028
828190542,ktran9,27.996312,-82.443028
828192356,ktran9,27.995993,-82.445942
828192376,ktran9,27.996031,-82.451324
828192399,ktran9,27.995991,-82.443133
828193216,ktran9,27.996122,-82.442724
828193222,ktran9,27.996131,-82.445246
828193235,ktran9,27.996131,-82.447434
828194370,ktran9,27.994129,-82.442855
828194383,ktran9,27.995588,-82.442845
828194384,ktran9,27.997797,-82.442845
828195571,ktran9,27.997086,-82.451106
828178338,ktran9,27.992806,-82.564895
828178348,ktran9,27.991353,-82.564913
828178367,ktran9,27.988829,-82.56501
828197109,ktran9,27.992579,-82.564782
828197112,ktran9,27.988426,-82.564914
828197116,ktran9,27.991085,-82.56479
828178388,ktran9,27.984256,-82.565053
828178397,ktran9,27.982263,-82.565071
828192878,ktran9,27.986257,-82.565016
828196299,ktran9,27.982852,-82.565062
828197122,ktran9,27.983781,-82.56495
828197126,ktran9,27.986239,-82.564834
828188957,ktran9,27.981903,-82.564803
828197128,ktran9,27.9821,-82.564888
828184846,ktran9,27.981625,-82.553078
828184920,ktran9,27.981878,-82.55285
828188932,ktran9,27.98164,-82.555357
828188936,ktran9,27.981657,-82.556937
828188953,ktran9,27.981882,-82.559075
828195126,ktran9,27.981872,-82.556362
828188971,ktran9,27.981908,-82.550648
828188996,ktran9,27.98161,-82.549736
828197701,ktran9,27.980492,-82.533571
828197353,ktran9,27.96766,-82.56877
828197517,ktran9,27.967335,-82.56696
828193785,ktran9,27.968271,-82.538498
828183825,ktran9,27.95588,-82.529392
828183829,ktran9,27.955949,-82.534292
828184835,ktran9,27.959682,-82.532059
828188760,ktran9,27.956001,-82.536651
828193772,ktran9,27.96006,-82.532615
828178252,ktran9,27.95241,-82.540596
828180406,ktran9,27.950443,-82.542274
828180380,ktran9,27.952288,-82.53605
828184932,ktran9,27.952264,-82.532759
828186423,ktran9,27.952238,-82.53039
828186456,ktran9,27.952552,-82.533995
828186482,ktran9,27.952483,-82.530158
828186516,ktran9,27.952509,-82.532081
828188741,ktran9,27.952102,-82.536407
828188836,ktran9,27.988791,-82.513509
828188917,ktran9,27.991378,-82.513425
828188918,ktran9,27.991649,-82.513598
828188931,ktran9,27.989213,-82.513616
828183765,ktran9,27.983888,-82.51349
828188821,ktran9,27.986342,-82.513461
828188906,ktran9,27.984594,-82.513662
828188929,ktran9,27.986614,-82.513634
828197772,ktran9,27.990236,-82.501031
828197773,ktran9,27.99265,-82.50098
828197958,ktran9,27.992708,-82.50114
828198058,ktran9,27.990547,-82.501237
828188279,ktran9,27.990185,-82.488777
828196868,ktran9,27.9923,-82.488585
828196886,ktran9,27.99045,-82.488615
828196938,ktran9,27.988673,-82.488661
828197303,ktran9,27.992877,-82.488714
828197304,ktran9,27.988901,-82.488811
828197312,ktran9,27.987892,-82.488819
828197403,ktran9,27.982586,-82.501429
828197765,ktran9,27.982888,-82.501252
828188288,ktran9,27.98227,-82.48895
828188291,ktran9,27.985137,-82.488864
828196781,ktran9,27.985195,-82.488708
828196830,ktran9,27.982446,-82.48872
828196845,ktran9,27.984575,-82.48872
828196945,ktran9,27.987434,-82.488671
828179705,ktran9,27.978336,-82.513566
828183783,ktran9,27.981515,-82.513488
828188905,ktran9,27.981871,-82.513661
828188909,ktran9,27.97858,-82.513738
828179684,ktran9,27.9757,-82.513604
828188975,ktran9,27.975927,-82.513776
828197627,ktran9,27.973991,-82.510048
828197632,ktran9,27.97411,-82.510515
828177532,ktran9,27.977701,-82.501088
828177557,ktran9,27.97771,-82.501301
828179717,ktran9,27.977338,-82.501493
828196224,ktran9,27.981233,-82.500939
828179175,ktran9,27.981447,-82.490234
828182633,ktran9,27.981414,-82.495843
828189388,ktran9,27.981158,-82.489687
828196215,ktran9,27.981175,-82.491601
828196277,ktran9,27.981132,-82.486344
828196288,ktran9,27.981158,-82.488107
828196354,ktran9,27.981384,-82.48629
828196368,ktran9,27.981439,-82.488684
828197217,ktran9,27.981484,-82.488968
828179689,ktran9,27.974951,-82.501522
828182484,ktran9,27.972154,-82.501551
828189651,ktran9,27.973973,-82.503736
828189666,ktran9,27.974123,-82.503852
828198122,ktran9,27.971757,-82.501397
828198142,ktran9,27.974918,-82.501374
828198143,ktran9,27.973689,-82.501372
828198158,ktran9,27.976126,-82.501372
828179289,ktran9,27.992058,-82.476201
828179922,ktran9,27.992212,-82.484443
828182953,ktran9,27.988861,-82.47627
828183145,ktran9,27.99232,-82.476295
828183209,ktran9,27.98973,-82.476375
828189379,ktran9,27.988491,-82.484527
828189386,ktran9,27.99047,-82.484487
828191162,ktran9,27.988914,-82.484619
828191203,ktran9,27.992524,-82.48454
828191214,ktran9,27.990334,-82.484594
828177199,ktran9,27.98235,-82.47945
828177206,ktran9,27.982627,-82.483843
828179279,ktran9,27.984784,-82.476477
828179283,ktran9,27.986715,-82.476361
828179807,ktran9,27.985496,-82.484683
828183115,ktran9,27.982675,-82.47656
828183139,ktran9,27.985097,-82.476495
828187777,ktran9,27.987138,-82.476434
828187796,ktran9,27.982178,-82.480502
828187797,ktran9,27.982357,-82.477539
828189358,ktran9,27.98544,-82.484582
828189374,ktran9,27.982894,-82.484566
828189381,ktran9,27.986326,-82.484561
828190184,ktran9,27.982782,-82.476529
828191135,ktran9,27.983237,-82.484712
828191174,ktran9,27.986539,-82.484664
828178265,ktran9,27.992324,-82.459375
828178272,ktran9,27.988591,-82.459376
828183513,ktran9,27.990673,-82.460145
828196966,ktran9,27.988948,-82.462097
828197259,ktran9,27.992588,-82.459488
828177445,ktran9,27.988561,-82.451202
828177455,ktran9,27.990457,-82.451185
828179927,ktran9,27.990083,-82.451097
828179934,ktran9,27.992712,-82.451102
828190527,ktran9,27.992508,-82.443048
828190637,ktran9,27.991313,-82.443048
828190645,ktran9,27.988881,-82.44298
828190652,ktran9,27.990317,-82.443027
828194509,ktran9,27.992409,-82.442865
828194570,ktran9,27.988623,-82.442845
828194596,ktran9,27.990117,-82.442835
828194605,ktran9,27.991186,-82.442855
828195101,ktran9,27.992715,-82.451187
828197559,ktran9,27.989093,-82.451029
828178306,ktran9,27.982565,-82.459369
828178313,ktran9,27.984983,-82.459374
828196986,ktran9,27.985904,-82.46213
828177457,ktran9,27.985481,-82.451206
828177466,ktran9,27.987051,-82.451204
828177491,ktran9,27.983429,-82.451211
828179961,ktran9,27.983852,-82.451097
828179985,ktran9,27.984984,-82.451094
828183054,ktran9,27.986895,-82.451095
828190694,ktran9,27.985254,-82.443037
828190697,ktran9,27.986386,-82.443037
828190710,ktran9,27.983407,-82.443027
828194561,ktran9,27.986875,-82.442855
828194583,ktran9,27.983198,-82.442845
828194595,ktran9,27.985019,-82.442855
828179178,ktran9,27.978255,-82.484691
828187766,ktran9,27.977246,-82.484805
828187769,ktran9,27.978461,-82.484814
828187952,ktran9,27.981349,-82.481676
828189041,ktran9,27.977126,-82.484704
828189337,ktran9,27.979628,-82.484676
828191131,ktran9,27.981553,-82.484755
828191152,ktran9,27.980164,-82.484804
828196264,ktran9,27.981151,-82.484177
828196274,ktran9,27.981197,-82.483336
828196285,ktran9,27.981151,-82.484906
828196345,ktran9,27.981342,-82.479417
828196442,ktran9,27.98118,-82.479012
828197579,ktran9,27.981376,-82.484433
828179915,ktran9,27.977748,-82.467613
828179958,ktran9,27.980817,-82.467663
828188515,ktran9,27.97963,-82.46762
828191627,ktran9,27.981583,-82.463695
828191631,ktran9,27.981517,-82.463625
828196067,ktran9,27.981639,-82.467422
828196086,ktran9,27.981593,-82.46529
828196325,ktran9,27.981627,-82.471543
828196332,ktran9,27.981619,-82.469571
828196350,ktran9,27.981632,-82.473047
828196445,ktran9,27.981464,-82.469714
828196447,ktran9,27.981482,-82.471791
828196457,ktran9,27.981515,-82.465738
828197728,ktran9,27.981474,-82.46783
828198294,ktran9,27.97813,-82.46769
828198309,ktran9,27.979856,-82.467692
828179181,ktran9,27.975338,-82.484738
828179185,ktran9,27.972507,-82.483729
828187775,ktran9,27.975175,-82.484838
828190885,ktran9,27.972658,-82.484863
828179908,ktran9,27.973697,-82.467617
828179912,ktran9,27.9718,-82.46762
828179918,ktran9,27.97584,-82.467601
828189397,ktran9,27.972157,-82.4677
828198242,ktran9,27.973905,-82.46771
828198272,ktran9,27.97639,-82.46768
828178200,ktran9,27.977726,-82.459302
828178294,ktran9,27.981169,-82.459368
828179724,ktran9,27.981576,-82.45278
828183263,ktran9,27.978153,-82.461145
828187950,ktran9,27.98159,-82.458672
828195978,ktran9,27.98159,-82.455079
828195995,ktran9,27.981588,-82.45719
828196006,ktran9,27.981588,-82.462436
828196199,ktran9,27.981711,-82.462108
828196458,ktran9,27.981505,-82.462247
828196460,ktran9,27.981376,-82.458108
828196463,ktran9,27.98135,-82.455586
828197575,ktran9,27.981367,-82.459637
828197598,ktran9,27.981584,-82.460176
828177497,ktran9,27.977988,-82.451227
828179954,ktran9,27.97769,-82.451129
828183747,ktran9,27.977021,-82.444322
828186097,ktran9,27.980845,-82.442868
828190674,ktran9,27.978801,-82.442998
828190708,ktran9,27.981725,-82.442996
828194528,ktran9,27.979485,-82.44289
828194552,ktran9,27.977402,-82.442814
828195996,ktran9,27.981553,-82.449062
828196105,ktran9,27.98156,-82.44273
828196192,ktran9,27.981572,-82.446932
828196198,ktran9,27.981563,-82.444863
828196396,ktran9,27.981378,-82.445063
828196399,ktran9,27.981369,-82.44722
828196409,ktran9,27.981341,-82.449458
828196412,ktran9,27.981332,-82.451393
828196435,ktran9,27.981314,-82.443148
828197322,ktran9,27.980562,-82.451048
828197565,ktran9,27.980807,-82.45121
828178194,ktran9,27.974439,-82.459311
828178207,ktran9,27.973053,-82.459321
828183235,ktran9,27.975027,-82.460962
828183247,ktran9,27.974336,-82.460907
828183257,ktran9,27.971969,-82.460919
828177488,ktran9,27.975488,-82.451226
828179814,ktran9,27.974132,-82.45115
828179828,ktran9,27.97217,-82.451159
828183764,ktran9,27.975574,-82.444345
828183768,ktran9,27.974277,-82.444333
828183773,ktran9,27.972864,-82.444313
828183901,ktran9,27.972022,-82.444302
828194540,ktran9,27.975899,-82.442824
828194695,ktran9,27.972222,-82.442949
828194700,ktran9,27.974069,-82.442854
828197551,ktran9,27.975699,-82.451078
828197571,ktran9,27.972746,-82.45128
828196862,ktran9,27.966355,-82.51156
828185066,ktran9,27.962767,-82.517985
828192861,ktran9,27.963437,-82.515942
828184696,ktran9,27.966887,-82.500473
828185625,ktran9,27.969832,-82.501582
828186092,ktran9,27.968037,-82.501537
828186101,ktran9,27.966027,-82.501566
828191650,ktran9,27.966098,-82.505317
828194098,ktran9,27.96658,-82.499531
828194102,ktran9,27.966581,-82.497445
828194119,ktran9,27.966804,-82.499233
828194124,ktran9,27.966579,-82.500817
828194346,ktran9,27.966797,-82.497176
828198094,ktran9,27.967159,-82.501354
828198105,ktran9,27.966463,-82.501394
828198125,ktran9,27.969758,-82.501356
828182487,ktran9,27.966593,-82.491237
828194085,ktran9,27.966609,-82.495987
828194164,ktran9,27.966614,-82.487055
828194180,ktran9,27.966662,-82.48916
828194182,ktran9,27.966574,-82.493425
828194214,ktran9,27.966759,-82.486843
828194316,ktran9,27.966812,-82.492872
828194334,ktran9,27.966779,-82.491001
828194359,ktran9,27.966812,-82.495101
828194363,ktran9,27.966777,-82.488907
828196258,ktran9,27.966838,-82.491278
828180873,ktran9,27.961223,-82.505675
828180908,ktran9,27.964285,-82.505643
828181358,ktran9,27.961525,-82.505435
828186083,ktran9,27.964147,-82.501472
828189155,ktran9,27.963714,-82.505422
828197323,ktran9,27.962502,-82.501494
828197332,ktran9,27.961358,-82.501497
828197761,ktran9,27.960574,-82.501342
828198326,ktran9,27.962982,-82.501307
828198346,ktran9,27.964612,-82.501322
828183819,ktran9,27.955864,-82.526992
828183840,ktran9,27.955848,-82.524947
828193803,ktran9,27.95478,-82.523994
828193824,ktran9,27.957334,-82.523976
828193834,ktran9,27.959987,-82.524951
828197657,ktran9,27.955667,-82.524278
828197659,ktran9,27.956211,-82.523995
828197667,ktran9,27.959263,-82.524282
828197668,ktran9,27.957488,-82.52426
828180785,ktran9,27.959521,-82.509192
828180815,ktran9,27.959365,-82.508962
828180827,ktran9,27.959363,-82.511474
828188823,ktran9,27.95924,-82.513738
828188873,ktran9,27.955639,-82.513802
828188964,ktran9,27.956033,-82.513907
828188965,ktran9,27.958422,-82.513914
828188968,ktran9,27.959034,-82.513899
828197762,ktran9,27.95817,-82.51378
828179341,ktran9,27.952154,-82.523333
828179366,ktran9,27.952669,-82.523992
828183838,ktran9,27.95212,-82.520174
828184370,ktran9,27.952407,-82.523901
828184879,ktran9,27.951446,-82.524315
828184880,ktran9,27.954517,-82.524287
828185614,ktran9,27.952145,-82.522351
828185675,ktran9,27.952204,-82.528699
828185690,ktran9,27.952178,-82.526644
828186519,ktran9,27.952432,-82.525946
828186533,ktran9,27.952458,-82.528031
828186592,ktran9,27.952399,-82.521886
828198038,ktran9,27.952383,-82.519962
828185632,ktran9,27.952078,-82.516084
828185646,ktran9,27.952103,-82.51817
828185657,ktran9,27.952071,-82.51333
828185660,ktran9,27.952117,-82.50802
828185671,ktran9,27.9521,-82.50998
828186150,ktran9,27.952258,-82.509596
828186174,ktran9,27.952315,-82.513584
828186181,ktran9,27.952322,-82.516226
828186201,ktran9,27.952267,-82.507598
828186607,ktran9,27.952339,-82.517856
828188878,ktran9,27.95425,-82.513806
828188883,ktran9,27.952739,-82.513808
828188952,ktran9,27.952441,-82.513964
828188955,ktran9,27.954511,-82.513916
828180794,ktran9,27.959377,-82.504487
828180797,ktran9,27.959384,-82.506431
828180830,ktran9,27.955577,-82.505709
828180887,ktran9,27.958866,-82.505709
828180893,ktran9,27.959341,-82.502695
828181207,ktran9,27.959523,-82.506675
828181212,ktran9,27.959469,-82.503062
828181376,ktran9,27.960182,-82.50545
828181515,ktran9,27.958316,-82.505468
828197324,ktran9,27.959659,-82.501514
828198006,ktran9,27.959549,-82.504781
828178186,ktran9,27.950178,-82.505769
828178196,ktran9,27.951621,-82.505761
828178202,ktran9,27.952841,-82.50577
828181497,ktran9,27.950095,-82.505521
828181528,ktran9,27.951912,-82.5055
828185896,ktran9,27.952033,-82.501829
828185947,ktran9,27.95199,-82.497495
828185949,ktran9,27.952034,-82.499591
828186057,ktran9,27.952093,-82.506243
828186188,ktran9,27.952205,-82.501292
828186200,ktran9,27.95223,-82.505221
828186337,ktran9,27.952188,-82.499318
828186391,ktran9,27.952144,-82.497242
828192875,ktran9,27.952031,-82.504208
828185901,ktran9,27.951938,-82.493901
828185926,ktran9,27.951964,-82.49544
828185972,ktran9,27.951995,-82.487209
828185989,ktran9,27.951912,-82.490307
828186008,ktran9,27.951938,-82.492524
828186278,ktran9,27.952118,-82.495187
828186299,ktran9,27.952101,-82.492312
828186892,ktran9,27.952167,-82.486966
828186895,ktran9,27.952051,-82.490288
828179187,ktran9,27.97101,-82.48276
828179686,ktran9,27.967177,-82.482701
828180947,ktran9,27.969505,-82.482747
828180997,ktran9,27.968045,-82.482755
828190897,ktran9,27.970455,-82.484931
828191964,ktran9,27.96752,-82.48497
828191969,ktran9,27.966116,-82.484969
828191978,ktran9,27.969012,-82.484895
828194139,ktran9,27.966561,-82.482984
828194159,ktran9,27.966596,-82.485131
828194199,ktran9,27.966748,-82.484727
828194236,ktran9,27.966664,-82.476875
828194254,ktran9,27.966684,-82.478962
828194280,ktran9,27.966687,-82.480409
828194301,ktran9,27.966725,-82.482584
828194529,ktran9,27.966535,-82.478802
828194539,ktran9,27.966535,-82.480402
828194554,ktran9,27.966509,-82.476757
828179052,ktran9,27.967177,-82.46769
828179799,ktran9,27.968474,-82.467684
828179803,ktran9,27.970707,-82.467706
828179901,ktran9,27.968436,-82.46761
828182842,ktran9,27.967271,-82.467605
828183827,ktran9,27.966793,-82.465719
828183831,ktran9,27.966802,-82.466904
828188507,ktran9,27.970491,-82.467619
828193924,ktran9,27.966956,-82.465456
828193963,ktran9,27.966925,-82.463496
828193975,ktran9,27.966957,-82.472925
828193996,ktran9,27.966956,-82.471521
828194002,ktran9,27.966945,-82.46936
828194020,ktran9,27.966968,-82.467466
828194541,ktran9,27.966827,-82.473243
828194615,ktran9,27.966801,-82.471177
828194619,ktran9,27.966801,-82.469213
828194623,ktran9,27.966766,-82.463714
828180975,ktran9,27.965084,-82.48278
828181404,ktran9,27.962927,-82.482813
828181420,ktran9,27.961466,-82.482826
828181443,ktran9,27.964404,-82.482793
828187757,ktran9,27.961314,-82.484992
828192038,ktran9,27.960213,-82.485006
828192059,ktran9,27.964604,-82.484998
828192063,ktran9,27.963146,-82.485018
828178871,ktran9,27.965008,-82.467634
828179025,ktran9,27.964308,-82.467723
828182851,ktran9,27.963072,-82.467643
828182855,ktran9,27.963021,-82.46776
828178206,ktran9,27.970716,-82.45933
828178212,ktran9,27.96713,-82.45934
828178228,ktran9,27.970961,-82.455462
828178233,ktran9,27.97097,-82.459331
828178258,ktran9,27.970798,-82.455371
828182491,ktran9,27.966892,-82.454332
828183129,ktran9,27.967881,-82.460925
828183846,ktran9,27.966768,-82.457173
828183849,ktran9,27.966894,-82.456957
828183850,ktran9,27.96675,-82.454388
828189951,ktran9,27.966759,-82.452849
828193884,ktran9,27.966906,-82.459014
828193896,ktran9,27.966928,-82.460741
828193912,ktran9,27.966897,-82.45521
828193946,ktran9,27.966928,-82.462236
828194044,ktran9,27.966897,-82.452891
828194410,ktran9,27.966759,-82.455603
828194628,ktran9,27.966776,-82.462448
828194631,ktran9,27.966776,-82.461051
828194639,ktran9,27.966776,-82.459583
828195638,ktran9,27.966242,-82.46097
828177228,ktran9,27.970992,-82.451246
828177690,ktran9,27.966889,-82.445396
828177738,ktran9,27.966899,-82.447026
828177753,ktran9,27.966914,-82.449082
828178248,ktran9,27.970853,-82.451563
828178262,ktran9,27.97069,-82.451249
828179205,ktran9,27.9706,-82.447859
828179206,ktran9,27.970807,-82.450308
828179211,ktran9,27.967035,-82.451267
828179217,ktran9,27.970594,-82.445264
828179882,ktran9,27.968736,-82.451178
828179890,ktran9,27.966342,-82.451183
828182490,ktran9,27.96732,-82.44334
828183874,ktran9,27.970756,-82.444258
828183902,ktran9,27.968851,-82.444243
828183919,ktran9,27.969893,-82.444242
828185825,ktran9,27.967614,-82.441612
828189916,ktran9,27.966534,-82.444312
828191024,ktran9,27.970536,-82.44967
828191048,ktran9,27.970552,-82.444137
828191067,ktran9,27.970546,-82.442753
828191093,ktran9,27.970374,-82.443178
828191097,ktran9,27.970437,-82.444414
828191109,ktran9,27.970437,-82.44569
828191114,ktran9,27.970446,-82.448009
828191185,ktran9,27.970392,-82.441619
828194037,ktran9,27.966914,-82.450935
828194051,ktran9,27.966906,-82.451929
828194397,ktran9,27.96675,-82.451036
828194474,ktran9,27.966733,-82.445558
828194482,ktran9,27.966724,-82.444393
828194490,ktran9,27.966751,-82.449163
828194496,ktran9,27.966751,-82.447026
828194517,ktran9,27.966715,-82.44332
828194519,ktran9,27.966715,-82.441781
828194643,ktran9,27.965873,-82.442874
828194657,ktran9,27.966715,-82.442874
828194666,ktran9,27.967327,-82.442925
828194673,ktran9,27.968626,-82.442928
828194689,ktran9,27.970374,-82.442933
828197313,ktran9,27.968716,-82.45129
828197519,ktran9,27.970183,-82.451097
828178218,ktran9,27.964938,-82.459359
828178225,ktran9,27.962103,-82.459369
828179093,ktran9,27.960575,-82.460979
828179201,ktran9,27.962339,-82.452625
828183091,ktran9,27.961133,-82.460989
828183122,ktran9,27.963352,-82.460999
828193881,ktran9,27.96232,-82.459282
828193894,ktran9,27.962313,-82.457902
828193910,ktran9,27.962311,-82.455231
828193940,ktran9,27.962149,-82.45543
828193954,ktran9,27.962167,-82.458184
828177239,ktran9,27.962702,-82.451309
828177286,ktran9,27.960565,-82.446509
828177290,ktran9,27.960623,-82.451275
828177296,ktran9,27.960438,-82.446843
828177311,ktran9,27.96224,-82.44654
828179894,ktran9,27.963937,-82.451192
828180095,ktran9,27.964333,-82.444322
828181721,ktran9,27.96373,-82.451263
828183818,ktran9,27.962657,-82.446854
828184500,ktran9,27.960317,-82.445228
828184511,ktran9,27.960321,-82.442641
828189325,ktran9,27.963219,-82.445527
828190022,ktran9,27.962477,-82.446424
828190029,ktran9,27.962259,-82.447107
828190084,ktran9,27.962445,-82.449714
828190095,ktran9,27.962186,-82.450144
828190179,ktran9,27.963415,-82.445814
828191305,ktran9,27.960338,-82.448414
828193877,ktran9,27.962304,-82.44336
828193937,ktran9,27.962177,-82.452099
828194677,ktran9,27.963038,-82.442864
828194768,ktran9,27.962541,-82.442215
828194772,ktran9,27.962549,-82.443994
828195576,ktran9,27.963047,-82.451199
828179309,ktran9,27.957162,-82.477026
828179319,ktran9,27.95699,-82.476388
828180369,ktran9,27.957129,-82.474456
828180395,ktran9,27.957167,-82.478642
828180411,ktran9,27.957176,-82.480708
828180674,ktran9,27.957034,-82.478909
828180694,ktran9,27.957043,-82.480985
828180708,ktran9,27.95706,-82.483324
828180726,ktran9,27.957207,-82.48272
828181331,ktran9,27.959921,-82.482848
828181351,ktran9,27.958519,-82.482876
828192025,ktran9,27.958795,-82.485023
828180342,ktran9,27.957087,-82.470276
828180350,ktran9,27.957109,-82.472253
828180535,ktran9,27.957073,-82.468707
828180569,ktran9,27.956945,-82.474272
828180590,ktran9,27.956919,-82.473087
828180649,ktran9,27.95692,-82.468784
828182733,ktran9,27.957185,-82.468434
828182823,ktran9,27.956958,-82.468318
828187739,ktran9,27.956901,-82.470647
828188484,ktran9,27.955358,-82.468326
828184953,ktran9,27.951988,-82.48323
828184963,ktran9,27.951944,-82.478927
828184975,ktran9,27.951971,-82.481033
828185061,ktran9,27.9519,-82.474796
828185084,ktran9,27.951927,-82.476902
828185967,ktran9,27.952005,-82.485316
828186861,ktran9,27.952094,-82.479026
828186872,ktran9,27.952111,-82.480775
828186904,ktran9,27.952129,-82.482243
828186907,ktran9,27.952156,-82.484842
828186962,ktran9,27.952052,-82.474559
828187080,ktran9,27.952075,-82.476615
828196249,ktran9,27.951909,-82.475748
828179948,ktran9,27.954028,-82.468351
828182729,ktran9,27.954361,-82.468508
828182834,ktran9,27.951807,-82.468374
828183837,ktran9,27.950073,-82.467992
828183930,ktran9,27.950236,-82.468043
828183969,ktran9,27.952023,-82.469719
828185086,ktran9,27.951901,-82.472883
828185103,ktran9,27.951848,-82.46938
828186985,ktran9,27.95203,-82.472955
828198218,ktran9,27.952612,-82.468536
828177519,ktran9,27.956487,-82.461008
828180783,ktran9,27.95944,-82.459611
828182991,ktran9,27.959575,-82.459303
828183093,ktran9,27.959114,-82.461019
828185162,ktran9,27.95515,-82.458671
828185192,ktran9,27.955343,-82.45832
828185215,ktran9,27.954848,-82.458102
828189367,ktran9,27.954927,-82.458753
828189447,ktran9,27.958208,-82.45869
828195648,ktran9,27.959069,-82.458872
828197333,ktran9,27.956877,-82.458699
828197370,ktran9,27.955473,-82.458517
828177232,ktran9,27.959949,-82.446539
828177295,ktran9,27.955701,-82.451296
828177300,ktran9,27.959723,-82.446934
828177321,ktran9,27.956888,-82.447845
828178369,ktran9,27.95821,-82.441608
828178458,ktran9,27.95817,-82.444103
828178504,ktran9,27.960166,-82.444788
828179726,ktran9,27.958038,-82.444038
828179737,ktran9,27.960157,-82.451116
828179753,ktran9,27.958481,-82.451116
828181192,ktran9,27.959653,-82.450978
828181940,ktran9,27.959623,-82.450488
828183653,ktran9,27.958516,-82.451291
828183927,ktran9,27.958418,-82.447137
828183932,ktran9,27.955722,-82.448933
828184221,ktran9,27.958038,-82.441801
828185831,ktran9,27.956715,-82.447612
828186084,ktran9,27.958201,-82.44663
828186087,ktran9,27.955511,-82.448787
828186217,ktran9,27.95702,-82.451248
828187110,ktran9,27.956399,-82.445638
828191328,ktran9,27.960184,-82.448372
828195262,ktran9,27.957132,-82.451116
828196417,ktran9,27.960158,-82.443097
828180322,ktran9,27.953065,-82.453575
828180515,ktran9,27.952911,-82.453454
828182800,ktran9,27.949812,-82.460662
828182873,ktran9,27.949604,-82.460996
828182874,ktran9,27.951261,-82.461695
828184615,ktran9,27.954314,-82.458648
828184825,ktran9,27.952329,-82.463184
828185250,ktran9,27.954333,-82.458423
828188217,ktran9,27.950736,-82.458172
828188341,ktran9,27.949395,-82.459771
828188348,ktran9,27.950808,-82.460369
828189296,ktran9,27.950863,-82.457311
828189344,ktran9,27.952312,-82.457939
828189410,ktran9,27.951651,-82.457858
828189740,ktran9,27.953362,-82.461037
828190875,ktran9,27.951505,-82.462171
828191831,ktran9,27.950428,-82.46216
828177214,ktran9,27.953391,-82.450862
828177306,ktran9,27.953618,-82.451312
828177315,ktran9,27.95399,-82.450651
828179745,ktran9,27.95455,-82.451146
828179762,ktran9,27.951797,-82.450892
828181724,ktran9,27.954684,-82.451305
828187094,ktran9,27.9536,-82.445577
828190370,ktran9,27.950249,-82.446559
828197442,ktran9,27.94985,-82.448857
828197452,ktran9,27.949633,-82.448655
828183402,ktran9,28.031893,-82.436594
828183404,ktran9,28.031702,-82.434811
828183691,ktran9,28.034817,-82.434517
828190630,ktran9,28.032698,-82.433939
828190743,ktran9,28.032391,-82.43478
828190746,ktran9,28.032695,-82.439792
828190761,ktran9,28.032667,-82.437362
828192119,ktran9,28.033037,-82.434686
828192126,ktran9,28.032025,-82.434694
828192151,ktran9,28.035081,-82.43466
828195395,ktran9,28.03268,-82.432393
828195952,ktran9,28.032418,-82.432976
828195963,ktran9,28.032391,-82.437922
828195974,ktran9,28.032409,-82.440131
828196620,ktran9,28.036891,-82.434547
828196661,ktran9,28.033278,-82.434547
828182879,ktran9,28.03267,-82.427015
828183312,ktran9,28.031954,-82.426321
828183317,ktran9,28.036023,-82.426126
828183505,ktran9,28.036449,-82.426286
828183511,ktran9,28.032145,-82.426491
828190634,ktran9,28.032674,-82.430231
828190731,ktran9,28.032408,-82.43022
828195966,ktran9,28.032462,-82.426948
828196630,ktran9,28.032435,-82.423511
828177235,ktran9,28.02818,-82.436625
828177243,ktran9,28.026758,-82.436615
828177247,ktran9,28.029719,-82.436807
828177253,ktran9,28.029538,-82.436625
828177472,ktran9,28.027012,-82.436807
828177478,ktran9,28.028379,-82.436807
828183575,ktran9,28.028886,-82.430443
828186138,ktran9,28.031539,-82.436645
828193507,ktran9,28.02745,-82.4324
828193556,ktran9,28.028705,-82.430433
828193760,ktran9,28.027365,-82.432632
828182615,ktran9,28.028868,-82.428822
828182616,ktran9,28.028867,-82.427261
828183305,ktran9,28.030318,-82.426361
828183457,ktran9,28.029157,-82.426407
828183580,ktran9,28.028978,-82.42822
828183607,ktran9,28.028978,-82.42706
828193757,ktran9,28.03057,-82.426481
828181864,EdHillsman,28.033566,-82.4160767
828182924,EdHillsman,28.0347829,-82.416404
828190620,ktran9,28.032724,-82.41583
828190621,ktran9,28.032734,-82.411901
828190628,ktran9,28.032732,-82.409661
828190846,ktran9,28.032459,-82.410205
828190862,ktran9,28.032452,-82.417887
828195983,ktran9,28.032451,-82.4136
828195999,ktran9,28.032452,-82.415647
828190656,ktran9,28.032765,-82.402543
828190677,ktran9,28.032741,-82.407279
828190844,ktran9,28.032458,-82.407043
828195333,ktran9,28.03373,-82.401683
828195349,ktran9,28.035798,-82.401742
828196019,ktran9,28.03244,-82.405462
828196046,ktran9,28.036151,-82.400059
828196621,ktran9,28.03273,-82.405574
828196987,ktran9,28.033552,-82.40157
828196999,ktran9,28.036313,-82.399806
828197013,ktran9,28.036323,-82.401518
828197016,ktran9,28.036079,-82.401549
828197033,ktran9,28.032885,-82.401709
828181872,ktran9,28.030549,-82.416223
828182885,ktran9,28.030767,-82.416438
828182897,ktran9,28.02911,-82.416438
828182957,ktran9,28.028395,-82.416266
828182969,ktran9,28.027227,-82.41633
828183231,ktran9,28.027245,-82.416459
828196227,ktran9,28.030396,-82.416428
828177223,ktran9,28.02569,-82.436615
828177467,ktran9,28.025527,-82.436807
828183279,ktran9,28.02234,-82.435156
828183294,ktran9,28.022728,-82.435581
828183307,ktran9,28.024875,-82.436817
828183314,ktran9,28.024592,-82.43678
828193501,ktran9,28.02512,-82.434586
828193741,ktran9,28.025554,-82.434517
828193746,ktran9,28.022692,-82.435186
828194870,ktran9,28.021569,-82.436746
828194884,ktran9,28.022357,-82.435389
828194945,ktran9,28.023987,-82.440881
828194969,ktran9,28.025219,-82.440921
828194975,ktran9,28.021144,-82.439604
828194993,ktran9,28.021379,-82.440921
828196562,ktran9,28.025219,-82.440688
828196581,ktran9,28.023851,-82.440708
828196584,ktran9,28.021286,-82.440703
828196588,ktran9,28.021267,-82.439098
828197896,ktran9,28.021787,-82.436683
828183670,ktran9,28.016063,-82.431822
828183679,ktran9,28.015574,-82.43167
828183688,ktran9,28.019758,-82.433332
828183869,ktran9,28.015855,-82.431559
828182790,ktran9,28.02145,-82.415076
828182975,ktran9,28.025136,-82.41632
828182985,ktran9,28.023195,-82.415508
828183172,ktran9,28.021712,-82.415275
828183195,ktran9,28.023387,-82.415801
828183220,ktran9,28.024999,-82.416439
828196240,ktran9,28.020715,-82.414779
828196245,ktran9,28.022572,-82.415366
828181777,ktran9,28.019982,-82.414364
828181783,ktran9,28.017745,-82.414233
828183150,ktran9,28.018442,-82.414232
828190063,ktran9,28.019656,-82.414039
828190066,ktran9,28.017926,-82.414111
828190068,ktran9,28.016359,-82.414051
828179142,ktran9,28.020385,-82.40033
828179143,ktran9,28.020384,-82.397878
828180204,ktran9,28.020221,-82.397827
828182187,ktran9,28.020222,-82.40036
828196988,ktran9,28.017889,-82.401915
828197048,ktran9,28.020023,-82.401961
828197065,ktran9,28.017533,-82.402033
828182161,ktran9,28.033757,-82.393311
828182173,ktran9,28.035985,-82.39332
828182193,ktran9,28.032164,-82.393322
828184590,ktran9,28.036374,-82.393634
828184602,caribarchgirl84,28.0329931,-82.3936369
828184603,caribarchgirl84,28.0344979,-82.3936005
828196822,ktran9,28.036085,-82.393664
828196953,ktran9,28.036207,-82.394311
828196983,ktran9,28.036285,-82.396461
828197009,ktran9,28.036131,-82.396664
828197472,ktran9,28.032399,-82.393322
828197682,ktran9,28.031684,-82.39317
845503905,caribarchgirl84,28.0330013,-82.3936424
828179147,ktran9,28.028227,-82.393564
828179149,ktran9,28.030488,-82.393637
828186740,ktran9,28.026681,-82.393558
828197454,ktran9,28.027011,-82.393294
828197464,ktran9,28.028034,-82.393314
828191648,ktran9,28.03262,-82.368364
828197955,ktran9,28.032177,-82.368909
828177291,ktran9,28.03277,-82.361743
828186572,ktran9,28.03248,-82.361126
828191529,ktran9,28.033092,-82.356565
828191586,ktran9,28.035682,-82.356572
828193120,ktran9,28.035603,-82.35644
828193158,ktran9,28.033224,-82.3564
828191547,ktran9,28.027528,-82.368805
828193106,ktran9,28.027369,-82.36868
828193113,ktran9,28.030294,-82.368708
828190359,ktran9,28.021197,-82.393535
828197510,ktran9,28.020663,-82.393196
828180008,ktran9,28.02033,-82.394516
828180123,ktran9,28.02023,-82.39652
828180144,ktran9,28.020211,-82.39425
828180304,ktran9,28.020318,-82.39617
828186718,ktran9,28.019833,-82.393493
828186773,ktran9,28.018169,-82.393526
828196104,ktran9,28.015801,-82.393581
828197486,ktran9,28.01599,-82.39333
828197496,ktran9,28.017885,-82.393286
828180755,ktran9,28.023566,-82.368865
828186563,ktran9,28.023258,-82.368845
828183640,ktran9,28.010566,-82.432775
828183651,ktran9,28.010467,-82.434984
828183725,ktran9,28.010747,-82.432512
828185117,ktran9,28.01063,-82.436088
828185125,ktran9,28.010711,-82.433788
828185140,ktran9,28.010675,-82.441124
828185173,ktran9,28.010648,-82.438601
828186167,ktran9,28.010512,-82.441377
828188392,ktran9,28.010467,-82.436068
828188401,ktran9,28.010485,-82.438722
828188783,ktran9,28.010204,-82.434755
828196644,ktran9,28.010376,-82.434599
828183284,ktran9,28.011227,-82.430111
828183298,ktran9,28.01052,-82.426372
828183300,ktran9,28.011371,-82.430315
828183631,ktran9,28.010548,-82.426717
828185252,ktran9,28.01072,-82.429928
828197504,ktran9,28.010557,-82.429736
828183713,ktran9,28.004825,-82.434802
828193407,ktran9,28.007188,-82.434802
828196660,ktran9,28.00689,-82.434629
828196731,ktran9,28.00468,-82.434619
828183282,ktran9,28.004625,-82.426424
828183292,ktran9,28.006817,-82.426413
828183293,ktran9,28.008628,-82.426393
828183479,ktran9,28.007161,-82.426531
828189437,ktran9,28.004833,-82.426596
828193728,ktran9,28.00888,-82.42653
828181794,ktran9,28.013262,-82.414984
828181874,ktran9,28.013724,-82.414609
828183137,ktran9,28.011542,-82.415197
828185396,ktran9,28.009999,-82.410125
828188352,ktran9,28.010132,-82.410069
828188478,ktran9,28.010589,-82.4085
828190300,ktran9,28.01156,-82.415004
828179162,ktran9,28.010605,-82.399787
828182071,ktran9,28.010767,-82.39926
828183633,ktran9,28.010589,-82.40614
828183664,ktran9,28.010596,-82.402107
828183669,ktran9,28.010613,-82.397953
828185434,ktran9,28.010776,-82.39767
828185531,ktran9,28.010694,-82.408377
828185560,ktran9,28.010708,-82.403707
828185578,caribarchgirl84,28.0107619,-82.4015268
828188134,ktran9,28.010703,-82.40602
828188477,ktran9,28.010588,-82.404245
828196973,caribarchgirl84,28.011004,-82.4018441
828196996,ktran9,28.01373,-82.401832
828197051,ktran9,28.013766,-82.402025
828197068,caribarchgirl84,28.0108877,-82.4020128
828182768,ktran9,28.006832,-82.414124
828182776,ktran9,28.005067,-82.414178
828183043,ktran9,28.00513,-82.414307
828183131,ktran9,28.00714,-82.414296
828185420,ktran9,28.005346,-82.409991
828185449,ktran9,28.00694,-82.41009
828188122,ktran9,28.008733,-82.410203
828188171,ktran9,28.005346,-82.410174
828188178,ktran9,28.007158,-82.410203
828188375,ktran9,28.00886,-82.410095
828183705,ktran9,28.003466,-82.434812
828193376,ktran9,27.99981,-82.434753
828193387,ktran9,28.001583,-82.434843
828196713,ktran9,28.003231,-82.43464
828196791,ktran9,27.999418,-82.43462
828196847,ktran9,28.001628,-82.43466
828181898,ktran9,28.003593,-82.426606
828181914,ktran9,27.999502,-82.426527
828183276,ktran9,28.003203,-82.426414
828183333,ktran9,28.002307,-82.426414
828183448,ktran9,27.999155,-82.426374
828183451,ktran9,28.00112,-82.426394
828187496,ktran9,28.003409,-82.426315
828187512,ktran9,28.003293,-82.420427
828187536,ktran9,28.003284,-82.42458
828187550,ktran9,28.003293,-82.422432
828187580,ktran9,28.003409,-82.4219
828187599,ktran9,28.003408,-82.422234
828187604,ktran9,28.003392,-82.424758
828188380,ktran9,28.003285,-82.425938
828193723,ktran9,28.001078,-82.426527
828193732,ktran9,28.002319,-82.426533
828179565,ktran9,27.995992,-82.431624
828179572,ktran9,27.995992,-82.436884
828182563,ktran9,27.996131,-82.432361
828183858,ktran9,27.995171,-82.43465
828192388,ktran9,27.99599,-82.434999
828192401,ktran9,27.995994,-82.43905
828193196,ktran9,27.996122,-82.438388
828193264,ktran9,27.996131,-82.4346
828193268,ktran9,27.996131,-82.436484
828193360,ktran9,27.993441,-82.434853
828193389,ktran9,27.995398,-82.434779
828193402,ktran9,27.996819,-82.434786
828196809,ktran9,27.996593,-82.43463
828196821,ktran9,27.993595,-82.434671
828179566,ktran9,27.995998,-82.429114
828179880,ktran9,27.996329,-82.426557
828179889,ktran9,27.995623,-82.426557
828182559,ktran9,27.996149,-82.4292
828183409,ktran9,27.995677,-82.426374
828183425,ktran9,27.997217,-82.426374
828183439,ktran9,27.993712,-82.426365
828190588,ktran9,27.995997,-82.424601
828190595,ktran9,27.996002,-82.42049
828190597,ktran9,27.996,-82.422638
828192254,ktran9,27.995999,-82.426632
828193707,ktran9,27.993739,-82.426547
828193712,ktran9,27.997686,-82.42651
828193787,ktran9,27.996156,-82.420114
828193842,ktran9,27.996166,-82.424136
828193854,ktran9,27.996157,-82.42215
828193861,ktran9,27.996157,-82.426263
828181739,ktran9,28.003907,-82.414287
828181764,ktran9,28.000258,-82.414268
828181770,ktran9,28.002757,-82.414298
828181887,ktran9,28.003944,-82.414105
828183017,ktran9,27.999162,-82.414258
828183727,ktran9,27.9988,-82.414056
828183733,ktran9,28.002576,-82.414105
828183734,ktran9,28.001073,-82.414096
828183938,ktran9,28.003291,-82.410235
828185448,ktran9,28.003988,-82.409972
828186731,ktran9,28.003553,-82.410387
828187463,ktran9,28.003291,-82.412241
828187464,ktran9,28.003319,-82.416344
828187478,ktran9,28.00331,-82.414449
828187529,ktran9,28.00332,-82.41839
828187572,ktran9,28.003492,-82.418188
828187629,ktran9,28.003416,-82.411984
828187633,ktran9,28.003422,-82.414655
828187649,ktran9,28.00342,-82.4161
828181751,ktran9,27.997604,-82.414238
828181885,ktran9,27.993864,-82.413905
828182530,ktran9,27.996146,-82.415434
828183002,ktran9,27.99346,-82.414197
828183031,ktran9,27.995431,-82.414249
828183706,ktran9,27.994742,-82.413905
828183729,ktran9,27.997373,-82.413954
828190567,ktran9,27.995998,-82.410105
828190568,ktran9,27.996001,-82.413184
828190577,ktran9,27.996,-82.408603
828190601,ktran9,27.996002,-82.41553
828190608,ktran9,27.996004,-82.418513
828193770,ktran9,27.996147,-82.4182
828193782,ktran9,27.996146,-82.413591
828193821,ktran9,27.996192,-82.409904
828189887,ktran9,27.996189,-82.408227
828190435,ktran9,27.995925,-82.401982
828190446,ktran9,27.996002,-82.406746
828192514,ktran9,27.996,-82.403546
828193801,ktran9,27.996189,-82.406637
828194833,ktran9,27.996192,-82.402004
828195133,ktran9,27.996188,-82.403625
828183697,ktran9,28.010629,-82.39388
828186822,ktran9,28.011694,-82.393634
828188137,ktran9,28.010798,-82.392217
828188152,ktran9,28.010748,-82.389082
828188179,ktran9,28.01076,-82.387852
828188473,ktran9,28.010636,-82.389352
828188474,ktran9,28.010678,-82.392223
828188475,ktran9,28.010626,-82.38693
828188476,ktran9,28.010627,-82.387913
828193045,ktran9,28.010793,-82.394883
828197483,ktran9,28.011564,-82.393391
828182182,ktran9,28.011752,-82.375927
828182248,ktran9,28.01081,-82.376029
828183680,ktran9,28.010271,-82.376719
828188048,ktran9,28.010068,-82.376698
828188201,ktran9,28.010789,-82.386393
828188206,ktran9,28.010785,-82.3828
828188464,ktran9,28.010633,-82.382888
828192832,ktran9,28.010822,-82.380801
828192837,ktran9,28.010659,-82.380791
828179157,ktran9,28.009442,-82.393646
828182108,ktran9,28.007097,-82.393325
828186808,ktran9,28.007159,-82.393636
828191762,ktran9,28.008912,-82.393405
828188038,ktran9,28.008357,-82.377672
828188461,ktran9,28.008542,-82.377703
828182167,ktran9,28.010655,-82.373476
828182242,ktran9,28.010591,-82.37315
828180148,ktran9,28.008572,-82.373264
828180183,ktran9,28.008407,-82.373127
828179154,ktran9,28.0018,-82.393626
828182309,ktran9,28.00016,-82.393319
828182327,ktran9,28.00151,-82.393308
828186627,ktran9,28.003771,-82.393629
828186632,ktran9,28.000241,-82.393621
828197406,ktran9,28.003837,-82.393327
828183940,ktran9,28.003306,-82.380623
828188025,ktran9,28.002074,-82.381333
828188089,ktran9,27.99953,-82.382774
828188472,ktran9,27.999965,-82.382685
828197158,ktran9,28.002735,-82.381151
828179152,ktran9,27.99412,-82.393676
828182286,ktran9,27.997072,-82.39331
828182369,ktran9,27.996004,-82.392373
828182653,ktran9,27.99632,-82.39047
828182655,ktran9,27.99602,-82.389158
828182527,ktran9,27.996341,-82.380462
828182538,ktran9,27.99634,-82.377852
828188075,ktran9,27.997022,-82.384224
828190412,ktran9,27.996031,-82.375938
828190421,ktran9,27.996024,-82.380689
828190430,ktran9,27.996026,-82.382938
828194826,ktran9,27.99633,-82.382835
828197147,ktran9,27.996847,-82.384524
828182153,ktran9,28.000376,-82.37322
828182237,ktran9,28.000348,-82.373081
828182227,ktran9,27.996857,-82.373114
828182233,ktran9,27.996663,-82.37297
828189180,ktran9,27.996357,-82.373551
828190404,ktran9,27.996029,-82.373507
828191405,ktran9,27.988596,-82.43463
828192693,ktran9,27.990359,-82.434763
828192721,ktran9,27.990217,-82.43464
828193363,ktran9,27.988968,-82.434775
828177968,ktran9,27.988629,-82.422381
828178086,ktran9,27.988223,-82.422537
828179812,ktran9,27.990615,-82.426547
828179823,ktran9,27.98913,-82.426537
828179836,ktran9,27.992426,-82.426547
828182416,ktran9,27.98882,-82.421424
828182423,ktran9,27.988813,-82.420046
828183386,ktran9,27.988695,-82.426345
828183393,ktran9,27.990434,-82.426365
828183427,ktran9,27.992254,-82.426365
828194467,ktran9,27.988694,-82.421149
828194558,ktran9,27.988694,-82.419741
828183719,ktran9,27.986632,-82.434773
828192088,ktran9,27.983441,-82.434775
828193371,ktran9,27.985279,-82.434773
828196823,ktran9,27.986431,-82.434651
828196834,ktran9,27.984892,-82.434661
828196883,ktran9,27.983189,-82.434641
828177954,ktran9,27.985925,-82.422405
828177992,ktran9,27.982898,-82.422315
828178021,ktran9,27.984519,-82.422325
828178051,ktran9,27.984519,-82.422507
828178068,ktran9,27.983143,-82.422497
828178096,ktran9,27.985869,-82.422517
828179862,ktran9,27.98663,-82.426528
828179868,ktran9,27.985208,-82.426548
828181899,ktran9,27.986808,-82.42241
828185196,ktran9,27.982935,-82.428128
828185237,ktran9,27.983814,-82.428118
828185254,ktran9,27.984964,-82.427926
828186012,ktran9,27.98289,-82.428004
828190194,ktran9,27.986847,-82.422527
828193514,ktran9,27.984185,-82.427936
828193531,ktran9,27.986612,-82.426345
828197092,ktran9,27.985154,-82.427875
828197094,ktran9,27.984991,-82.426649
828181745,ktran9,27.991703,-82.414201
828181905,ktran9,27.991609,-82.413971
828182996,ktran9,27.990768,-82.41421
828183008,ktran9,27.988999,-82.414214
828183714,ktran9,27.989177,-82.413983
828183722,ktran9,27.990364,-82.413977
828190297,ktran9,27.988711,-82.414616
828194447,ktran9,27.988831,-82.416109
828194460,ktran9,27.988875,-82.418181
828194568,ktran9,27.988712,-82.41813
828194581,ktran9,27.988711,-82.416439
828187975,ktran9,27.981563,-82.439928
828188021,ktran9,27.981351,-82.432848
828188067,ktran9,27.981323,-82.430792
828189166,ktran9,27.981278,-82.4377
828193327,ktran9,27.977283,-82.43481
828193336,ktran9,27.978556,-82.434807
828193354,ktran9,27.982085,-82.434818
828195236,ktran9,27.978913,-82.434741
828196123,ktran9,27.981531,-82.430488
828196132,ktran9,27.981544,-82.432597
828196143,ktran9,27.981553,-82.43741
828196432,ktran9,27.981278,-82.440211
828197199,ktran9,27.981308,-82.434744
828197231,ktran9,27.97733,-82.434682
828197584,ktran9,27.98159,-82.435426
828197590,ktran9,27.98136,-82.435006
828177346,ktran9,27.979982,-82.422315
828177406,ktran9,27.979163,-82.422381
828177413,ktran9,27.977617,-82.422363
828177815,ktran9,27.978096,-82.422525
828177842,ktran9,27.980217,-82.422459
828177926,ktran9,27.98125,-82.422487
828182407,ktran9,27.979209,-82.422495
828185120,ktran9,27.977574,-82.428149
828185138,ktran9,27.97866,-82.428139
828185159,ktran9,27.980055,-82.428139
828185176,ktran9,27.981631,-82.428129
828186095,ktran9,27.978452,-82.428023
828186121,ktran9,27.977704,-82.428023
828186122,ktran9,27.981223,-82.427946
828186133,ktran9,27.979911,-82.428012
828187971,ktran9,27.981506,-82.427809
828188074,ktran9,27.981287,-82.42824
828195028,ktran9,27.981322,-82.42033
828195087,ktran9,27.98134,-82.42269
828195113,ktran9,27.98135,-82.425394
828195744,ktran9,27.981524,-82.419785
828195867,ktran9,27.981553,-82.422126
828196108,ktran9,27.981552,-82.42531
828183642,ktran9,27.972085,-82.434768
828183658,ktran9,27.975717,-82.434806
828183660,ktran9,27.974784,-82.434806
828193006,ktran9,27.97376,-82.434799
828195284,ktran9,27.975696,-82.434743
828197221,ktran9,27.972249,-82.434662
828197222,ktran9,27.974459,-82.434672
828177357,ktran9,27.972505,-82.422339
828177365,ktran9,27.971559,-82.422266
828177371,ktran9,27.975834,-82.422296
828177379,ktran9,27.973992,-82.422354
828177594,ktran9,27.975637,-82.4224
828177614,ktran9,27.974235,-82.422398
828177626,ktran9,27.972755,-82.422395
828177648,ktran9,27.97138,-82.422387
828183111,ktran9,27.976521,-82.428021
828185020,ktran9,27.974956,-82.42815
828185035,ktran9,27.973471,-82.42815
828185317,ktran9,27.976449,-82.428084
828185474,ktran9,27.971967,-82.42817
828186069,ktran9,27.973208,-82.427978
828186077,ktran9,27.971822,-82.427978
828186086,ktran9,27.974775,-82.427967
828187977,ktran9,27.981498,-82.412525
828189162,ktran9,27.98133,-82.41635
828195011,ktran9,27.981375,-82.412754
828195023,ktran9,27.981331,-82.418365
828195726,ktran9,27.981524,-82.418155
828195759,ktran9,27.981529,-82.416124
828197591,ktran9,27.981518,-82.41376
828197595,ktran9,27.981375,-82.413443
828179138,ktran9,27.981715,-82.401659
828182250,ktran9,27.981969,-82.401218
828191342,ktran9,27.981545,-82.39772
828191371,ktran9,27.981552,-82.399608
828194999,ktran9,27.981388,-82.397866
828195002,ktran9,27.981389,-82.399639
828195008,ktran9,27.98139,-82.402525
828195771,ktran9,27.981499,-82.403075
828196898,ktran9,27.974434,-82.401455
828196907,ktran9,27.972532,-82.401506
828196917,ktran9,27.97198,-82.401881
828196921,ktran9,27.973954,-82.40185
828177785,ktran9,27.989436,-82.390944
828177799,ktran9,27.989935,-82.391552
828182355,ktran9,27.992942,-82.393282
828178896,ktran9,27.986658,-82.395291
828179136,ktran9,27.985592,-82.39689
828182341,ktran9,27.986459,-82.394937
828182519,ktran9,27.988367,-82.373037
828182521,ktran9,27.992486,-82.37298
828195680,ktran9,27.992359,-82.373193
828189717,ktran9,27.982571,-82.373234
828195137,ktran9,27.985062,-82.372979
828195153,ktran9,27.98316,-82.372899
828195582,ktran9,27.985342,-82.373161
828195692,ktran9,27.987561,-82.3732
828191317,ktran9,27.98153,-82.391179
828191332,ktran9,27.981561,-82.388023
828191344,ktran9,27.981527,-82.395661
828194924,ktran9,27.981403,-82.391323
828194964,ktran9,27.981396,-82.395456
828196095,ktran9,27.981411,-82.388012
828184570,ktran9,27.981587,-82.378609
828190319,ktran9,27.981335,-82.380598
828191293,ktran9,27.981642,-82.380708
828191302,ktran9,27.981584,-82.377383
828196054,ktran9,27.981305,-82.376759
828196083,ktran9,27.981325,-82.380031
828182507,ktran9,27.978182,-82.373032
828189323,ktran9,27.981354,-82.368604
828191765,ktran9,27.981601,-82.367811
828191783,ktran9,27.981625,-82.373975
828195182,ktran9,27.981103,-82.372949
828195589,ktran9,27.977853,-82.373157
828195599,ktran9,27.98172,-82.373235
828196120,ktran9,27.981303,-82.372597
828196125,ktran9,27.981318,-82.367361
828197618,ktran9,27.981303,-82.373275
828197626,ktran9,27.981627,-82.372715
828191674,ktran9,27.981628,-82.364234
828191682,ktran9,27.981636,-82.360662
828191694,ktran9,27.981603,-82.358588
828191700,ktran9,27.981627,-82.356827
828196135,ktran9,27.981315,-82.363644
828196155,ktran9,27.981322,-82.361345
828196160,ktran9,27.981301,-82.356787
828196171,ktran9,27.981302,-82.357891
828182505,ktran9,27.976458,-82.372975
828195216,ktran9,27.97279,-82.372948
828195479,ktran9,27.972826,-82.37313
828195611,ktran9,27.974366,-82.373129
828195624,ktran9,27.975978,-82.373148
828182394,ktran9,27.970365,-82.433254
828182989,ktran9,27.967498,-82.435372
828183856,ktran9,27.966706,-82.434875
828185719,ktran9,27.967527,-82.436765
828185736,ktran9,27.96753,-82.434561
828185758,ktran9,27.967478,-82.4331
828185773,ktran9,27.967515,-82.43182
828185846,ktran9,27.967612,-82.439158
828188775,ktran9,27.966642,-82.434652
828191157,ktran9,27.970383,-82.435158
828191171,ktran9,27.970374,-82.436282
828191181,ktran9,27.970337,-82.430743
828191200,ktran9,27.970383,-82.437639
828191206,ktran9,27.970383,-82.44008
828191906,ktran9,27.970226,-82.435548
828191941,ktran9,27.96886,-82.435544
828191949,ktran9,27.967633,-82.435541
828191952,ktran9,27.966851,-82.435604
828192543,ktran9,27.970533,-82.439923
828192548,ktran9,27.970525,-82.441328
828192592,ktran9,27.970524,-82.437769
828192610,ktran9,27.970519,-82.436729
828192626,ktran9,27.970524,-82.43537
828192629,ktran9,27.970506,-82.434633
828192645,ktran9,27.970498,-82.43331
828192663,ktran9,27.970491,-82.43052
828194498,ktran9,27.966715,-82.440545
828194505,ktran9,27.966715,-82.438075
828194739,ktran9,27.966697,-82.433882
828194742,ktran9,27.966715,-82.435725
828194775,ktran9,27.966688,-82.431776
828194796,ktran9,27.966678,-82.430763
828197207,ktran9,27.96772,-82.434662
828197208,ktran9,27.968716,-82.434642
828197215,ktran9,27.970229,-82.434672
828177387,ktran9,27.969521,-82.422267
828177391,ktran9,27.968113,-82.422307
828177664,ktran9,27.968447,-82.422426
828179216,ktran9,27.970466,-82.42408
828181919,ktran9,27.966641,-82.423189
828181925,ktran9,27.967103,-82.422298
828182448,ktran9,27.970346,-82.425943
828182458,ktran9,27.970345,-82.420454
828182472,ktran9,27.968269,-82.421893
828185464,ktran9,27.970606,-82.428108
828185683,ktran9,27.967542,-82.429506
828189125,ktran9,27.970345,-82.42255
828190005,ktran9,27.96958,-82.422425
828190009,ktran9,27.967544,-82.428349
828191217,ktran9,27.970337,-82.42412
828191222,ktran9,27.970346,-82.428231
828191870,ktran9,27.968273,-82.425936
828191874,ktran9,27.96829,-82.424151
828192676,ktran9,27.970481,-82.42798
828192692,ktran9,27.970472,-82.425721
828192746,ktran9,27.970485,-82.420439
828192754,ktran9,27.970499,-82.422134
828194781,ktran9,27.966632,-82.421731
828194804,ktran9,27.966678,-82.429791
828194811,ktran9,27.966687,-82.428374
828194823,ktran9,27.96666,-82.425862
828181931,ktran9,27.964197,-82.434652
828184468,ktran9,27.960302,-82.435675
828184485,ktran9,27.960296,-82.440216
828184494,ktran9,27.960321,-82.437811
828190016,ktran9,27.96344,-82.435558
828191429,ktran9,27.960282,-82.430847
828191521,ktran9,27.963001,-82.434652
828191534,ktran9,27.960293,-82.433346
828191552,ktran9,27.960293,-82.43209
828193865,ktran9,27.962295,-82.438135
828193873,ktran9,27.96225,-82.440636
828194027,ktran9,27.962277,-82.436404
828194722,ktran9,27.962525,-82.436498
828194732,ktran9,27.962527,-82.437781
828194759,ktran9,27.962463,-82.440297
828179545,ktran9,27.960274,-82.422259
828187096,ktran9,27.960277,-82.427073
828187218,ktran9,27.960256,-82.419817
828191481,ktran9,27.960282,-82.425179
828191500,ktran9,27.960275,-82.429212
828179213,ktran9,27.97045,-82.415245
828182440,ktran9,27.970308,-82.417345
828182442,ktran9,27.970338,-82.412409
828183847,ktran9,27.96664,-82.416202
828185816,ktran9,27.968551,-82.414682
828186050,ktran9,27.968502,-82.419164
828189140,ktran9,27.970317,-82.414793
828189588,ktran9,27.970334,-82.410246
828191846,ktran9,27.970455,-82.410341
828191847,ktran9,27.970452,-82.417206
828191856,ktran9,27.970497,-82.412322
828191862,ktran9,27.970489,-82.41375
828194788,ktran9,27.96664,-82.41847
828194790,ktran9,27.966631,-82.414349
828197477,ktran9,27.969039,-82.410945
828197505,ktran9,27.966638,-82.409336
828196867,ktran9,27.970341,-82.402884
828196943,ktran9,27.970494,-82.402509
828197481,ktran9,27.96681,-82.408435
828187220,ktran9,27.960255,-82.412427
828191439,ktran9,27.960251,-82.415403
828191446,ktran9,27.960245,-82.417275
828191603,ktran9,27.960264,-82.409884
828191620,ktran9,27.960242,-82.413996
828182470,ktran9,27.962008,-82.401521
828182881,ktran9,27.961674,-82.402859
828187211,ktran9,27.961242,-82.404542
828187685,ktran9,27.961148,-82.404316
828187688,ktran9,27.960705,-82.406088
828189448,ktran9,27.962668,-82.398108
828189456,ktran9,27.962414,-82.399161
828189950,ktran9,27.962754,-82.398297
828191609,ktran9,27.960947,-82.405752
828192181,ktran9,27.961519,-82.402766
828197741,ktran9,27.962035,-82.400721
828178382,ktran9,27.95816,-82.43914
828178391,ktran9,27.958157,-82.437837
828178409,ktran9,27.955846,-82.433701
828184188,ktran9,27.955683,-82.43363
828184198,ktran9,27.95572,-82.430864
828184212,ktran9,27.958029,-82.43928
828184467,ktran9,27.960158,-82.440717
828184479,ktran9,27.960149,-82.438166
828188447,ktran9,27.958002,-82.435604
828188457,ktran9,27.958156,-82.435391
828191295,ktran9,27.960139,-82.433609
828191351,ktran9,27.96013,-82.432101
828191364,ktran9,27.96013,-82.431118
828191517,ktran9,27.958002,-82.437568
828195929,ktran9,27.960139,-82.435614
828196418,ktran9,27.960139,-82.434581
828178632,ktran9,27.955845,-82.430415
828187707,ktran9,27.96013,-82.427058
828187719,ktran9,27.96013,-82.428941
828191333,ktran9,27.96013,-82.425408
828191386,ktran9,27.960111,-82.421094
828191396,ktran9,27.96012,-82.422623
828192214,ktran9,27.960111,-82.419646
828179437,ktran9,27.950874,-82.434713
828179439,ktran9,27.950095,-82.430583
828179542,ktran9,27.950693,-82.432597
828179555,ktran9,27.950221,-82.430795
828178624,ktran9,27.954582,-82.42381
828184386,ktran9,27.954305,-82.421673
828178621,ktran9,27.955618,-82.416691
828184401,ktran9,27.954947,-82.414858
828187697,ktran9,27.9601,-82.412386
828192169,ktran9,27.960108,-82.41025
828192190,ktran9,27.960092,-82.416831
828192228,ktran9,27.960091,-82.414189
828192264,ktran9,27.960101,-82.415849
828187216,ktran9,27.95692,-82.401653
828187616,ktran9,27.956907,-82.401893
828187682,ktran9,27.96007,-82.401998
828187762,ktran9,27.958693,-82.401929
828196946,ktran9,27.958217,-82.401665
828178611,ktran9,27.95404,-82.41226
828184402,ktran9,27.953742,-82.412439
828178147,ktran9,27.952208,-82.402689
828178605,ktran9,27.952237,-82.407458
828184407,ktran9,27.951956,-82.408207
828192292,ktran9,27.949825,-82.401837
828192334,ktran9,27.952785,-82.401587
828196648,ktran9,27.952511,-82.401861
828196665,ktran9,27.954626,-82.401959
828197137,ktran9,27.954328,-82.401663
828182481,ktran9,27.966815,-82.376503
828182497,ktran9,27.966698,-82.379504
828182499,ktran9,27.966697,-82.377975
828182875,ktran9,27.966697,-82.376608
828189546,ktran9,27.966254,-82.384122
828189566,ktran9,27.966824,-82.378119
828189576,ktran9,27.966839,-82.379589
828189705,ktran9,27.965766,-82.386095
828189723,ktran9,27.96642,-82.383606
828189787,ktran9,27.966392,-82.382998
828182495,ktran9,27.96472,-82.389784
828189476,ktran9,27.965073,-82.388396
828189517,ktran9,27.963228,-82.39586
828189578,ktran9,27.965256,-82.388161
828189591,ktran9,27.964858,-82.389772
828189794,ktran9,27.965516,-82.386583
828189935,ktran9,27.963281,-82.39616
828182476,ktran9,27.966868,-82.375059
828189857,ktran9,27.966704,-82.374056
828195211,ktran9,27.970362,-82.372929
828195469,ktran9,27.966405,-82.373105
828195516,ktran9,27.970535,-82.373122
828182468,ktran9,27.964818,-82.37297
828183741,ktran9,27.965617,-82.372913
828195538,ktran9,27.965463,-82.373095
828178596,ktran9,27.952245,-82.389798
828184358,ktran9,27.951898,-82.396372
828184371,ktran9,27.951945,-82.390185
828184583,ktran9,27.952223,-82.396862
828184349,ktran9,27.95198,-82.379808
828184382,ktran9,27.951929,-82.385599
828184513,ktran9,27.95233,-82.37597
828184525,ktran9,27.9523,-82.38075
828184529,ktran9,27.952288,-82.385952
828197732,ktran9,27.959412,-82.372276
828184345,ktran9,27.952023,-82.375161
828184356,ktran9,27.95126,-82.369113
828197387,ktran9,27.990073,-82.332459
828191710,ktran9,27.981496,-82.350328
828191722,ktran9,27.981411,-82.346721
828196181,ktran9,27.981137,-82.345872
828196184,ktran9,27.981208,-82.349305
828182028,ktran9,27.978766,-82.33517
828182034,ktran9,27.978882,-82.334924
828189167,ktran9,27.981438,-82.332329
828191728,ktran9,27.98146,-82.341716
828191747,ktran9,27.981454,-82.339661
828191755,ktran9,27.981455,-82.336211
828196195,ktran9,27.98112,-82.336541
828196200,ktran9,27.981187,-82.341172
828196246,ktran9,27.98111,-82.335407
828182019,ktran9,27.975431,-82.334887
828182137,ktran9,27.974526,-82.335223
828184170,ktran9,27.973158,-82.335204
828184284,ktran9,27.973457,-82.33489
828179452,ktran9,27.977171,-82.318641
828179462,ktran9,27.977397,-82.318833
828179478,ktran9,27.980802,-82.310614
828191599,ktran9,27.981438,-82.319171
828196237,ktran9,27.981381,-82.310208
828196244,ktran9,27.981103,-82.319638
828177912,ktran9,27.988445,-82.302449
828184208,ktran9,27.98849,-82.302267
828184184,ktran9,27.9839,-82.30229
828184200,ktran9,27.98386,-82.30247
828197613,ktran9,27.982675,-82.301729
828191613,ktran9,27.981702,-82.307629
828191619,ktran9,27.981734,-82.304684
828196296,ktran9,27.981386,-82.306856
828196309,ktran9,27.981725,-82.302662
828184174,ktran9,27.970432,-82.335258
828184271,ktran9,27.966588,-82.335072
828184290,ktran9,27.969653,-82.334996
828190262,ktran9,27.965922,-82.335375
828184173,ktran9,27.962978,-82.335348
828184272,ktran9,27.963249,-82.335081
828184850,ktran9,27.966828,-82.329496
828184872,ktran9,27.966641,-82.329693
828188479,ktran9,27.968072,-82.328714
828184144,ktran9,27.955981,-82.335216
828184146,ktran9,27.959247,-82.335281
828184256,ktran9,27.95827,-82.335043
828184262,ktran9,27.955772,-82.335027
828179929,ktran9,27.949385,-82.346734
828179930,ktran9,27.94953,-82.347503
828179937,ktran9,27.94956,-82.350389
828179940,ktran9,27.94939,-82.35289
828179969,ktran9,27.949886,-82.350358
828179974,ktran9,27.949892,-82.347483
828179981,ktran9,27.949825,-82.346995
828181250,ktran9,27.949262,-82.34521
828184156,ktran9,27.952072,-82.334207
828184244,ktran9,27.952235,-82.334693
828183988,ktran9,27.951148,-82.325309
828184127,ktran9,27.951483,-82.325511
828184155,ktran9,27.952104,-82.329813
828184245,ktran9,27.952268,-82.330441
828178720,ktran9,27.945,-82.521818
828178728,ktran9,27.944992,-82.519965
828178730,ktran9,27.944987,-82.523947
828179076,ktran9,27.944675,-82.520299
828179082,ktran9,27.944673,-82.522
828179085,ktran9,27.944681,-82.523508
828182627,ktran9,27.948825,-82.525819
828182657,ktran9,27.94881,-82.525601
828183872,ktran9,27.946329,-82.524056
828185723,ktran9,27.948457,-82.524362
828186487,ktran9,27.947606,-82.524361
828197696,ktran9,27.948737,-82.525436
828178776,ktran9,27.944964,-82.507614
828178792,ktran9,27.944978,-82.513749
828178813,ktran9,27.944971,-82.511785
828178814,ktran9,27.944993,-82.51791
828178820,ktran9,27.944986,-82.515885
828179014,ktran9,27.944675,-82.507543
828179032,ktran9,27.944681,-82.512068
828179037,ktran9,27.94467,-82.514306
828179060,ktran9,27.944669,-82.516199
828179074,ktran9,27.944676,-82.518264
828193699,ktran9,27.944972,-82.510287
828188840,ktran9,27.94099,-82.51402
828188894,ktran9,27.942877,-82.51393
828188941,ktran9,27.939462,-82.514159
828188942,ktran9,27.941373,-82.514121
828188949,ktran9,27.943176,-82.514112
828189624,ktran9,27.939344,-82.513987
828178170,ktran9,27.944025,-82.505782
828178173,ktran9,27.946791,-82.505793
828178184,ktran9,27.948947,-82.505781
828178772,ktran9,27.944898,-82.503265
828178826,ktran9,27.944896,-82.501384
828178833,ktran9,27.944893,-82.499556
828178837,ktran9,27.944883,-82.497304
828179006,ktran9,27.944659,-82.503797
828179092,ktran9,27.944651,-82.501763
828181491,ktran9,27.947172,-82.505545
828181492,ktran9,27.944521,-82.505604
828181510,ktran9,27.948867,-82.505536
828185708,ktran9,27.944644,-82.498594
828191822,ktran9,27.944654,-82.496903
828178844,ktran9,27.944917,-82.495243
828178869,ktran9,27.944854,-82.487634
828178877,ktran9,27.944872,-82.493906
828178884,ktran9,27.944859,-82.491029
828178887,ktran9,27.944854,-82.489015
828178941,ktran9,27.944675,-82.491396
828178944,ktran9,27.944668,-82.487387
828178954,ktran9,27.944676,-82.489321
828178968,ktran9,27.944674,-82.493441
828178971,ktran9,27.944645,-82.495678
828178162,ktran9,27.939531,-82.505808
828178163,ktran9,27.94127,-82.505799
828178165,ktran9,27.943063,-82.50578
828181455,ktran9,27.939277,-82.505626
828181472,ktran9,27.942837,-82.505598
828181476,ktran9,27.941026,-82.505627
828179696,ktran9,27.940036,-82.493428
828179757,ktran9,27.94336,-82.493197
828179758,ktran9,27.94064,-82.493285
828179759,ktran9,27.943089,-82.493379
828179772,ktran9,27.939812,-82.493293
828188988,ktran9,27.935975,-82.514146
828188995,ktran9,27.937786,-82.514188
828189635,ktran9,27.93803,-82.51404
828189644,ktran9,27.93573,-82.513954
828189912,ktran9,27.933883,-82.513942
828198007,ktran9,27.934181,-82.514124
828188982,ktran9,27.928602,-82.51418
828189003,ktran9,27.93131,-82.514142
828189894,ktran9,27.928339,-82.513998
828189900,ktran9,27.931111,-82.51397
828177302,ktran9,27.935853,-82.505835
828178155,ktran9,27.93775,-82.505824
828181195,ktran9,27.935719,-82.503801
828181458,ktran9,27.937421,-82.505654
828181608,ktran9,27.935283,-82.505663
828192796,ktran9,27.937097,-82.50197
828197847,ktran9,27.937407,-82.497627
828197856,ktran9,27.937178,-82.502142
828197860,ktran9,27.937433,-82.499692
828197861,ktran9,27.937509,-82.497385
828197863,ktran9,27.93756,-82.500435
828179703,ktran9,27.937835,-82.493416
828179778,ktran9,27.93725,-82.49325
828180437,ktran9,27.934556,-82.493414
828183132,ktran9,27.93462,-82.493232
828192775,ktran9,27.937357,-82.489256
828192784,ktran9,27.937374,-82.49124
828197809,ktran9,27.937453,-82.489067
828197810,ktran9,27.937446,-82.486989
828197835,ktran9,27.93747,-82.491065
828197853,ktran9,27.93739,-82.49541
828197872,ktran9,27.937516,-82.493089
828197873,ktran9,27.937502,-82.495237
828197878,ktran9,27.937382,-82.493629
828197916,ktran9,27.937322,-82.48715
828197919,ktran9,27.937323,-82.485561
828177312,ktran9,27.927606,-82.505919
828177832,ktran9,27.931832,-82.505883
828181587,ktran9,27.932665,-82.505681
828181605,ktran9,27.930718,-82.50572
828187926,ktran9,27.932674,-82.505863
828188094,ktran9,27.927701,-82.505758
828179597,ktran9,27.930698,-82.4933
828179638,ktran9,27.928478,-82.49336
828179770,ktran9,27.932278,-82.493251
828180421,ktran9,27.930888,-82.493473
828180468,ktran9,27.932573,-82.493403
828183780,ktran9,27.927726,-82.493562
828189429,ktran9,27.92846,-82.493542
828177395,ktran9,27.944812,-82.482788
828177401,ktran9,27.944775,-82.478777
828177410,ktran9,27.944796,-82.480859
828177415,ktran9,27.94474,-82.474568
828177417,ktran9,27.94476,-82.476655
828178329,ktran9,27.944582,-82.474884
828178347,ktran9,27.944608,-82.478934
828178356,ktran9,27.944581,-82.476919
828178872,ktran9,27.944838,-82.484879
828178976,ktran9,27.944651,-82.483267
828178981,ktran9,27.944625,-82.481029
828179547,ktran9,27.94466,-82.484259
828177351,ktran9,27.944704,-82.470041
828177359,ktran9,27.944727,-82.472379
828177367,ktran9,27.94473,-82.466349
828177373,ktran9,27.944707,-82.468349
828177484,ktran9,27.945778,-82.46349
828178336,ktran9,27.944555,-82.4729
828178378,ktran9,27.944494,-82.466785
828178386,ktran9,27.94531,-82.464164
828178396,ktran9,27.944529,-82.47043
828178412,ktran9,27.944512,-82.468031
828180448,ktran9,27.943788,-82.463991
828181146,ktran9,27.945282,-82.463951
828182723,ktran9,27.946622,-82.468546
828182805,ktran9,27.946051,-82.468466
828177190,ktran9,27.943396,-82.483877
828177197,ktran9,27.943369,-82.481818
828177210,ktran9,27.943324,-82.477704
828178232,ktran9,27.943286,-82.475554
828180814,ktran9,27.941808,-82.48205
828181286,ktran9,27.94168,-82.482891
828181298,ktran9,27.94082,-82.48292
828181388,ktran9,27.939633,-82.48291
828181393,ktran9,27.938465,-82.482899
828191359,ktran9,27.943353,-82.479754
828191724,ktran9,27.941755,-82.477697
828191737,ktran9,27.941719,-82.475905
828191889,ktran9,27.938802,-82.485106
828192017,ktran9,27.939999,-82.485112
828192034,ktran9,27.941244,-82.48511
828192946,ktran9,27.94179,-82.479935
828178241,ktran9,27.94322,-82.470489
828178249,ktran9,27.943245,-82.472519
828178250,ktran9,27.943204,-82.467561
828178256,ktran9,27.943213,-82.469463
828178260,ktran9,27.943181,-82.465631
828181170,ktran9,27.941886,-82.464001
828181178,ktran9,27.940618,-82.464031
828183343,ktran9,27.941613,-82.468485
828183363,ktran9,27.940389,-82.468554
828183367,ktran9,27.939933,-82.468643
828183382,ktran9,27.941974,-82.468599
828183429,ktran9,27.9396,-82.468563
828186199,ktran9,27.943178,-82.46364
828189498,ktran9,27.938973,-82.46865
828189499,ktran9,27.93864,-82.46859
828191678,ktran9,27.94173,-82.470785
828191686,ktran9,27.941631,-82.468718
828191697,ktran9,27.941596,-82.465995
828191708,ktran9,27.941596,-82.464162
828191750,ktran9,27.941748,-82.472233
828179561,ktran9,27.945698,-82.456691
828179562,ktran9,27.943849,-82.457245
828180036,ktran9,27.945742,-82.462657
828180496,ktran9,27.947639,-82.45813
828180655,ktran9,27.948735,-82.454941
828182797,ktran9,27.946153,-82.459102
828182884,ktran9,27.94637,-82.461754
828183142,ktran9,27.946823,-82.459973
828183809,ktran9,27.945112,-82.45402
828184440,ktran9,27.947947,-82.454354
828184448,ktran9,27.94676,-82.457756
828184452,ktran9,27.94433,-82.46271
828185412,ktran9,27.944939,-82.456586
828188262,ktran9,27.949142,-82.457513
828188324,ktran9,27.944786,-82.456763
828188338,ktran9,27.94647,-82.458454
828189006,ktran9,27.94402,-82.453364
828189067,ktran9,27.94532,-82.457036
828189314,ktran9,27.948681,-82.456328
828189426,ktran9,27.947177,-82.45566
828190279,ktran9,27.947363,-82.456754
828190282,ktran9,27.947149,-82.458768
828190316,ktran9,27.945257,-82.453868
828190931,ktran9,27.946798,-82.453758
828195037,ktran9,27.947748,-82.456116
828195053,ktran9,27.94561,-82.458515
828195936,ktran9,27.947576,-82.455417
828195942,ktran9,27.948182,-82.456561
828196416,ktran9,27.946308,-82.455488
828196697,ktran9,27.946895,-82.460287
828197342,ktran9,27.948526,-82.460014
828197364,ktran9,27.947983,-82.459123
828197795,ktran9,27.945989,-82.462281
828185740,ktran9,27.94496,-82.4516
828190259,ktran9,27.948668,-82.446623
828190905,ktran9,27.945502,-82.448249
828190909,ktran9,27.9459,-82.452177
828192913,ktran9,27.943881,-82.447075
828197345,ktran9,27.944923,-82.447571
828197437,ktran9,27.945167,-82.448482
828197642,ktran9,27.943827,-82.448694
828180068,ktran9,27.943118,-82.462665
828180073,ktran9,27.941895,-82.462685
828180614,ktran9,27.940304,-82.462761
828185416,ktran9,27.941118,-82.45496
828186326,ktran9,27.94347,-82.460659
828188259,ktran9,27.938989,-82.454029
828188307,ktran9,27.941109,-82.455153
828188311,ktran9,27.938401,-82.453998
828191659,ktran9,27.941551,-82.462695
828191663,ktran9,27.94156,-82.461308
828179721,ktran9,27.943482,-82.452116
828188320,ktran9,27.938356,-82.449878
828192996,ktran9,27.943629,-82.449774
828196109,ktran9,27.939433,-82.451063
828197356,ktran9,27.943564,-82.450274
828197376,ktran9,27.943374,-82.450284
828177275,ktran9,27.933592,-82.482947
828180931,ktran9,27.932985,-82.483129
828181001,ktran9,27.93523,-82.48306
828181018,ktran9,27.933864,-82.483119
828181026,ktran9,27.936727,-82.483071
828181355,ktran9,27.937179,-82.482898
828181369,ktran9,27.935023,-82.482938
828181702,ktran9,27.937426,-82.477017
828181955,ktran9,27.932913,-82.482947
828181959,ktran9,27.937243,-82.479619
828183736,ktran9,27.9374,-82.475642
828191912,ktran9,27.937679,-82.485129
828197799,ktran9,27.93739,-82.474628
828197800,ktran9,27.937383,-82.479807
828197807,ktran9,27.937407,-82.480786
828197907,ktran9,27.937263,-82.477037
828197908,ktran9,27.937263,-82.475509
828197920,ktran9,27.937287,-82.484174
828197921,ktran9,27.937252,-82.481076
828183412,ktran9,27.93798,-82.4686
828183524,ktran9,27.93757,-82.46868
828190338,ktran9,27.937337,-82.469627
828197796,ktran9,27.937346,-82.470589
828197797,ktran9,27.937355,-82.471581
828197798,ktran9,27.937363,-82.473626
828197913,ktran9,27.937209,-82.473899
828197967,ktran9,27.937183,-82.469901
828197973,ktran9,27.937192,-82.470802
828197978,ktran9,27.937192,-82.471804
828177258,ktran9,27.930213,-82.483097
828177266,ktran9,27.928855,-82.483127
828177278,ktran9,27.93188,-82.482977
828177280,ktran9,27.93092,-82.483057
828181053,ktran9,27.929756,-82.483242
828181074,ktran9,27.932097,-82.483169
828181100,ktran9,27.928565,-82.483309
828181687,ktran9,27.93096,-82.48319
828181704,ktran9,27.928142,-82.483313
828180434,ktran9,27.933114,-82.457064
828184422,ktran9,27.934849,-82.457702
828184462,ktran9,27.936527,-82.459805
828188233,ktran9,27.938047,-82.45253
828192673,ktran9,27.936507,-82.458826
828192686,ktran9,27.934686,-82.457621
828195939,ktran9,27.93696,-82.457622
828188317,ktran9,27.937658,-82.451346
828178157,ktran9,27.929053,-82.455525
828193926,ktran9,27.931626,-82.45661
828193950,ktran9,27.927878,-82.454032
828193966,ktran9,27.92896,-82.45518
828193980,ktran9,27.932603,-82.457003
828178210,ktran9,27.922775,-82.517725
828181114,ktran9,27.924542,-82.516353
828181180,ktran9,27.924986,-82.51612
828188978,ktran9,27.926672,-82.514178
828189878,ktran9,27.927071,-82.513997
828198024,ktran9,27.92248,-82.517895
828178214,ktran9,27.9197,-82.517747
828178215,ktran9,27.92121,-82.51771
828178221,ktran9,27.91698,-82.51775
828178224,ktran9,27.91838,-82.51778
828178237,ktran9,27.91702,-82.51796
828178269,ktran9,27.919414,-82.517907
828198112,ktran9,27.920872,-82.517888
828198163,ktran9,27.918544,-82.517916
828177317,ktran9,27.925758,-82.505943
828177323,ktran9,27.924018,-82.505965
828177324,ktran9,27.921928,-82.506002
828181555,ktran9,27.923625,-82.505795
828187927,ktran9,27.925546,-82.505787
828179641,ktran9,27.927113,-82.493444
828179649,ktran9,27.925805,-82.493465
828179655,ktran9,27.924417,-82.493497
828179660,ktran9,27.92308,-82.493478
828180508,ktran9,27.922663,-82.49367
828180542,ktran9,27.925978,-82.493601
828180548,ktran9,27.924674,-82.493631
828181628,ktran9,27.923245,-82.489233
828181643,ktran9,27.92411,-82.48688
828181685,ktran9,27.921877,-82.490007
828181973,ktran9,27.923943,-82.48694
828183460,ktran9,27.923109,-82.489257
828177327,ktran9,27.920009,-82.506022
828177330,ktran9,27.918512,-82.506036
828177334,ktran9,27.917004,-82.50607
828177561,ktran9,27.919782,-82.496979
828177768,ktran9,27.919668,-82.503627
828177784,ktran9,27.91966,-82.501947
828177819,ktran9,27.919645,-82.49717
828177871,ktran9,27.919652,-82.50058
828177905,ktran9,27.919662,-82.49889
828177958,ktran9,27.91982,-82.505035
828177979,ktran9,27.919824,-82.501798
828178003,ktran9,27.91979,-82.500055
828178027,ktran9,27.919792,-82.4986
828181530,ktran9,27.916895,-82.505902
828181557,ktran9,27.921741,-82.505845
828181580,ktran9,27.91944,-82.505863
828181582,ktran9,27.91829,-82.505882
828177527,ktran9,27.919771,-82.49341
828177547,ktran9,27.919774,-82.495264
828177845,ktran9,27.91965,-82.4955
828178220,ktran9,27.919628,-82.49386
828179664,ktran9,27.921649,-82.493507
828179672,ktran9,27.920038,-82.49358
828179673,ktran9,27.917478,-82.493592
828180378,ktran9,27.918487,-82.493738
828180392,ktran9,27.919891,-82.493698
828180528,ktran9,27.921196,-82.493689
828182899,ktran9,27.916349,-82.493737
828183163,ktran9,27.916431,-82.493554
828183190,ktran9,27.91836,-82.493556
828183214,ktran9,27.920526,-82.493584
828183466,ktran9,27.921741,-82.489914
828183471,ktran9,27.92078,-82.490521
828183483,ktran9,27.919594,-82.491188
828183597,ktran9,27.919589,-82.491423
828183605,ktran9,27.920155,-82.491077
828177803,ktran9,27.912367,-82.517829
828177857,ktran9,27.915582,-82.517771
828177894,ktran9,27.91408,-82.5178
828178229,ktran9,27.915394,-82.517977
828178239,ktran9,27.912572,-82.518018
828197936,ktran9,27.91166,-82.51418
828197942,ktran9,27.91165,-82.51216
828197943,ktran9,27.911666,-82.510036
828197946,ktran9,27.911649,-82.508559
828197949,ktran9,27.911733,-82.517434
828198059,ktran9,27.911445,-82.514398
828198067,ktran9,27.911443,-82.51711
828198069,ktran9,27.911412,-82.510289
828198074,ktran9,27.911438,-82.512394
828198089,ktran9,27.911386,-82.508235
828198170,ktran9,27.914327,-82.517989
828189989,ktran9,27.907502,-82.526762
828190107,ktran9,27.908628,-82.526599
828190141,ktran9,27.906399,-82.526627
828191441,ktran9,27.905979,-82.526778
828193131,ktran9,27.908678,-82.521034
828193144,ktran9,27.908749,-82.523141
828193168,ktran9,27.908684,-82.519354
828193176,ktran9,27.90872,-82.524909
828198406,ktran9,27.90867,-82.518342
828198418,ktran9,27.908865,-82.52563
828198438,ktran9,27.908871,-82.523203
828198443,ktran9,27.908909,-82.526549
828198478,ktran9,27.908838,-82.520982
828198491,ktran9,27.908874,-82.51938
828178095,ktran9,27.907022,-82.517986
828178150,ktran9,27.90675,-82.518259
828189920,ktran9,27.907946,-82.518048
828192763,ktran9,27.908655,-82.515448
828192764,ktran9,27.908671,-82.517259
828197349,ktran9,27.908646,-82.514466
828197359,ktran9,27.90862,-82.512412
828197365,ktran9,27.908613,-82.510317
828197373,ktran9,27.908614,-82.508233
828198173,ktran9,27.908834,-82.517472
828198175,ktran9,27.908794,-82.515251
828198181,ktran9,27.908784,-82.514264
828198184,ktran9,27.908768,-82.511587
828198197,ktran9,27.90875,-82.510125
828198201,ktran9,27.908739,-82.507898
828177218,ktran9,27.914038,-82.506107
828177222,ktran9,27.911767,-82.506163
828177226,ktran9,27.915722,-82.50608
828179626,ktran9,27.913978,-82.50595
828179627,ktran9,27.9155,-82.505931
828179631,ktran9,27.911114,-82.506015
828179632,ktran9,27.912764,-82.505969
828198079,ktran9,27.911403,-82.506254
828178824,ktran9,27.911177,-82.493592
828180713,ktran9,27.911684,-82.493764
828182951,ktran9,27.915136,-82.493746
828182955,ktran9,27.914094,-82.493765
828183149,ktran9,27.915036,-82.493564
828183260,ktran9,27.91404,-82.493583
828182971,ktran9,27.908567,-82.49696
828186085,ktran9,27.907937,-82.504144
828189514,ktran9,27.906778,-82.504183
828197378,ktran9,27.908588,-82.506785
828197381,ktran9,27.908581,-82.502748
828197386,ktran9,27.908565,-82.49957
828198212,ktran9,27.908745,-82.501797
828198229,ktran9,27.908738,-82.498852
828198236,ktran9,27.908729,-82.497992
828178823,ktran9,27.907028,-82.493619
828180739,ktran9,27.908822,-82.493803
828182965,ktran9,27.90874,-82.49463
828182978,ktran9,27.907173,-82.493801
828183237,ktran9,27.908577,-82.493985
828181134,ktran9,27.926333,-82.483625
828181646,ktran9,27.925303,-82.48525
828181660,ktran9,27.926144,-82.483913
828181945,ktran9,27.9264,-82.483257
828181978,ktran9,27.925076,-82.485281
828178116,ktran9,27.927015,-82.453713
828178201,ktran9,27.924415,-82.453297
828193898,ktran9,27.925982,-82.452943
828186536,ktran9,27.862104,-82.533287
828193012,ktran9,27.862088,-82.531092
828177583,ktran9,27.903217,-82.518347
828178083,ktran9,27.904929,-82.518348
828178318,ktran9,27.903394,-82.51847
828178320,ktran9,27.900554,-82.518468
828189980,ktran9,27.900684,-82.526787
828189987,ktran9,27.904717,-82.52676
828190202,ktran9,27.902903,-82.526624
828190243,ktran9,27.900221,-82.526651
828191407,ktran9,27.905131,-82.518479
828191415,ktran9,27.901694,-82.518467
828191509,ktran9,27.902865,-82.526758
828193202,ktran9,27.904832,-82.526626
828177503,ktran9,27.900871,-82.518223
828177937,ktran9,27.89451,-82.518384
828177967,ktran9,27.89694,-82.518311
828178014,ktran9,27.898443,-82.518332
828178152,ktran9,27.896604,-82.518492
828189970,ktran9,27.894732,-82.526878
828190214,ktran9,27.895774,-82.526677
828190217,ktran9,27.897377,-82.526669
828190227,ktran9,27.898854,-82.52666
828191478,ktran9,27.898231,-82.518458
828191496,ktran9,27.897685,-82.526851
828191504,ktran9,27.898943,-82.526797
828177245,ktran9,27.903996,-82.506337
828177249,ktran9,27.901873,-82.50632
828189266,ktran9,27.901903,-82.506021
828190337,ktran9,27.903806,-82.506003
828178692,ktran9,27.901258,-82.493717
828178768,ktran9,27.903106,-82.493718
828180628,ktran9,27.901593,-82.493899
828180636,ktran9,27.90336,-82.49389
828183228,ktran9,27.904809,-82.493668
828177233,ktran9,27.895119,-82.506401
828179650,ktran9,27.894448,-82.506127
828178703,ktran9,27.897958,-82.493789
828178719,ktran9,27.895488,-82.493743
828180061,ktran9,27.89644,-82.493875
828180076,ktran9,27.898286,-82.493849
828182923,ktran9,27.899727,-82.493908
828183000,ktran9,27.899591,-82.493716
828178346,ktran9,27.889726,-82.518437
828178352,ktran9,27.891507,-82.518423
828183774,ktran9,27.8933,-82.51845
828189189,ktran9,27.889613,-82.526731
828189968,ktran9,27.894187,-82.526876
828190246,ktran9,27.894205,-82.526793
828191525,ktran9,27.88981,-82.52687
828191543,ktran9,27.892793,-82.526907
828191565,ktran9,27.891002,-82.526852
828192818,ktran9,27.889575,-82.518336
828193273,ktran9,27.89061,-82.526722
828192772,ktran9,27.891423,-82.518306
828177661,ktran9,27.88746,-82.51839
828177708,ktran9,27.883735,-82.51843
828177739,ktran9,27.885136,-82.51832
828178326,ktran9,27.885335,-82.518502
828178333,ktran9,27.887763,-82.518515
828178434,ktran9,27.883985,-82.518531
828190447,ktran9,27.887602,-82.526739
828190456,ktran9,27.885216,-82.526847
828191532,ktran9,27.887564,-82.526882
828193095,ktran9,27.885384,-82.526896
828193104,ktran9,27.883408,-82.52691
828179662,ktran9,27.889882,-82.506174
828179666,ktran9,27.891187,-82.506165
828181668,ktran9,27.889639,-82.506489
828178675,ktran9,27.889581,-82.49379
828178718,ktran9,27.893458,-82.493732
828180019,ktran9,27.889771,-82.493918
828180052,ktran9,27.893863,-82.493887
828180060,ktran9,27.891692,-82.493761
828177237,ktran9,27.888117,-82.506511
828177255,ktran9,27.885502,-82.506551
828177256,ktran9,27.886963,-82.50653
828177444,ktran9,27.884108,-82.506566
828179734,ktran9,27.88518,-82.506251
828179739,ktran9,27.886675,-82.506232
828179741,ktran9,27.888279,-82.506193
828179754,ktran9,27.883767,-82.50627
828178609,ktran9,27.884059,-82.493881
828178663,ktran9,27.887576,-82.493849
828178664,ktran9,27.885894,-82.493818
828179992,ktran9,27.886249,-82.49394
828179996,ktran9,27.887223,-82.493939
828180004,ktran9,27.88827,-82.49395
828182931,ktran9,27.88486,-82.49396
828189051,ktran9,27.888086,-82.493809
828177585,ktran9,27.880783,-82.518454
828177607,ktran9,27.88272,-82.518432
828177640,ktran9,27.87913,-82.518527
828178416,ktran9,27.882563,-82.51853
828178424,ktran9,27.881123,-82.518569
828190457,ktran9,27.878469,-82.52688
828190466,ktran9,27.883218,-82.526765
828190469,ktran9,27.881665,-82.526852
828191467,ktran9,27.87932,-82.518699
828193067,ktran9,27.878733,-82.526943
828193084,ktran9,27.881783,-82.526921
828193094,ktran9,27.880202,-82.526923
828193258,ktran9,27.880023,-82.526866
761948890,ktran9,27.8766211,-82.5268411
828177432,ktran9,27.872598,-82.518561
828177617,ktran9,27.875669,-82.518554
828178439,ktran9,27.872557,-82.518707
828190488,ktran9,27.87337,-82.526816
828191455,ktran9,27.875524,-82.518687
828193046,ktran9,27.877274,-82.526959
828193083,ktran9,27.873547,-82.526971
828193250,ktran9,27.877028,-82.526884
828177450,ktran9,27.881738,-82.506663
828177456,ktran9,27.881122,-82.506662
828177463,ktran9,27.879188,-82.506608
828179744,ktran9,27.878975,-82.506327
828179749,ktran9,27.880895,-82.506308
828179750,ktran9,27.881865,-82.506309
828178577,ktran9,27.878565,-82.493915
828178583,ktran9,27.879997,-82.493895
828178599,ktran9,27.882506,-82.493846
828180268,ktran9,27.882705,-82.49395
828180276,ktran9,27.880315,-82.494011
828182933,ktran9,27.878571,-82.494038
828177489,ktran9,27.875198,-82.50653
828177493,ktran9,27.872833,-82.506514
828179849,ktran9,27.872389,-82.50618
828181964,ktran9,27.875288,-82.506243
828190330,ktran9,27.877381,-82.506295
828190353,ktran9,27.877728,-82.506577
828178631,ktran9,27.874842,-82.493953
828178639,ktran9,27.876744,-82.493934
828182937,ktran9,27.876608,-82.49406
828183106,ktran9,27.874987,-82.494125
828178453,ktran9,27.869828,-82.518635
828178539,ktran9,27.868572,-82.518643
828188483,ktran9,27.868613,-82.52698
828188718,ktran9,27.87193,-82.52697
828190471,ktran9,27.871767,-82.526804
828190483,ktran9,27.869635,-82.526904
828192819,ktran9,27.868358,-82.518496
828192827,ktran9,27.869654,-82.518477
828193031,ktran9,27.869864,-82.526982
828193239,ktran9,27.868377,-82.526908
828178516,ktran9,27.866125,-82.518669
828180097,ktran9,27.865974,-82.522439
828180108,ktran9,27.86595,-82.52012
828180942,ktran9,27.86601,-82.526837
828180957,ktran9,27.865975,-82.524449
828180962,ktran9,27.865853,-82.524654
828180986,ktran9,27.865861,-82.526333
828181030,ktran9,27.865836,-82.522732
828181124,ktran9,27.865425,-82.527121
828185022,ktran9,27.86632,-82.518515
828188495,ktran9,27.862265,-82.526988
828188497,ktran9,27.863489,-82.52699
828188892,ktran9,27.863619,-82.528566
828189932,ktran9,27.862099,-82.529019
828190146,ktran9,27.86606,-82.52705
828192989,ktran9,27.866793,-82.52686
828193156,ktran9,27.86583,-82.519728
828177755,ktran9,27.868765,-82.506501
828177773,ktran9,27.868928,-82.506157
828181624,ktran9,27.869807,-82.506168
828181665,ktran9,27.870204,-82.506467
828178542,ktran9,27.868609,-82.493979
828178617,ktran9,27.870548,-82.49397
828180169,ktran9,27.870801,-82.494142
828180198,ktran9,27.872273,-82.494082
828183007,ktran9,27.867258,-82.491993
828183015,ktran9,27.872215,-82.493951
828183025,ktran9,27.867297,-82.48981
828183061,ktran9,27.867323,-82.49417
828183075,ktran9,27.867143,-82.491955
828186660,ktran9,27.867162,-82.489346
828186666,ktran9,27.867277,-82.494008
828189401,ktran9,27.869116,-82.494161
828189481,ktran9,27.863302,-82.499519
828179616,ktran9,27.863173,-82.494218
828179701,ktran9,27.863001,-82.494036
828183019,ktran9,27.865133,-82.488677
828183029,ktran9,27.864578,-82.488755
828179402,ktran9,27.94716,-82.43276
828179419,ktran9,27.948763,-82.430613
828179429,ktran9,27.947377,-82.432628
828179432,ktran9,27.946608,-82.434815
828179434,ktran9,27.944887,-82.434795
828179436,ktran9,27.944995,-82.434612
828179552,ktran9,27.948718,-82.430795
828191492,ktran9,27.947124,-82.434612
828179414,ktran9,27.948292,-82.430056
828179553,ktran9,27.94735,-82.4303
828180536,ktran9,27.939724,-82.434592
828180546,ktran9,27.938555,-82.43464
828185340,ktran9,27.938275,-82.434805
828191460,ktran9,27.941431,-82.434626
828191471,ktran9,27.942867,-82.434633
828194715,ktran9,27.941635,-82.434795
828194721,ktran9,27.939642,-82.434775
828194733,ktran9,27.943709,-82.434795
828187186,ktran9,27.948107,-82.401589
828187614,ktran9,27.948956,-82.401871
828189863,ktran9,27.942878,-82.401185
828194668,ktran9,27.943042,-82.40162
828184716,ktran9,27.943151,-82.3901
828187169,ktran9,27.943073,-82.395087
828194651,ktran9,27.942921,-82.395303
828194697,ktran9,27.943038,-82.39177
828194701,ktran9,27.94301,-82.389735
828184638,ktran9,27.94163,-82.384978
828184706,ktran9,27.941852,-82.385007
828187133,ktran9,27.941151,-82.37704
828187146,ktran9,27.941154,-82.381296
828187275,ktran9,27.941148,-82.375495
828187658,ktran9,27.941021,-82.379259
828194608,ktran9,27.94115,-82.379072
828194680,ktran9,27.941001,-82.377315
828194687,ktran9,27.941031,-82.381435
828194746,ktran9,27.941028,-82.375777
828184304,ktran9,27.944146,-82.353847
828184313,ktran9,27.948186,-82.354268
828184318,ktran9,27.948874,-82.353923
828178649,ktran9,27.939154,-82.368732
828184291,ktran9,27.94299,-82.368913
828184330,ktran9,27.94263,-82.369016
828184343,ktran9,27.940659,-82.365603
828187290,ktran9,27.941148,-82.373985
828187291,ktran9,27.941215,-82.371818
828187301,ktran9,27.938938,-82.368578
828188436,ktran9,27.940923,-82.368417
828188446,ktran9,27.940678,-82.367071
828194584,ktran9,27.941135,-82.369504
828194710,ktran9,27.941035,-82.372962
828194717,ktran9,27.940933,-82.369014
828194754,ktran9,27.941026,-82.373934
828184300,ktran9,27.94082,-82.363295
828178579,ktran9,27.935963,-82.368589
828178668,ktran9,27.934599,-82.368742
828187307,ktran9,27.934582,-82.368595
828187583,ktran9,27.933213,-82.368749
828187643,ktran9,27.936071,-82.368741
828178473,ktran9,27.929725,-82.368606
828178475,ktran9,27.930145,-82.36861
828178509,ktran9,27.928381,-82.368618
828178604,ktran9,27.932411,-82.368598
828178640,ktran9,27.931817,-82.368755
828178645,ktran9,27.929737,-82.368762
828178694,ktran9,27.928373,-82.368768
828185011,ktran9,27.923098,-82.407843
828185343,ktran9,27.922935,-82.407823
828185346,ktran9,27.922871,-82.404645
828185373,ktran9,27.92287,-82.401032
828196202,ktran9,27.923033,-82.402287
828184979,ktran9,27.922865,-82.389717
828184992,ktran9,27.922876,-82.393441
828185379,ktran9,27.922703,-82.392955
828185389,ktran9,27.922702,-82.389889
828184949,ktran9,27.922605,-82.377207
828184960,ktran9,27.922767,-82.376742
828184998,ktran9,27.922806,-82.381205
828185002,ktran9,27.922826,-82.384747
828185404,ktran9,27.922663,-82.384677
828185406,ktran9,27.922634,-82.380709
828178492,ktran9,27.926163,-82.368613
828178560,ktran9,27.922383,-82.369465
828178678,ktran9,27.926469,-82.368762
828196204,ktran9,27.922781,-82.368989
828196926,ktran9,27.922627,-82.369495
828187322,ktran9,27.922727,-82.356641
828187331,ktran9,27.922731,-82.362238
828187482,ktran9,27.922577,-82.362441
828187549,ktran9,27.922563,-82.356388
828177602,ktran9,27.916621,-82.368781
828177616,ktran9,27.917853,-82.368791
828178415,ktran9,27.916751,-82.36868
828178700,ktran9,27.91923,-82.368789
828187221,ktran9,27.91778,-82.36867
828187223,ktran9,27.919248,-82.368607
828187245,ktran9,27.91178,-82.36861
828187662,ktran9,27.91187,-82.3687
828187242,ktran9,27.909175,-82.368585
828187672,ktran9,27.909275,-82.368757
828184326,ktran9,27.944101,-82.353452
828191808,ktran9,27.948531,-82.343819
828179946,ktran9,27.946708,-82.341604
828181264,ktran9,27.944655,-82.336613
828191816,ktran9,27.945933,-82.339667
828192844,ktran9,27.943949,-82.335948
828179941,ktran9,27.943459,-82.334754
828180556,ktran9,27.94871,-82.32549
828180618,ktran9,27.946493,-82.325943
828184033,ktran9,27.947108,-82.325244
828184126,ktran9,27.94863,-82.325606
828184131,ktran9,27.94738,-82.325415
828184557,ktran9,27.945244,-82.326184
828181260,ktran9,27.938935,-82.322339
828184048,ktran9,27.943089,-82.325342
828184090,ktran9,27.942127,-82.325554
828192891,ktran9,27.938818,-82.323119
828179538,ktran9,27.937454,-82.318424
828179539,ktran9,27.937831,-82.315022
828179541,ktran9,27.937908,-82.31904
828179884,ktran9,27.937498,-82.313835
828179896,ktran9,27.937482,-82.311226
828184585,ktran9,27.933157,-82.314492
828191939,ktran9,27.932748,-82.31438
828195121,ktran9,27.93788,-82.311213
828196334,ktran9,27.936599,-82.314517
828189841,ktran9,27.931992,-82.324716
828191919,ktran9,27.931689,-82.314322
828196328,ktran9,27.931744,-82.314504
828197823,ktran9,27.942198,-82.281831
828178982,ktran9,27.934125,-82.301895
828178984,ktran9,27.934346,-82.309389
828178986,ktran9,27.934119,-82.306012
828179536,ktran9,27.937521,-82.306185
828179821,ktran9,27.937519,-82.30409
828179838,ktran9,27.937516,-82.302308
828181219,ktran9,27.937513,-82.299524
828181270,ktran9,27.937902,-82.305977
828182462,ktran9,27.93414,-82.2993
828183740,ktran9,27.933948,-82.302207
828183745,ktran9,27.934183,-82.309075
828191903,ktran9,27.937893,-82.303813
828191931,ktran9,27.93789,-82.30053
828196364,ktran9,27.933943,-82.305988
828196379,ktran9,27.933981,-82.299834
828197690,ktran9,27.938032,-82.308826
828178894,ktran9,27.937467,-82.292317
828178972,ktran9,27.933126,-82.290786
828178974,ktran9,27.934278,-82.296156
828179529,ktran9,27.937868,-82.294341
828179530,ktran9,27.937873,-82.298198
828179551,ktran9,27.937872,-82.296801
828179607,ktran9,27.937863,-82.290363
828179853,ktran9,27.937491,-82.296487
828184071,ktran9,27.934137,-82.288507
828184073,ktran9,27.937241,-82.288503
828184083,ktran9,27.937563,-82.289989
828191869,ktran9,27.937836,-82.288369
828195336,ktran9,27.932954,-82.290695
828196370,ktran9,27.93413,-82.296017
828196371,ktran9,27.934203,-82.292929
828190266,ktran9,27.934921,-82.285691
828191886,ktran9,27.937819,-82.287001
828196415,ktran9,27.936144,-82.285679
828197616,ktran9,27.934071,-82.286533
828187397,ktran9,27.922731,-82.350559
828187517,ktran9,27.922578,-82.352239
828187568,ktran9,27.922493,-82.348271
828189733,ktran9,27.923113,-82.344372
828189753,ktran9,27.92278,-82.34484
828187379,ktran9,27.923163,-82.341628
828187561,ktran9,27.922841,-82.341551
828178488,ktran9,27.922917,-82.328141
828184795,ktran9,27.921925,-82.322626
828197530,ktran9,27.923619,-82.322977
828197533,ktran9,27.923637,-82.322654
828182669,ktran9,27.923421,-82.313419
828182861,ktran9,27.923091,-82.312989
828184051,ktran9,27.925769,-82.317458
828184063,ktran9,27.925995,-82.317195
828188471,ktran9,27.923068,-82.316268
828189038,ktran9,27.92554,-82.315384
828196382,ktran9,27.925795,-82.315657
828184754,ktran9,27.921418,-82.32296
828192909,ktran9,27.919731,-82.31884
828194349,ktran9,27.92073,-82.318483
828184722,ktran9,27.912114,-82.321366
828184732,ktran9,27.91544,-82.323515
828184750,ktran9,27.911916,-82.323196
828184751,ktran9,27.915812,-82.323858
828184652,ktran9,27.912138,-82.319451
828184736,ktran9,27.911831,-82.320028
828192554,ktran9,27.911558,-82.318865
828192572,ktran9,27.916047,-82.318843
828194336,ktran9,27.912573,-82.31847
828182260,ktran9,27.907135,-82.318831
828194218,ktran9,27.910597,-82.318441
828194231,ktran9,27.907934,-82.318425
828182763,ktran9,27.923446,-82.306549
828182766,ktran9,27.923424,-82.303054
828182859,ktran9,27.923102,-82.30645
828182866,ktran9,27.92305,-82.301775
828182752,ktran9,27.920594,-82.293783
828182759,ktran9,27.917861,-82.293844
828196773,ktran9,27.917895,-82.294081
828196782,ktran9,27.921174,-82.294116
828196702,ktran9,27.91454,-82.29379
828196806,ktran9,27.914272,-82.294087
828182739,ktran9,27.910143,-82.293858
828196795,ktran9,27.909987,-82.294115
828177697,ktran9,27.903767,-82.368741
828187257,ktran9,27.902481,-82.368621
828187264,ktran9,27.903423,-82.36857
828187414,ktran9,27.900884,-82.364605
828187431,ktran9,27.903313,-82.3661
828187443,ktran9,27.902242,-82.364604
828187494,ktran9,27.90084,-82.36472
828187497,ktran9,27.901944,-82.364787
828197085,ktran9,27.90257,-82.366709
828197087,ktran9,27.903529,-82.364876
828197089,ktran9,27.902481,-82.368297
828197704,ktran9,27.902299,-82.368227
828177672,ktran9,27.898586,-82.368746
828179637,ktran9,27.894898,-82.367595
828179644,ktran9,27.894887,-82.365521
828197678,ktran9,27.899407,-82.364789
828197694,ktran9,27.899579,-82.364586
828197710,ktran9,27.896328,-82.365247
828197711,ktran9,27.89775,-82.365246
828179299,ktran9,27.899017,-82.364344
828184659,ktran9,27.899007,-82.362836
828184660,ktran9,27.899006,-82.361642
828184761,ktran9,27.899268,-82.36178
828194026,ktran9,27.899257,-82.362922
828189031,ktran9,27.900995,-82.318455
828189572,ktran9,27.901467,-82.318647
828182264,ktran9,27.897608,-82.318652
828182279,ktran9,27.896176,-82.318624
828189025,ktran9,27.897646,-82.31853
828194265,ktran9,27.895777,-82.318422
828196770,ktran9,27.893856,-82.343779
828182445,ktran9,27.89351,-82.332964
828184673,ktran9,27.893726,-82.340663
828184678,ktran9,27.893613,-82.335969
828184767,ktran9,27.893856,-82.334137
828194033,ktran9,27.893901,-82.340398
828179353,ktran9,27.893281,-82.330809
828179355,ktran9,27.894078,-82.330616
828184639,ktran9,27.8936,-82.32571
828184777,ktran9,27.893807,-82.330627
828184786,ktran9,27.893715,-82.324065
828182303,ktran9,27.893531,-82.318587
828182317,ktran9,27.891026,-82.318577
828182815,ktran9,27.893984,-82.318597
828184648,ktran9,27.893533,-82.320287
828189779,ktran9,27.891025,-82.318403
828194283,ktran9,27.893458,-82.318405
828182410,ktran9,27.88653,-82.318516
828194155,ktran9,27.886636,-82.318407
828182864,ktran9,27.903477,-82.294038
828196681,ktran9,27.903482,-82.293867
828196613,ktran9,27.894388,-82.293858
828196903,ktran9,27.894865,-82.294151
828197647,ktran9,27.899361,-82.295315
828179491,ktran9,27.893702,-82.289236
828179493,ktran9,27.893539,-82.289034
828191287,ktran9,27.893499,-82.293232
828182718,ktran9,27.893728,-82.277272
828182745,ktran9,27.89377,-82.28229
828182783,ktran9,27.893565,-82.282275
828182786,ktran9,27.89354,-82.277692
828179714,ktran9,27.893574,-82.270245
828179719,ktran9,27.893737,-82.270296
828182713,ktran9,27.891769,-82.269197
828182780,ktran9,27.891009,-82.26937
828177581,ktran9,27.886833,-82.269378
828182705,ktran9,27.885265,-82.26924
828182707,ktran9,27.884835,-82.266287
828182711,ktran9,27.88752,-82.26919
828182809,ktran9,27.883369,-82.265862
828182387,ktran9,27.879011,-82.318459
828182396,ktran9,27.880588,-82.318454
828182401,ktran9,27.882005,-82.318485
828194060,ktran9,27.880377,-82.318343
828194065,ktran9,27.878928,-82.318345
828194135,ktran9,27.882189,-82.31837
828181316,ktran9,27.875494,-82.318522
828182381,ktran9,27.877261,-82.318529
828189774,ktran9,27.872656,-82.318297
828194077,ktran9,27.876717,-82.318338
828194080,ktran9,27.875041,-82.31834
828180099,ktran9,27.870548,-82.326752
828180765,ktran9,27.871499,-82.326561
828181410,ktran9,27.871725,-82.320975
828181423,ktran9,27.871738,-82.323398
828181426,ktran9,27.871157,-82.326718
828189822,ktran9,27.871602,-82.32139
828181337,ktran9,27.872242,-82.318516
828180685,ktran9,27.865568,-82.326496
828189561,ktran9,27.865937,-82.326697
828182772,ktran9,27.879305,-82.269383
828182820,ktran9,27.880995,-82.266318
828182833,ktran9,27.878704,-82.266108
828182846,ktran9,27.875707,-82.268561
828181069,ktran9,27.859661,-82.53095
828181085,ktran9,27.859676,-82.532537
828182661,ktran9,27.860808,-82.533316
828181044,ktran9,27.859648,-82.528483
828188492,ktran9,27.859764,-82.527003
828188494,ktran9,27.860998,-82.527004
828196860,ktran9,27.859809,-82.49994
828196870,ktran9,27.859918,-82.500122
828178875,ktran9,27.860915,-82.49153
828178886,ktran9,27.860873,-82.491749
828179694,ktran9,27.8561,-82.488621
828180328,ktran9,27.852638,-82.491329
828180365,ktran9,27.855638,-82.48942
828180376,ktran9,27.852484,-82.491774
828185111,ktran9,27.852641,-82.486202
828196080,ktran9,27.852477,-82.488568
828178725,ktran9,27.846017,-82.381509
828178731,ktran9,27.846253,-82.381712
828178756,ktran9,27.849554,-82.38159
828178759,ktran9,27.849284,-82.381841
828184101,ktran9,27.849658,-82.379112
828189357,ktran9,27.849855,-82.37648
828189369,ktran9,27.84984,-82.37872
828189377,ktran9,27.849839,-82.380541
828189621,ktran9,27.849654,-82.380425
828189812,ktran9,27.849661,-82.376694
828179033,ktran9,27.842348,-82.381752
828179042,ktran9,27.840428,-82.38182
828184012,ktran9,27.84463,-82.38171
828184099,ktran9,27.844632,-82.381531
828184116,ktran9,27.841936,-82.381482
828189607,ktran9,27.840939,-82.381483
828189062,ktran9,27.849835,-82.370363
828189064,ktran9,27.84983,-82.366053
828189215,ktran9,27.849635,-82.366669
828189348,ktran9,27.849854,-82.372652
828189383,ktran9,27.849659,-82.373003
828189444,ktran9,27.849658,-82.37093
828189551,ktran9,27.84986,-82.36851
828189821,ktran9,27.849658,-82.368921
828184429,ktran9,27.8497,-82.364085
828184439,ktran9,27.849633,-82.35705
828189008,ktran9,27.849834,-82.35831
828189011,ktran9,27.849838,-82.361278
828189014,ktran9,27.849772,-82.356348
828189043,ktran9,27.849836,-82.363883
828189199,ktran9,27.84969,-82.36201
828189238,ktran9,27.849649,-82.358623
828178801,ktran9,27.834701,-82.381597
828183999,ktran9,27.834534,-82.381912
828178998,ktran9,27.83139,-82.381934
828184113,ktran9,27.830803,-82.381643
828178999,ktran9,27.82664,-82.381727
828184011,ktran9,27.827132,-82.382028
828178865,ktran9,27.822255,-82.38189
828183986,ktran9,27.822058,-82.382254
828189019,ktran9,27.85721,-82.33489
828189324,ktran9,27.85694,-82.335336
828189537,ktran9,27.855531,-82.339706
828189803,ktran9,27.855187,-82.339707
828182650,ktran9,27.857021,-82.325384
828182652,ktran9,27.857184,-82.325303
828188797,ktran9,27.860755,-82.326732
828189035,ktran9,27.857193,-82.329293
828189831,ktran9,27.856933,-82.328216
828189837,ktran9,27.861044,-82.326431
828197423,ktran9,27.858053,-82.325373
828197639,ktran9,27.853438,-82.313931
828179296,ktran9,27.848114,-82.353265
828180338,ktran9,27.853481,-82.304213
828197494,ktran9,27.853643,-82.30396
828178858,ktran9,27.814262,-82.383902
828179015,ktran9,27.813922,-82.384321
828189605,ktran9,27.80739,-82.3841
828178992,ktran9,27.805505,-82.384438
828178853,ktran9,27.792819,-82.384173
828178993,ktran9,27.792031,-82.384516
828178946,ktran9,27.78461,-82.38461
828189684,ktran9,27.784678,-82.3842
828178846,ktran9,27.774076,-82.388569
828178959,ktran9,27.774106,-82.388944
828178138,ktran9,28.029546,-82.157672
828180039,ktran9,27.938195,-82.220798
828180603,ktran9,27.890744,-82.246657
828180634,ktran9,27.891532,-82.246828
828179328,ktran9,27.884354,-82.239965
828179344,ktran9,27.884436,-82.240157
828182841,ktran9,27.876608,-82.265595
828197338,ktran9,27.854933,-82.210817
519545149,LnxNoob,27.7687785,-82.6368783
828189518,ktran9,27.759138,-82.401191
828189668,ktran9,27.758977,-82.400995
828184575,ktran9,27.769362,-82.391452
828192492,ktran9,27.767959,-82.393938
828197839,ktran9,27.729562,-82.433594
828197846,ktran9,27.729729,-82.43396
828179444,ktran9,27.739308,-82.368917
828180082,ktran9,27.724041,-82.433646
828188100,ktran9,27.726563,-82.43394
828188809,ktran9,27.727604,-82.431776
828178933,ktran9,27.723716,-82.434018
828180072,ktran9,27.720615,-82.4339
828189654,ktran9,27.718741,-82.433907
828197469,ktran9,27.722495,-82.400556
828178908,ktran9,27.716266,-82.434261
828180066,ktran9,27.715849,-82.433928
828189536,ktran9,27.718124,-82.434251
828188101,ktran9,27.710474,-82.427366
828178238,ktran9,27.715794,-82.393027
828180767,ktran9,27.715486,-82.393623
828178267,ktran9,27.717581,-82.378174
828178273,ktran9,27.717735,-82.377851
828192800,ktran9,27.712197,-82.376502
828189639,ktran9,27.713057,-82.365334
828178284,ktran9,27.71712,-82.353841
828197538,ktran9,27.711043,-82.359693
828188802,ktran9,27.70568,-82.431687
828187998,ktran9,27.706142,-82.427144
828191990,ktran9,27.705988,-82.426781
828192095,ktran9,27.705834,-82.427144
828192069,ktran9,27.705768,-82.414798
828188001,ktran9,27.705701,-82.402381
828192007,ktran9,27.705902,-82.406318
828192296,ktran9,27.705864,-82.402461
828197527,ktran9,27.706197,-82.394486
828187913,ktran9,27.724088,-82.315232
828179382,ktran9,27.71421,-82.352148
828179509,ktran9,27.716639,-82.332841
828179517,ktran9,27.714291,-82.332147
828187878,ktran9,27.714133,-82.336514
828187901,ktran9,27.715816,-82.313312
828190943,ktran9,27.715812,-82.306561
828195376,ktran9,27.715949,-82.300513
828179401,ktran9,27.712537,-82.303769
828179763,ktran9,27.712566,-82.305233
