stop_id,stop_name,stop_lat,stop_lon
5370,Hillsborough Av @ 3918,27.995916,-82.511869
3282,Cleveland St @ Moody Av,27.943396,-82.483877
6874,Drew St @ Eddie C Moore Complex,27.968108,-82.717109
3281,Cleveland St @ Westland Av,27.943369,-82.481818
3284,Ferris Av @ Farwell  Dr,27.98235,-82.47945
5372,Hillsborough Av @ Church Av,27.995837,-82.507443
5371,Hillsborough Av @ 3902,27.99589,-82.510056
3285,Ferris Av @ Wishart Blvd,27.982627,-82.483843
5375,Hillsborough Av @ Berry Av,27.995817,-82.473852
3278,Cleveland St @ Packwood Av,27.943324,-82.477704
5368,Hillsborough Av @ Hesperides St,27.995974,-82.518818
5369,Hillsborough Av @ Bally 4402,27.995967,-82.516195
2950,Nuccio Pkwy @ Nebraska Av,27.953391,-82.450862
1821,Dale Mabry Hwy @ Corona St,27.914038,-82.506107
1822,Dale Mabry Hwy @ El Prado Blvd,27.911767,-82.506163
2955,20th St @ Waters Av,28.02569,-82.436615
1820,Dale Mabry Hwy @ San Luis St,27.915722,-82.50608
2954,Nuccio Pkwy @ 7th Av,27.959949,-82.446539
1825,Dale Mabry Hwy @ Gandy Blvd,27.895119,-82.506401
0708,22nd St @ Rae Ct,28.079114,-82.434565
2957,20th St @ Seward St,28.02818,-82.436625
1826,Dale Mabry Hwy @ Paxton Av,27.888117,-82.506511
2956,20th St @ Fairbanks St,28.026758,-82.436615
1823,Dale Mabry Hwy @ Cam St,27.903996,-82.506337
2959,20th St @ Eskimo Av,28.029719,-82.436807
1824,Dale Mabry Hwy @ Fair Oaks Av,27.901873,-82.50632
0705,22nd St @ Aimee Ct,28.078308,-82.434707
2958,20th St @ Eskimo Av,28.029538,-82.436625
1829,Dale Mabry Hwy @ Wallace Av,27.885502,-82.506551
0703,22nd St @ Fletcher Av,28.068897,-82.434525
0702,22nd St @ 133Rd Av,28.068131,-82.434484
1828,Dale Mabry Hwy @ Rogers Av,27.886963,-82.50653
0701,22nd St @ 132nd Av,28.067261,-82.434484
5361,Hillsborough Av @ 7620,27.996495,-82.566679
3295,Howard Av @ Southview Av,27.930213,-82.483097
3294,Howard Av @ Dekle Av,27.928855,-82.483127
5363,Hillsborough Av @ Sawyer Rd,27.996426,-82.557181
5362,Hillsborough Av @ 7012,27.996439,-82.559243
5365,Hillsborough Av @ Benjamin Rd,27.99622,-82.542264
5364,Hillsborough Av @ Golden Dr,27.996397,-82.553123
3298,Howard Av @ Morrison Av,27.933592,-82.482947
3297,Howard Av @ Watrous Av,27.93188,-82.482977
5366,Hillsborough Av @  5556,27.9962,-82.537742
3296,Howard Av @ Marjory Av,27.93092,-82.483057
2940,Nuccio Pkwy @ 7th Av,27.960565,-82.446509
6879,Mccormick Dr @ Wright Cr,28.062213,-82.646182
2944,Nuccio Pkwy @ 7th Av Ns,27.960438,-82.446843
6876,Temple Terrace Hwy @ Hamilton Hills,28.03277,-82.361743
2943,Nuccio Pkwy @ 7th Av Ss,27.959723,-82.446934
6878,Linebaugh Av @ Montague St,28.045057,-82.598785
1810,Dale Mabry Hwy @ Inman Av,27.935853,-82.505835
6877,56th St @ 127th Av,28.062118,-82.393488
2941,Nuccio Pkwy @ Palm Av,27.96224,-82.44654
0717,22nd St @ 131St Av,28.065156,-82.434615
2947,Nuccio Pkwy @ Nebraska Av,27.95399,-82.450651
1813,Dale Mabry Hwy @ Angeles St,27.927606,-82.505919
2946,Nuccio Pkwy @ Scott Dr,27.956888,-82.447845
1814,Dale Mabry Hwy @ San Nicholas St,27.925758,-82.505943
1815,Dale Mabry Hwy @ San Carlos St,27.924018,-82.505965
1816,Dale Mabry Hwy @ Barcelona St,27.921928,-82.506002
1817,Dale Mabry Hwy @ Bay To Bay Blvd,27.920009,-82.506022
1818,Dale Mabry Hwy @ San Juan St,27.918512,-82.506036
0715,22nd St @ Fletcher Av,28.069661,-82.434677
1819,Dale Mabry Hwy @ Obispo St,27.917004,-82.50607
6081,Hanna Av @ Hesperides St,28.003771,-82.519312
6891,Waters Av @ Sheldon Rd,28.02581,-82.582524
5355,Webb Rd @ Town N Country Medical Pl,28.002564,-82.575049
6892,56th St @ 127th Av,28.061211,-82.393806
2980,34th St @ Lindell Av,27.979982,-82.422315
6889,Linebaugh Av @ Montague St,28.044785,-82.598868
2975,34th St @ 24th Av,27.972505,-82.422339
1843,Kennedy Blvd @ Delaware Av,27.944704,-82.470041
2974,34th St @ 22nd Av,27.971559,-82.422266
1844,Kennedy Blvd @ Willow Av,27.944727,-82.472379
2977,34th St @ 28th Av,27.975834,-82.422296
1841,Kennedy Blvd @ Brevard Av,27.94473,-82.466349
2976,34th St @ 26th Av,27.973992,-82.422354
1842,Kennedy Blvd @ N Boulevard,27.944707,-82.468349
5346,Sheldon Rd @ Island Club Apt Ss,28.004392,-82.583481
2973,34th St @ 21St Av,27.969521,-82.422267
5347,Sheldon Rd @ Mohr Rd,28.003015,-82.583499
2972,34th St @ 18th Av,27.968113,-82.422307
1849,Kennedy Blvd @ Howard Av,27.944812,-82.482788
2979,34th St @ 32nd Av,27.979163,-82.422381
1847,Kennedy Blvd @ Fremont Av,27.944775,-82.478777
2978,34th St @ Lake Av,27.977617,-82.422363
1848,Kennedy Blvd @ Albany Av,27.944796,-82.480859
1845,Kennedy Blvd @ Oregon Av,27.94474,-82.474568
1846,Kennedy Blvd @ Rome Av,27.94476,-82.476655
5343,Sheldon Rd @ Westbay Blvd,28.010884,-82.583409
5342,Sheldon Rd @ Flora St,28.013147,-82.583332
5345,Sheldon Rd @ Island Club Apts Ns,28.00479,-82.583481
2100,Manhattan Av @ Rembrandt Dr,27.872598,-82.518561
5344,Sheldon Rd @ Brennan Circle,28.008326,-82.583408
5340,Sheldon Rd @ Broad St,28.017071,-82.583324
1830,Dale Mabry Hwy @ Oklahoma Av,27.884108,-82.506566
6898,Florida Av @ 111th Av,28.049842,-82.459328
5339,Sheldon Rd @ Patterson St,28.018511,-82.583304
1831,Dale Mabry Hwy @ Wisconsin Av,27.881738,-82.506663
1832,Dale Mabry Hwy @ Iowa Av,27.881122,-82.506662
1833,Dale Mabry Hwy @ Bay Av,27.879188,-82.506608
6899,Florida Av @ 115th Av,28.052411,-82.459314
5335,Waters Av @ River Oaks Dr,28.026088,-82.579686
2962,20th St @ Waters Av,28.025527,-82.436807
5336,Sheldon Rd @ Waters Av,28.024824,-82.583211
2961,20th St @ Fairbanks St,28.027012,-82.436807
5337,Sheldon Rd @ Woodlake Blvd,28.022821,-82.583265
2960,20th St @ Seward St,28.028379,-82.436807
5338,Sheldon Rd @ Crown Blvd,28.019991,-82.583282
1839,Kennedy Blvd @ Hyde Park Av,27.945778,-82.46349
1835,Dale Mabry Hwy @ Mango Av,27.875198,-82.50653
1836,Dale Mabry Hwy @ Interbay Blvd,27.872833,-82.506514
7597,Henderson Rd @ Logan Gate Blvd,28.057968,-82.549643
7598,Henderson Rd @ Logan Gate Blvd,28.057207,-82.549916
7599,Himes Av @ W Hamilton Av,28.014261,-82.500872
7593,Manhattan Av @ Fair Oaks Av,27.900871,-82.518223
5333,Waters Av @ Flowerfield Dr,28.026063,-82.574006
3242,Bay To Bay Blvd @ MacDill Av,27.919771,-82.49341
5334,Waters Av @ Shell Dr,28.026117,-82.576465
7594,Tampa St @ Scott St,27.956487,-82.461008
3243,Bay To Bay Blvd @ Esperanza Av,27.919774,-82.495264
7595,West Tampa Transfer Center,27.977701,-82.501088
5331,Bj'S @ Waters Av @ Hanley Rd,28.026041,-82.564447
3244,Bay To Bay Blvd @ Ferdinand Av,27.919782,-82.496979
7596,Himes Av @ Ohio Av @ Bus Bay,27.97771,-82.501301
5332,Waters Av @ Beasley Rd,28.026034,-82.567385
7591,Bell Shoals Rd @ Rosemead Lane,27.886833,-82.269378
7592,Manhattan Av @ Wallcraft Av,27.903217,-82.518347
3235,78th St @ 35th Av,27.916621,-82.368781
2103,Manhattan Av @ Iowa Av,27.880783,-82.518454
5327,Waters Av @ Pinehurst Dr,28.025797,-82.571631
0743,22nd St @ 31St Av,27.978556,-82.434807
2992,34th St @ Chipco St,27.975637,-82.4224
3234,78th St @ 34th Av,27.917853,-82.368791
2104,Manhattan Av @ Coolidge Av,27.88272,-82.518432
0744,22nd St @ Lake Av,27.977283,-82.43481
2993,34th St @ 26th Av,27.974235,-82.422398
2101,Manhattan Av @ Mango Av,27.875669,-82.518554
5325,Waters Av @ Riverwood Blvd,28.025814,-82.579727
0741,22nd St @ M L King Jr Blvd,27.982085,-82.434818
2994,34th St @ 24th Av,27.972755,-82.422395
2102,Manhattan Av @ Bay Av,27.87913,-82.518527
5324,Sheldon Rd @ Waters Av,28.026263,-82.582839
2995,34th St @ 22nd Av,27.97138,-82.422387
3239,78th St @ Madison Av,27.898586,-82.368746
2107,Manhattan Av @ Pearl Av,27.88746,-82.51839
2996,34th St @ 18th Av,27.968447,-82.422426
3238,78th St @ 49th Av,27.903767,-82.368741
2997,Columbus Dr @ 13th St,27.966889,-82.445396
2105,Manhattan Av @ Oklahoma Av,27.883735,-82.51843
2998,Columbus Dr @ 12th St,27.966899,-82.447026
2106,Manhattan Av @ Wallace Circle,27.885136,-82.51832
2999,Columbus Dr @ 10th St,27.966914,-82.449082
7588,Dale Mabry Hwy @ Pinewood St,27.868765,-82.506501
3250,Bay To Bay Blvd @ Sterling Av,27.919668,-82.503627
7589,Dale Mabry Hwy @ Pinewood St,27.868928,-82.506157
3251,Bay To Bay Blvd @ Himes Av,27.91966,-82.501947
7586,Harney Rd @ Netpark Transfer Center,27.989436,-82.390944
7587,Netpark Transfer Center,27.989935,-82.391552
2120,Manhattan Av @ Vasconia St,27.912367,-82.517829
3254,Bay To Bay Blvd @ Ferdinand Av,27.919645,-82.49717
5320,Sheldon Rd @ 7301,28.0166,-82.582965
2991,34th St @ Lake Av,27.978096,-82.422525
3255,Bay To Bay Blvd @ Esperanza Av,27.91965,-82.4955
5321,Sheldon Rd @ Crown Blvd,28.019969,-82.58295
2990,34th St @ Lindell Av,27.980217,-82.422459
7585,Dale Mabry Hwy @ Watrous Av,27.931832,-82.505883
2122,Manhattan Av @ San Luis St,27.915582,-82.517771
3252,Bay To Bay Blvd @ Malijo Av,27.919652,-82.50058
7582,56th St @ Mission Hills Av,28.03996,-82.393682
5322,Sheldon Rd @ Faith Outreach Ctr,28.018185,-82.582987
2121,Manhattan Av @ Corona St,27.91408,-82.5178
3253,Bay To Bay Blvd @ Concordia Av,27.919662,-82.49889
7583,56th St @ 98th Av,28.03843,-82.393633
5323,Sheldon @  8023 Sheldon Shore Apts,28.022921,-82.582925
7580,Burnett Pk Pnr @Cr579 @ Clay Pit Rd,27.988445,-82.302449
2989,34th St @  M L King Jr Blvd,27.98125,-82.422487
2112,Manhattan Av @ Gandy Blvd,27.89451,-82.518384
3248,Bay To Bay Blvd @ Sterling Av,27.91982,-82.505035
5314,Sheldon Rd @ 6201,28.005113,-82.58311
2983,34th St @ Emma St,27.985925,-82.422405
0753,22nd St @ Chapin St,27.943709,-82.434795
2113,Manhattan Av @ Aegean Dr,27.89694,-82.518311
3247,Bay To Bay Blvd @ Himes Av,27.919824,-82.501798
5313,Sheldon Rd @ Mohr Rd,28.002644,-82.583123
2984,34th St @ Osborne Av,27.988629,-82.422381
0754,22nd St @ Flagler St,27.941635,-82.434795
3246,Bay To Bay Blvd @ Malijo Av,27.91979,-82.500055
5316,Sheldon Rd @ Mayflower Rd,28.008513,-82.583052
2981,34th St @ North Bay St,27.982898,-82.422315
0755,22nd St @ Oakwood Av,27.939642,-82.434775
2115,Manhattan Av @ La Villa Lane,27.898443,-82.518332
3245,Bay To Bay Blvd @ Concordia Av,27.919792,-82.4986
5315,Sheldon Rd @ 6309,28.005542,-82.583088
2982,34th St @ Genessee St,27.984519,-82.422325
5318,Sheldon Rd @ Orville Lane,28.013059,-82.582999
2987,34th St @ Genessee St,27.984519,-82.422507
5317,Sheldon Rd @ Fountain Av,28.010496,-82.583066
2988,34th St @ North Bay St,27.983143,-82.422497
2118,Manhattan Av @ Bay View Av,27.904929,-82.518348
2985,34th St @ Lila St,27.988223,-82.422537
2119,Manhattan Av @ Bay  Vista Av,27.907022,-82.517986
5319,Sheldon Rd @ 7201,28.014888,-82.582962
2986,34th St @ Emma St,27.985869,-82.422517
7571,E Davis Blvd @ Barbados Av,27.927015,-82.453713
5311,Hillsborough Av @ 8327,27.996808,-82.577021
7572,St Joseph'S Hospital North,28.129602,-82.5075
7573,Mt Zion Assembly Of God  Pnr,28.029546,-82.157672
5310,Hillsborough Av @ Buccaneer Square,27.996843,-82.579724
7575,Adamo Dr @ 50th St,27.952208,-82.402689
7576,Northwest Transfer Center,28.028126,-82.584433
7577,S Manhattan Av @ W Bay Vista Av,27.90675,-82.518259
7578,S Manhattan Av @ Oakellar Av,27.896604,-82.518492
1809,Dale Mabry Hwy @ Swann Av,27.93775,-82.505824
7570,E Davis Blvd @ Bosphorous Av,27.929053,-82.455525
0725,22nd St @ Bougainvillea Av,28.043693,-82.434643
1808,Dale Mabry Hwy @ Dale Av,27.939531,-82.505808
1807,Dale Mabry Hwy @ Azeele St,27.94127,-82.505799
0723,22nd St @ 109th Av,28.047312,-82.434633
1806,Dale Mabry Hwy @ Cleveland St,27.943063,-82.50578
0724,22nd St @ Marvy Av,28.04578,-82.43464
1805,Dale Mabry Hwy @ Roland St,27.944025,-82.505782
1804,Dale Mabry Hwy @ North B St,27.946791,-82.505793
1803,Dale Mabry Hwy @ Gray St,27.948947,-82.505781
1802,Dale Mabry Hwy @ Cass St,27.950178,-82.505769
0727,22nd St @ Diana St,28.007188,-82.434802
1801,Dale Mabry Hwy @ State St,27.951621,-82.505761
7569,Danube Av @ Chesapeake Av,27.924415,-82.453297
1800,Dale Mabry Hwy @ Grace St,27.952841,-82.50577
2127,Manhattan Av @ Palmira Av,27.922775,-82.517725
2125,Manhattan Av @ Bay To Bay Blvd,27.9197,-82.517747
3256,Bay To Bay Blvd @ MacDill Av,27.919628,-82.49386
0722,22nd St @ 111th Av,28.049577,-82.434708
2126,Manhattan Av @ Granada St,27.92121,-82.51771
2123,Manhattan Av @ Obispo St,27.91698,-82.51775
0720,22nd St @ 115th Av,28.051947,-82.434624
2124,Manhattan Av @ San Juan St,27.91838,-82.51778
2142,Manhattan Av @ Leona St,27.915394,-82.517977
7562,Floribraska Av @ Central Av,27.970961,-82.455462
3276,Cleveland St @ Dakota Av,27.943286,-82.475554
7563,Floribraska Av @ Florida Av,27.97097,-82.459331
2141,Manhattan Av @ Lumb Av,27.91702,-82.51796
7560,Southshore Service Ctr Express Stop,27.715794,-82.393027
2144,Manhattan Av @ Vasconia St,27.912572,-82.518018
5300,Town N Country Blvd @ Paula Av,27.998968,-82.568722
3274,Cleveland St @ Delaware Av,27.94322,-82.470489
7561,Floribraska Av @ Nebraska Av,27.970853,-82.451563
3275,Cleveland St @ Willow Av,27.943245,-82.472519
3272,Cleveland St @ Fielding Av,27.943204,-82.467561
7567,Cypress St @ Ins/Homeland Security,27.95241,-82.540596
3273,Cleveland St @ Edison Av,27.943213,-82.469463
7564,Floribraska Av @ Central Av,27.970798,-82.455371
3270,Cleveland St @ Magnolia Av,27.943181,-82.465631
7565,Floribraska Av @ Nebraska Av,27.97069,-82.451249
0734,22nd St @ Shadowlawn Av,27.993441,-82.434853
0737,22nd St @ Osborne Av,27.988968,-82.434775
0738,22nd St @ Chelsea St,27.985279,-82.434773
7559,Cypress Villagel@ Upper Creek (Ccp),27.717581,-82.378174
2139,Manhattan Av @ Bay To Bay Blvd,27.919414,-82.517907
7558,Cypress Village @ Upper Creek (Ccp),27.717735,-82.377851
7557,N Pebble Beach Bl @ Sun City Center,27.71712,-82.353841
2134,Manhattan Av @ Minnehaha St,28.008699,-82.517442
0730,22nd St @ Idlewild Av,28.001583,-82.434843
2135,Manhattan Av @ Lambright St,28.007277,-82.517451
0731,22nd St @ Henry Av,27.99981,-82.434753
2136,Manhattan Av @ North St,28.005892,-82.51746
0732,22nd St @ Hillsborough Av,27.996819,-82.434786
2137,Manhattan Av @ Hanna Av,28.003918,-82.517468
3267,Bearss Av @ 22nd St,28.080264,-82.43491
0733,22nd St @ Giddens Av,27.995398,-82.434779
0786,15th St @ Hanna Av,28.003168,-82.442846
0785,15th St @ Idlewild Av,28.001492,-82.442856
0788,15th St @ Diana St,28.007252,-82.442866
2147,Manhattan Av @ Wallcraft Av,27.903394,-82.51847
0787,15th St @ North St,28.005033,-82.442846
0782,15th St @ Hillsborough Av,27.995588,-82.442845
2149,Manhattan Av @ Fair Oaks Av,27.900554,-82.518468
0781,15th St @ Frierson Av,27.994129,-82.442855
0784,15th St @ Henry Av,27.99959,-82.442856
0783,15th St @ Comanche Av,27.997797,-82.442845
0789,15th St @ Escort Av,28.009625,-82.442866
0790,15th St @ Sligh Av,28.010403,-82.442876
0791,15th St @ Poinsettia Av,28.041627,-82.442797
3200,Kelly Rd @ Hillsborough Av,27.996305,-82.564795
2159,Manhattan Av @ Wallace Av,27.885335,-82.518502
3201,Kelly Rd @ Hillsborough Av,27.996131,-82.564897
0799,15th St @ 122nd Av,28.057863,-82.442757
1894,Kennedy Blvd @ Oregon Av,27.944582,-82.474884
2158,Manhattan Av @ Pearl Av,27.887763,-82.518515
3202,Kelly Rd @ Caracas St,27.992806,-82.564895
1895,Kennedy Blvd @ Willow Av,27.944555,-82.4729
2157,Manhattan Av @ Ballast Point Blvd,27.889726,-82.518437
3203,Kelly Rd @ New Orleans St,27.991353,-82.564913
0797,15th St @ Fowler Av,28.053987,-82.442767
1892,Kennedy Blvd @ Fremont Av,27.944608,-82.478934
2156,Manhattan Av @ Paul Av,27.891507,-82.518423
3204,Kelly Rd @ Brighten Dr,27.988829,-82.56501
1893,Kennedy Blvd @ Rome Av,27.944581,-82.476919
6009,4th Av @ 16th St,27.95821,-82.441608
1898,Kennedy Blvd @ Brevard Av,27.944494,-82.466785
3206,Kelly Rd @ Carnaby Square,27.984256,-82.565053
0794,15th St @ 109th Av,28.04706,-82.442787
6008,4th Av @ 18th St,27.95816,-82.43914
1899,Kennedy Blvd @ Hyde Park Av,27.94531,-82.464164
3207,Kelly Rd @ Memorial Hwy,27.982263,-82.565071
0793,15th St @ Charm Ln,28.045638,-82.442787
6007,4th Av @ 19th St,27.958157,-82.437837
1896,Kennedy Blvd @ Delaware Av,27.944529,-82.47043
0792,15th St @ Bougainvillea Av,28.043429,-82.442797
6006,Adamo Dr @ 22nd St,27.955846,-82.433701
1897,Kennedy Blvd @ S Boulevard,27.944512,-82.468031
3209,78th St @ Wichita Way,27.916751,-82.36868
2161,Manhattan Av @ Wyoming Av,27.882563,-82.51853
2162,Manhattan Av @ Iowa Av,27.881123,-82.518569
2160,Manhattan Av @ Oklahoma Av,27.883985,-82.518531
2165,Manhattan Av @ Varn Av,27.872557,-82.518707
2166,Manhattan Av @ McCoy St,27.869828,-82.518635
6010,4th Av @ Republica De Cuba,27.95817,-82.444103
3218,78th St @ Tidewater Trail,27.929725,-82.368606
0760,15th St @ 11th Av,27.963038,-82.442864
3219,78th St @ Cadillac Circle,27.930145,-82.36861
6801,Causeway Blvd @ Ed Morse Cadillac,27.922917,-82.328141
3216,78th St @ 24th Av,27.926163,-82.368613
3217,78th St @ Clarice Circle,27.928381,-82.368618
6800,7th Av @ 13th St,27.960166,-82.444788
2168,Manhattan Av @ Interbay Blvd,27.866125,-82.518669
0764,15th St @ Columbus Dr,27.966715,-82.442874
2167,Manhattan Av @ Lancaster St,27.868572,-82.518643
0763,15th St @ 15th Av,27.965873,-82.442874
0766,15th St @ 19th Av,27.968626,-82.442928
3213,78th St @ Causeway Blvd,27.922383,-82.369465
2169,Macdill Av @ Helen Av,27.868609,-82.493979
0765,15th St @ 17th Av,27.967327,-82.442925
0768,15th St @ 24th Av,27.972222,-82.442949
0767,15th St @ 21St Av,27.970374,-82.442933
6809,Woodbridge Blvd @ Webb Rd,28.013214,-82.575269
0769,15th St @ 26th Av,27.974069,-82.442854
3222,78th St @ Parish Place,27.935963,-82.368589
2174,Macdill Av @ Bay Av,27.878565,-82.493915
2175,Macdill Av @ Interbay Blvd,27.879997,-82.493895
3220,78th St@ Clair Mel Circle,27.932411,-82.368598
2176,Macdill Av @ Wyoming Av,27.882506,-82.493846
6000,Adamo Dr @ 57th St,27.952245,-82.389798
2177,Macdill Av @ Leila Av,27.884059,-82.493881
6001,Adamo Dr @ 45th St,27.952237,-82.407458
2170,Macdill Av @ N Adams St,27.870548,-82.49397
6002,Adamo Dr @ 42nd St,27.95404,-82.41226
6003,Adamo Dr @ 39th St,27.955618,-82.416691
2172,Macdill Av @ Averill Av,27.874842,-82.493953
6004,Adamo Dr @ 34th St,27.954582,-82.42381
2173,Macdill Av @ Binnicker Av,27.876744,-82.493934
6005,Adamo Dr @ 26th St,27.955845,-82.430415
3228,78th St @ Carnegie Circle South,27.931817,-82.368755
0772,15th St @ 32nd Av,27.979485,-82.44289
3229,78th St @ Paradise Place,27.929737,-82.368762
0771,15th St @ Rodney St,27.977402,-82.442814
0770,15th St @ 28th Av,27.975899,-82.442824
0777,15th St @ Osborne Av,27.988623,-82.442845
3224,78th St @ Destin Dr,27.939154,-82.368732
0776,15th St @ Cayuga St,27.986875,-82.442855
2179,Macdill Av @ Puritan Av,27.887576,-82.493849
0775,15th St @ Chelsea St,27.985019,-82.442855
3226,78th St @ Robindale Rd,27.934599,-82.368742
2178,Macdill Av @ Tyson Av,27.885894,-82.493818
0774,15th St @ North Bay St,27.983198,-82.442845
0779,15th St @ Ellicott St,27.991186,-82.442855
0778,15th St @ New Orleans Av,27.990117,-82.442835
2180,Macdill Av @ Ballast Point Blvd,27.889581,-82.49379
3231,78th St @ 24th Av,27.926469,-82.368762
3230,78th St @ Patrician Place,27.928373,-82.368768
2188,Macdill Av @ Lawn Av,27.901258,-82.493717
3233,78th St @ 32nd Av,27.91923,-82.368789
2186,Macdill Av @ Alline Av,27.897958,-82.493789
2183,Macdill Av @ Gandy Blvd,27.893458,-82.493732
2184,Macdill Av @ Villa Rosa Park,27.895488,-82.493743
0780,15th St @ Wilder Av,27.992409,-82.442865
2914,Us Hwy 41 @ Nundy Av,27.846017,-82.381509
1868,Kennedy Blvd @ Trask St,27.945,-82.521818
1867,Kennedy Blvd @ Hesperides St,27.944992,-82.519965
1869,Kennedy Blvd @ Westshore Blvd,27.944987,-82.523947
2918,Us Hwy 41 @ Nundy Av,27.846253,-82.381712
2916,Us Hwy 41 @ Gibsonton Dr,27.849554,-82.38159
2917,Us Hwy 41 @ Gibsonton Dr,27.849284,-82.381841
2189,Macdill Av @ Wallcraft Av,27.903106,-82.493718
1860,Kennedy Blvd @ Sterling Av,27.944898,-82.503265
1861,Kennedy Blvd @ Church Av,27.944964,-82.507614
2910,Us Hwy 41 @ Symmes Rd,27.834701,-82.381597
6820,Gunn @ Mullis City Way (4126Rts),28.042114,-82.511338
1864,Kennedy Blvd @ Lois Av,27.944978,-82.513749
6821,Gunn @ Mullis City Way (Tire Plus),28.04211,-82.510906
1863,Kennedy Blvd @ Clark Av,27.944971,-82.511785
1866,Kennedy Blvd @ Manhattan Av,27.944993,-82.51791
1865,Kennedy Blvd @ Hubert Av,27.944986,-82.515885
2193,Macdill Av @ Bay Court Av,27.907028,-82.493619
2195,Macdill Av @ El Prado Blvd,27.911177,-82.493592
1859,Kennedy Blvd @ Himes Av,27.944896,-82.501384
1858,Kennedy Blvd @ Glen Av,27.944893,-82.499556
1857,Kennedy Blvd @ Lincoln Av,27.944883,-82.497304
2904,Us Hwy 41 @ Ellsberry Rd,27.774076,-82.388569
1856,Kennedy Blvd @ Matanzas Av,27.944917,-82.495243
2905,Us Hwy 41 @ Big Bend Rd,27.792819,-82.384173
2907,Us Hwy 41 @ Kracker Av,27.814262,-82.383902
2908,Us Hwy 41 @ Ohio St,27.822255,-82.38189
1851,Kennedy Blvd @ Arrawana Av,27.944854,-82.487634
6838,N Boulevard @ Frances Av,27.965008,-82.467634
1850,Kennedy Blvd @ Armenia Av,27.944838,-82.484879
6833,Zemke Av @ Centcom Av,27.860915,-82.49153
1855,Kennedy Blvd @ MacDill Av,27.944872,-82.493906
1853,Kennedy Blvd @ Gomez Av,27.944859,-82.491029
6832,Zemke Av @ Centcom Av,27.860873,-82.491749
1852,Kennedy Blvd @ Habana Av,27.944854,-82.489015
6053,Sr 60 @ Kings Av,27.937467,-82.292317
6051,56th St @ Commerce Park Blvd,27.986658,-82.395291
4709,Fowler Av @ 14th St,28.054683,-82.444776
2939,Us Hwy 41 @ 4th Av Sw,27.716266,-82.434261
4707,22nd St @ 12401 University Village,28.061295,-82.4346
4708,Fowler Av @ 15th St,28.054672,-82.442068
2935,Us Hwy 41 @ 7th Av Nw F/S,27.723716,-82.434018
4706,22nd St @ Worthing Square Apts,28.063647,-82.434598
4703,Bearss Av @ 19th St,28.080264,-82.438256
4704,Bearss Av @ Gregory Dr,28.080264,-82.436938
1885,Kennedy Blvd @ Gomez Av,27.944675,-82.491396
2930,Us Hwy 41 @ P.T.G. Packing,27.78461,-82.38461
4701,Bearss Av @ 17th St,28.080427,-82.441257
1888,Kennedy Blvd @ Arrawana Av,27.944668,-82.487387
2931,Us Hwy 41 @ Elsberry Rd,27.774106,-82.388944
4702,Bearss Av @ 18th St,28.080264,-82.439584
1887,Kennedy Blvd @ Habana Av,27.944676,-82.489321
1884,Kennedy Blvd @ MacDill Av,27.944674,-82.493441
1883,Kennedy Blvd @ Henderson Blvd,27.944645,-82.495678
6043,Oakfield Dr @ Noland St,27.933126,-82.290786
6045,Oakfield Dr @ Buckingham Place,27.934278,-82.296156
1890,Kennedy Blvd @ Howard Av,27.944651,-82.483267
1891,Kennedy Blvd @ Albany Av,27.944625,-82.481029
6047,Oakfield Dr @ Pauls Dr,27.934125,-82.301895
6049,Oakfield Dr @ Morrison Rd,27.934346,-82.309389
6048,Oakfield Dr @ Hilltop Rd,27.934119,-82.306012
2927,Us Hwy 41 @ Pembroke Rd,27.805505,-82.384438
2929,Us Hwy 41 @ Big Bend Rd,27.792031,-82.384516
2923,Us Hwy 41 @ Isabel Av,27.83139,-82.381934
2924,Us Hwy 41 @ Mabrey Av,27.82664,-82.381727
4717,N Boulevard @ Patbur Av,28.036634,-82.467839
4718,N Bouevard @ Ola Av,28.020524,-82.467864
1879,Kennedy Blvd @ Sterling Av,27.944659,-82.503797
2926,Us Hwy 41 @ Kracker Av,27.813922,-82.384321
4719,N Boulevard @ Hollywood St,28.019517,-82.467813
1878,Kennedy Blvd @ Church Av,27.944675,-82.507543
4712,Country Club Dr @ Ola Av,28.054678,-82.463342
6855,N Boulevard @ Park Av,27.964308,-82.467723
2920,Us Hwy 41 @ Cedar Av,27.842348,-82.381752
4713,N Boulevard @ 116th Av,28.053676,-82.467683
1876,Kennedy Blvd @ Clark Av,27.944681,-82.512068
2921,Us Hwy 41 @ Beach Av (Twin Oaks),27.840428,-82.38182
4714,N Boulevard @ 113th Av,28.050923,-82.467722
1875,Kennedy Blvd @ Lois Av,27.94467,-82.514306
4715,N Boulevard @ 109th Av,28.046024,-82.467781
6854,N Boulevard @ Columbus Dr,27.967177,-82.46769
1874,Kennedy Blvd @ Hubert Av,27.944669,-82.516199
1873,Kennedy Blvd @ Manhattan Av,27.944676,-82.518264
1872,Kennedy Blvd @ Hesperides St,27.944675,-82.520299
4710,Fowler Av @ Nebraska Av,28.054738,-82.451934
1871,Kennedy Blvd @ Trask St,27.944673,-82.522
4711,Fowler Av @ Vault Lodge,28.05472,-82.453
1870,Kennedy Blvd @ Renellie Dr,27.944681,-82.523508
1880,Kennedy Blvd @ Himes Av,27.944651,-82.501763
6860,Tampa St @ 7th Av,27.960575,-82.460979
4611,Fletcher Av @ 42nd St,28.068952,-82.414116
4640,56th St @ 4316,27.985592,-82.39689
4641,56th St @  M L King Jr Blvd,27.981715,-82.401659
4634,Puritan Rd @ Whittier St,28.020385,-82.40033
4633,Puritan Rd @ 53Rd St,28.020384,-82.397878
4632,56th St @ Beverly St,28.028227,-82.393564
4631,56th St @ 8836,28.030488,-82.393637
4638,56th St @ Shadowlawn Av,27.99412,-82.393676
4637,56th St @ 5806,28.0018,-82.393626
4636,56th St @ Aaron  Rentals,28.009442,-82.393646
4635,Sligh Av @ 5105,28.010605,-82.399787
4663,M L King Blvd @ St Joseph Hospital,27.981447,-82.490234
4662,Armenia Av@ St Isabel St,27.978255,-82.484691
4661,Armenia Av @ 4021,27.975338,-82.484738
4660,Howard Av @ Braddock St,27.972507,-82.483729
4659,Howard Av @ Dewey St,27.97101,-82.48276
4653,Fletcher Av @ 42nd St,28.069251,-82.413741
4654,Fletcher Av @ John Knott Village,28.069211,-82.417259
4651,Palm Av @ Taliaferro Av,27.962339,-82.452625
4646,21St Av @ 11th St,27.9706,-82.447859
4647,21St Av @ 9th St,27.970807,-82.450308
4648,Nebraska Av @  Columbus Dr,27.967035,-82.451267
4643,21St Av @ Franklin Jr High School,27.97045,-82.415245
4644,21St Av @ 32nd St,27.970466,-82.42408
4645,21St Av @ 13th St,27.970594,-82.445264
4681,Fowler Av @ 14th St,28.054313,-82.444906
4680,Fowler Av @ Nebraska Av,28.05445,-82.451995
4684,22nd St @ Worthing Square Apts,28.063594,-82.434485
4683,22nd St @ 12401 University  Village,28.061566,-82.434495
4682,Fowler Av @ 15th St,28.054343,-82.442292
4677,Country Club Dr @ Ola Av,28.054564,-82.463567
4678,Fowler Av @ Florida Av,28.054474,-82.45857
4675,N Boulevard @ Newport Circle,28.042004,-82.467628
4676,N Boulevard @ 113th Av,28.050875,-82.46761
4679,Fowler Av @ 325,28.054502,-82.45707
4672,N Boulevard @ Fairyland,28.016322,-82.467731
4671,N Boulevard @ Picnic Area North,28.014852,-82.467789
4674,N Boulevard @ Perdiz St,28.038381,-82.467647
4673,N Boulevard @ Chamberlain High,28.034506,-82.467686
4666,Rome Av @ Johnston Av,27.984784,-82.476477
4667,Rome Av @ School Light,27.986715,-82.476361
4668,Rome Av @ Bedingfeild Dr,27.992058,-82.476201
4669,Rome Av @ Clifton St,28.000671,-82.476053
7535,Super Wal-Mart @ Gibsonton Dr,27.848114,-82.353265
7536,Progress Blvd @ 83Rd St,27.899017,-82.364344
7539,Main St @ Rome Av,27.957162,-82.477026
7541,Waters Av @ Himes Av,28.025599,-82.501356
7540,Main St @ Rome Av,27.95699,-82.476388
7543,Erindale Dr @ Wrencrest Cr,27.884354,-82.239965
7542,Busch Blvd @ Armenia Av,28.033269,-82.48389
7545,Cypress St @ Renellie St,27.952154,-82.523333
7544,Erindale Dr @ Wrencrest Cr,27.884436,-82.240157
7548,Duncan Rd @ Bloomingdale Av,27.893281,-82.330809
7549,Gornto Lake Rd @ Bloomingdale Av,27.894078,-82.330616
7546,Westshore Blvd @ Cypress St,27.952669,-82.523992
7547,Hillsborough Av @ Armenia Av,27.996194,-82.48457
4689,22nd St @ 142nd Av,28.075519,-82.434433
4688,22nd St @ 140th Av,28.073645,-82.434444
7556,Pebble Beach Bl @ Sun City Ctr Pz,27.71421,-82.352148
7554,7th St @ Sr 674,27.712537,-82.303769
7517,E Stuart St @ S 24th St,27.94716,-82.43276
7518,S 26th St@ E Corrinne St Desoto Pk,27.948292,-82.430056
7519,N 26th St @ E Corrinne St,27.948763,-82.430613
7513,E Stuart St @ S 24th St,27.947377,-82.432628
7514,S 22nd St @ E Linsey St,27.946608,-82.434815
7515,S 22nd St @ E Gordon St,27.944887,-82.434795
7516,S 22nd St @ E Stuart St,27.944995,-82.434612
7521,E Durham St @ N 22nd St,27.950874,-82.434713
7520,N 26th St @ E Marconi St,27.950095,-82.430583
7523,Crossroads United Methodist Pnr,28.172537,-82.382659
7522,Southshore  Regional Library,27.739308,-82.368917
7528,Williams Rd @ Black Swan Ct,27.977171,-82.318641
7526,Williams Rd @ Williams Landing Cr,27.977397,-82.318833
7527,Lakewood Dr @ thomas St,27.980802,-82.310614
7524,Bloomingdale @ Van Gogh Cr,27.893702,-82.289236
7525,Bloomingdale Ave @ Van Gogh Cr,27.893539,-82.289034
7533,Victorious Life Church Pnr,28.248141,-82.355116
7532,Hillsborough Av @ Himes Av,27.996221,-82.501659
7531,South 301 Pnr Sr 674  @ Wal-Mart,27.716639,-82.332841
7530,Wimauma Walmart,27.714291,-82.332147
7500,Brandon Blvd @ Kings Av Fs,27.937868,-82.294341
7501,Brandon Blvd @ Caldwell Dr,27.937873,-82.298198
7505,Sr 60 @ Hilltop Rd,27.937521,-82.306185
7504,Sr 60 @ Gornto Lake Rd,27.937454,-82.318424
7503,Sr 60 @ Providence Rd,27.937831,-82.315022
7502,Sr 60 @ Gornto Lake Dr,27.937908,-82.31904
7509,Durham St @ 24th St,27.950693,-82.432597
7508,7th Av @ 34th St,27.960274,-82.422259
7507,Kennedy Blvd @ Moody Av,27.94466,-82.484259
7506,Brandon Blvd @ Clock Tower Dr,27.937872,-82.296801
7511,N 26th St @ Corrinne St,27.948718,-82.430795
7512,S 26th St @ E Stuart St,27.94735,-82.4303
7510,N 26th St @ Marconi St,27.950221,-82.430795
5379,Hillsborough Av @ Ola Av,27.995965,-82.464239
5384,Whiting St @ Franklin St,27.945698,-82.456691
5385,Tampa St @ Brorein St,27.943849,-82.457245
5382,Hillsborough Av @ Market Place,27.995992,-82.431624
5383,Hillsborough Av @ Railroad Crossing,27.995998,-82.429114
5380,Hillsborough Av @ 11th St,27.995994,-82.448125
5381,Hillsborough Av  @ 20th St,27.995992,-82.436884
6770,Hillsborough Av @ Beacon Av,27.995782,-82.472627
6771,Hillsborough Av @ Lee Place,27.995846,-82.469557
2210,Macdill Av @ Prospect Rd,27.930698,-82.4933
5233,Anderson Rd @ 8130 Nu Air,28.022241,-82.535248
7496,Florida Av @ 131St Av,28.065412,-82.459262
7499,Brandon Blvd @ Knights Av,27.937863,-82.290363
5231,Anderson Rd @ Pioneer Park Blvd,28.013541,-82.53307
6772,Hillsborough Av @ N Boulevard,27.995946,-82.467704
6773,Macdill Av @ Sea Swallow Av,27.863173,-82.494218
7491,131St Av @ 28th St,28.065613,-82.42831
7490,30th St @ Va Hospital @ Sky Walk,28.064336,-82.426242
7492,131St Av @ 28th St,28.06545,-82.428381
1728,Dale Mabry Hwy @ Corona St,27.913978,-82.50595
1729,Dale Mabry Hwy @ San Luis St,27.9155,-82.505931
1726,Dale Mabry Hwy @ El Prado Blvd,27.911114,-82.506015
2857,Flowers Av @ 79th St,27.894898,-82.367595
1727,Dale Mabry Hwy @ Sevilla St,27.912764,-82.505969
2209,Macdill Av @ Estrella St,27.928478,-82.49336
2859,Flowers Av @ 82nd St,27.894887,-82.365521
2208,Macdill Av @ Angeles St,27.927113,-82.493444
1722,Dale Mabry Hwy @ Gandy Blvd,27.894448,-82.506127
6768,Hillsborough Av @ McKay Av,27.996062,-82.472677
2207,Macdill Av @ San Isidro St,27.925805,-82.493465
6767,Hillsborough Av @ N Boulevard,27.996308,-82.467876
2206,Macdill Av @ San Miguel St,27.924417,-82.493497
1720,Dale Mabry Hwy @ Ballast Point Blvd,27.889882,-82.506174
2205,Macdill Av @ San Jose St,27.92308,-82.493478
1721,Dale Mabry Hwy @ Marlin Av,27.891187,-82.506165
2204,Macdill Av @ Barcelona St,27.921649,-82.493507
5227,Hillsborough Av @ Airport Blvd 5015,27.996353,-82.527679
2202,Macdill Av @ Bay To Bay Blvd,27.920038,-82.49358
2201,Macdill Av @ Mason St,27.917478,-82.493592
5225,Hillsborough Av @ McDonalds 4333,27.996283,-82.51745
6769,Hillsborough Av @ Forest Hills Dr,27.996053,-82.47443
5226,Hillsborough Av @ Sherwin Williams,27.996336,-82.524837
5222,Lois Av @ Woodlawn Av,27.9757,-82.513604
5221,Himes Av @ Heiter St,27.974951,-82.501522
7485,Howard Av @ Kathleen St,27.967177,-82.482701
6781,Hillsborough Loop Dr @Brown Pelican,27.8561,-82.488621
7484,Sheldon Rd @ Old Linebaugh Av F/S,28.040543,-82.582985
2220,Macdill Av @ Horatio St,27.940036,-82.493428
6782,Macdill Av @ Sea Swallow Av,27.863001,-82.494036
5223,Lois Av @ Kentucky Av,27.978336,-82.513566
2221,Macdill Av @ Swann Av,27.937835,-82.493416
6783,Webb Rd @ Town & Country Med Plaza,28.0027,-82.575242
7489,Waters Av @ Benjamin Rd F/S,28.02545,-82.541281
7488,Bloomingdale Av @ Bell Shoals Rd,27.893574,-82.270245
5220,Himes Av @ Ohio Av,27.977338,-82.501493
7487,Bloomingdale Av @ Bell Shoals Rd,27.893737,-82.270296
6786,Channelside Dr @ Jefferson St,27.943482,-82.452116
7482,M L King Jr Blvd @ I-275,27.981576,-82.45278
7481,4th Av @ Republica De Cuba F/S,27.958038,-82.444038
7480,Anderson @ Benjamin @ Green Iguana,28.031192,-82.540335
1717,Dale Mabry Hwy @ Wallace Av,27.88518,-82.506251
1718,Dale Mabry Hwy @ Rogers Av,27.886675,-82.506232
1719,Dale Mabry Hwy @ Paxton Av,27.888279,-82.506193
1713,Dale Mabry Hwy @ Bay Av,27.878975,-82.506327
1714,Dale Mabry Hwy @ Iowa Av,27.880895,-82.506308
1715,Dale Mabry Hwy @ Wisconsin Av,27.881865,-82.506309
1716,Dale Mabry Hwy @ Oklahoma Av,27.883767,-82.50627
2216,Macdill Av @ Cleveland St,27.94336,-82.493197
2215,Macdill Av @ Azeele St,27.94064,-82.493285
2218,Macdill Av @ Cleveland St,27.943089,-82.493379
2842,Sr 674 @ Sheffield St,27.712566,-82.305233
2211,Macdill Av @ Watrous Av,27.932278,-82.493251
2214,Macdill Av @ Horatio St,27.939812,-82.493293
2213,Macdill Av @ Swann Av,27.93725,-82.49325
5253,Armenia Av @ Silver Lake Av,28.022981,-82.484371
5252,Armenia Av @ Windsor Manor Apts,28.026187,-82.484333
5251,Armenia Av @ Skagway Av,28.031751,-82.484192
5250,Armenia Av @ Rambla St,28.034228,-82.484236
5257,N Boulevard @ Warren St,27.968474,-82.467684
5256,N Boulevard @ West St,27.970707,-82.467706
5255,Armenia Av @ Eddy Dr,27.985496,-82.484683
5254,Armenia Av @ Cluster Av,28.012119,-82.484751
2836,Sr 60 @ Limona Rd,27.937519,-82.30409
1704,30th St @ Ellicott St,27.990615,-82.426547
1705,30th St @ Osborne Av,27.98913,-82.426537
2837,Sr 60 @ Pauls Dr,27.937516,-82.302308
1703,30th St @ Wilder Av,27.992426,-82.426547
1708,Dale Mabry Hwy @ Interbay Blvd,27.872389,-82.50618
2839,Sr 60 @ Buckingham Place,27.937491,-82.296487
1706,30th St @ Cayuga St,27.98663,-82.426528
1707,30th St @ Chelsea Av,27.985208,-82.426548
5249,Armenia Av @  Marianna St,28.037217,-82.482889
5248,Armenia Av @ 8411 Windsor Manor,28.028288,-82.484131
2832,Sr 60 @ Providence Rd,27.937498,-82.313835
1700,30th St @ Hillsborough Av Ns,27.996329,-82.426557
1701,30th St @ Hillsborough Av Ss,27.995623,-82.426557
2833,Sr 60 @ Lakewood Dr,27.937482,-82.311226
5240,N Boulevard @ Warren Av,27.968436,-82.46761
5242,N Boulevard @ Plymouth St,27.973697,-82.467617
6763,Westfield Citrus Park,28.066258,-82.5769
5241,N Boulevard @ Braddock St,27.9718,-82.46762
6764,Westfield Citrus Park,28.065943,-82.575536
5244,N Boulevard @ Indiana Av,27.977748,-82.467613
5243,N Boulevard @ Peninsular St,27.97584,-82.467601
5246,Armenia Av @ Crest Av,27.993709,-82.484411
5245,Armenia Av @ Wilder Av,27.992212,-82.484443
2827,Sr 60 @ Currie Davis Dr,27.949385,-82.346734
2826,Sr 60 @ Ware Blvd,27.94953,-82.347503
2825,Sr 60 @ Buick Dealer (Wayne Pl),27.94956,-82.350389
2824,Sr 60 @ Us Hwy 301,27.94939,-82.35289
2829,Sr 60 @ Falkenburg Rd F/S,27.943459,-82.334754
2828,Sr 60 @ Burger King(Phillip Lee Bl),27.946708,-82.341604
5238,N Boulevard @ Arch St,27.954028,-82.468351
5239,N Boulevard @ Orient St,27.980817,-82.467663
2822,Sr 60 @ Wayne Place,27.949886,-82.350358
2821,Sr 60 @ Ware Blvd,27.949892,-82.347483
2820,Sr 60 @ Currie Davis Dr  (Pontiac),27.949825,-82.346995
2253,Macdill Av @ Tyson Av,27.886249,-82.49394
2252,Macdill Av @ Pearl Av,27.887223,-82.493939
2251,Macdill Av @ Paxton Av,27.88827,-82.49395
3387,Puritan Rd @ Tierra Verde Dr,28.02033,-82.394516
2250,Macdill Av @ Ballast Point Blvd,27.889771,-82.493918
3380,Plant Av @ Kennedy Blvd,27.945742,-82.462657
7456,Dover Park-N-Ride,27.938195,-82.220798
2248,Macdill Av @ Gandy Blvd,27.893863,-82.493887
2249,Macdill Av @ Paul Av,27.891692,-82.493761
2893,Us Hwy 41 @ 4th Av,27.715849,-82.433928
2246,Macdill Av @ Oakellar Av,27.89644,-82.493875
0600,Florida Av @ 124th Av,28.059992,-82.459287
3378,Plant Av @ Brorein St,27.943118,-82.462665
2894,Us Hwy 41 @ Shell Point Rd,27.720615,-82.4339
0601,Florida Av @ 127th Av,28.062348,-82.459277
3377,Plant Av @ Platt St,27.941895,-82.462685
2896,Us Hwy 41 @ 7th Av,27.724041,-82.433646
2245,Macdill Av @ Alline Av,27.898286,-82.493849
0605,Florida Av @ Fletcher Av,28.069922,-82.459273
0602,Florida Av @ 130th Av,28.06427,-82.459272
0608,Florida Av @ 143Rd Av,28.07667,-82.459356
0606,Florida Av @ 138th Av,28.072032,-82.459305
7441,Gulf To Bay Blvd @ Us Hwy 19,27.960399,-82.727877
7442,Gulf To Bay Blvd @ Park Place Blvd,27.960485,-82.725415
3398,Republica De Cuba @ 14th Av,27.964333,-82.444322
2890,Us Hwy 301 @ Moody Rd,27.870548,-82.326752
2265,Interbay Blvd @ Trask St,27.865974,-82.522439
2264,Interbay Blvd @ 8015,27.86595,-82.52012
7440,Gulf To Bay Blvd @ Bypass Dr,27.960393,-82.733203
7445,Bayview Av @ Carolina Av,27.960974,-82.712691
3393,Puritan Rd @ Pine Hill Dr,28.02023,-82.39652
7446,Bayview Av @ Tanglewood Dr,27.964913,-82.712794
3394,Puritan Rd @ 56th St,28.020211,-82.39425
2261,Macdill Av @ N Adams St,27.870801,-82.494142
7443,Orient Rd @ Tampa Bay Tech,28.008572,-82.373264
2260,Macdill Av @ Hartnett Av,27.872273,-82.494082
3392,Puritan Rd @ 53Rd St,28.020221,-82.397827
7444,Orient Rd @ Tampa Bay Tech,28.008407,-82.373127
7439,S Old Coachman Rd @ Nash St,27.96422,-82.73403
7438,Drew St @ Us Hwy 19,27.968072,-82.727184
7437,Fletcher Av @ 53Rd St,28.069064,-82.395695
2255,Macdill Av @ Wyoming Av,27.882705,-82.49395
2256,Macdill Av @ Interbay Blvd,27.880315,-82.494011
0610,Florida Av @ 145th Av,28.0785,-82.459422
0611,Florida Av @ Garland Ct,28.080365,-82.45945
0612,Florida Av @ April  Lane,28.082121,-82.459483
3388,Puritan Rd @ Pine Hill Dr,28.020318,-82.39617
0616,Florida Av @ Siobhan Av,28.083888,-82.459668
7470,Cass St @ Governor St,27.953065,-82.453575
7471,Florida Keys @ Seminole Indian Pl,27.852638,-82.491329
6797,Northbridge Blvd @ Woodbrier Ct,28.018792,-82.575561
7477,Boyette Rd @ McMullen Rd,27.853481,-82.304213
3360,Main St @ Delaware Av,27.957087,-82.470276
7479,Anderson @ Benjamin @ Green Iguana,28.031247,-82.53992
3361,Main St @ Willow Av,27.957109,-82.472253
7472,Hillsborough Loop Dr @Brown Pelican,27.855638,-82.48942
3362,Main St @ Oregon Av,27.957129,-82.474456
7473,Florida Keys @ Seminole Indian Pl,27.852484,-82.491774
2231,Macdill Av @ Crosstown Expwy,27.918487,-82.493738
2230,Macdill Av @ Bay To Bay Blvd,27.919891,-82.493698
7474,Cypress St @ Reo St,27.952288,-82.53605
3364,Main St @ Fremont Av,27.957167,-82.478642
7475,Cypress Point  Park,27.950443,-82.542274
3365,Main St @ Albany Av,27.957176,-82.480708
2224,Macdill Av @ Prospect Rd,27.930888,-82.493473
5205,Davis Blvd @ Adriatic Av,27.933114,-82.457064
2222,Macdill Av @ Parkland Blvd,27.934556,-82.493414
5204,Hyde Park Av @ Cleveland St,27.943788,-82.463991
2223,Macdill Av @ Watrous Av,27.932573,-82.493403
5203,Kennedy Blvd @ Franklin St,27.947639,-82.45813
2228,Macdill Av @ Palmira St,27.922663,-82.49367
5209,22nd St @ Oakwood Av,27.939724,-82.434592
2229,Macdill Av @ Granada St,27.921196,-82.493689
3359,Main St @ N Boulevard,27.957073,-82.468707
7469,Cass St @ Governor St,27.952911,-82.453454
5208,22nd St @ Hemlock Av,27.938555,-82.43464
2226,Macdill Av @ San Isidro St,27.925978,-82.493601
2227,Macdill Av @ San Miguel St,27.924674,-82.493631
0629,Florida Av @ 122nd Av,28.05773,-82.459449
0626,Florida Av @ 131St Av,28.065111,-82.459424
0624,Florida Av @ Fletcher Av,28.070601,-82.459446
0625,Florida Av @ Prince St,28.066988,-82.459435
7460,Grand Regency Blvd @ Hsbc,27.94871,-82.32549
7467,Henderson Rd @ Americas Cup Av,28.053803,-82.549698
3371,Main St @ Oregon Av,27.956945,-82.474272
7468,Henderson Rd @ Americas Cup Av,28.05392,-82.549871
3372,Main St @ Willow Av,27.956919,-82.473087
7466,Bruce B Downs @ Commerce Palms Pnr,28.114878,-82.378873
7463,Culbreath @ Bloomingdale Pnr,27.890744,-82.246657
7464,Citrus Park Dr @ Plaza @ Citrus Pk,28.065947,-82.572423
3376,Plant Av @ Beach Place,27.940304,-82.462761
7461,Grand Regency Blvd @ Hsbc,27.946493,-82.325943
2243,Macdill Av @ Lawn Av,27.901593,-82.493899
7462,Culbreath Rd @ Bloomingdale Av,27.891532,-82.246828
2242,Macdill Av @ Wallcraft Av,27.90336,-82.49389
3374,Main St @ N Boulevard,27.95692,-82.468784
5202,Kennedy Blvd @ Pierce St,27.948735,-82.454941
3369,Main St @ Fremont Av,27.957034,-82.478909
2863,Us Hwy 301 @ Balm Riverview Rd,27.865568,-82.326496
0632,Florida Av @ 109th Av,28.047393,-82.459491
3368,Main St @ Albany Av,27.957043,-82.480985
0633,Florida Av  @ Bougainvillea Av,28.043663,-82.4595
3367,Main St @ Howard Av,27.95706,-82.483324
2236,Macdill Av @ El Prado Blvd,27.911684,-82.493764
0634,Florida Av @ Linebaugh Av,28.040013,-82.4596
3366,Main St @ Howard Av,27.957207,-82.48272
2237,Macdill Av @ Euclid Av,27.908822,-82.493803
6798,Northbridge Blvd @ Woodgrove Cr,28.020486,-82.575493
2864,Us Hwy 301 @ Riverview Dr,27.871499,-82.326561
7459,78th St @ Harney Rd,28.023566,-82.368865
7458,Southshore Regional Service Center,27.715486,-82.393623
0639,Florida Av @ Wood St,28.027073,-82.459668
0647,Florida Av @ Sligh Av,28.010972,-82.459593
0646,Florida Av @ Hamilton Av,28.014407,-82.459552
0649,Florida Av @ Knollwood St,28.008105,-82.459531
0648,Florida Av @ Hiawatha St,28.009566,-82.459566
0640,Florida Av @ Bird St,28.022509,-82.459576
0643,Florida Av @ Kirby St,28.017719,-82.459585
2289,Henderson Av @ Florida Av,27.95944,-82.459611
0642,Florida Av @ Hollywood St,28.019675,-82.459575
0645,Florida Av @ Flora St,28.012616,-82.459549
0644,Florida Av @ Broad St,28.016315,-82.459585
3334,Spruce St @ Grady Av,27.959521,-82.509192
3343,Spruce St @ Marie Av,27.959377,-82.504487
3342,Spruce St @ Dale Mabry Hwy,27.959384,-82.506431
3341,Spruce St @ Grady Av,27.959365,-82.508962
2297,Platt St @ Westland Av,27.941808,-82.48205
3340,Spruce St @ Clark Av,27.959363,-82.511474
0657,Florida Av @ Wilder Av,27.992588,-82.459488
0652,Florida Av @ Hanna Av,28.003503,-82.459506
3348,Livingston Av @ Bearss Av,28.081024,-82.430772
1799,Dale Mabry Hwy @ Laurel St,27.955577,-82.505709
0651,Florida Av @ Fern St,28.005118,-82.459526
3349,Livingston Av @ Irene St,28.081729,-82.43076
0650,Florida Av @ North St,28.00609,-82.4596
1797,Dale Mabry Hwy @ Cherry St,27.961223,-82.505675
1798,Dale Mabry Hwy @ Spruce St,27.958866,-82.505709
0656,Florida Av @ Hillsborough Av,27.995439,-82.459505
3344,Spruce St @ Sterling Av,27.959341,-82.502695
1796,Dale Mabry Hwy @ Palmetto St,27.964285,-82.505643
0654,Florida Av @ Henry Av,27.999515,-82.459479
0653,Florida Av @ Idlewild Av,28.00185,-82.459487
3350,Livingston Av @ 149th Av,28.086411,-82.430721
3319,Howard Av @ Jetton Av,27.932985,-82.483129
0668,22nd St @ M L King Jr Blvd,27.981308,-82.434744
2267,Interbay Blvd @ Westshore Blvd,27.86601,-82.526837
3313,Howard Av @ IVy St,27.969505,-82.482747
0665,22nd St @ 26th Av,27.974459,-82.434672
2266,Interbay Blvd @ Sparkman Av,27.865975,-82.524449
0664,22nd St @ 23Rd Av,27.972249,-82.434662
2269,Interbay Blvd @ Sparkman St,27.865853,-82.524654
3311,Howard Av @ St Louis St,27.965084,-82.48278
0667,22nd St @ Lake Av,27.97733,-82.434682
2268,Interbay Blvd @ Fitzgerald St,27.865861,-82.526333
3312,Howard Av @ Aileen St,27.968045,-82.482755
0661,22nd St @ 17th Av,27.96772,-82.434662
3317,Howard Av @ Bristol Av,27.93523,-82.48306
3318,Howard Av @ Morrison Av,27.933864,-82.483119
0663,22nd St @ 21St Av,27.970229,-82.434672
0662,22nd St @ 19th Av,27.968716,-82.434642
3316,Howard Av @ Swann Av,27.936727,-82.483071
2270,Interbay Blvd @ Trask St,27.865836,-82.522732
2272,Idaho St @ Kissimmee St,27.859648,-82.528483
0670,22nd St @ North Bay St,27.983189,-82.434641
3321,Howard Av @ Southview Av,27.929756,-82.483242
2274,Idaho St @ Sherrill St,27.859661,-82.53095
3320,Howard Av @ Watrous Av,27.932097,-82.483169
2276,Idaho St @ O'Brien St,27.859676,-82.532537
1779,Dale Mabry @ Ehrlich @ South Trust,28.08287,-82.50603
0679,22nd St @ Idlewild Av,28.001628,-82.43466
3322,Howard Av @ Mississippi Av,27.928565,-82.483309
1774,Dale Mabry Hwy @ Mapledale Blvd,28.098692,-82.502451
0677,22nd St @ Henry Av,27.999418,-82.43462
1771,Dale Mabry Hwy @ North Lakeview Dr,28.103287,-82.502123
2278,Henderson Blvd @ Hubert Av,27.924542,-82.516353
2277,Commerce St @ Westshore Blvd,27.865425,-82.527121
3325,Howard Av @ Palm Dr,27.926333,-82.483625
0675,22nd St @ Hillsborough Av,27.996593,-82.43463
1777,Dale Mabry @ Carrollwood Springs Bl,28.088733,-82.503636
0674,22nd St @ Mc Berry St,27.993595,-82.434671
3326,Hyde Park Av @ Kennedy Blvd,27.945282,-82.463951
1778,Dale Mabry Hwy @  Ehrlich Rd(15042),28.086791,-82.504429
0672,22nd St @ Cayuga St,27.986431,-82.434651
3328,Hyde Park Av @ Platt St,27.941886,-82.464001
0671,22nd St @ Chelsea St,27.984892,-82.434661
3329,Hyde Park Av @ Azeele St,27.940618,-82.464031
0680,22nd St @ Hanna Av,28.003231,-82.43464
2282,Henderson Blvd @ Hubert Av,27.924986,-82.51612
2283,Henderson Av @ Nebraska Av,27.959653,-82.450978
0681,22nd St @ Fern St,28.00468,-82.434619
2281,Henderson Blvd @ Sterling Av,27.935719,-82.503801
3332,Spruce St @ Dale Mabry Hwy,27.959523,-82.506675
3331,Spruce St @ Sterling Av,27.959469,-82.503062
2811,Sr 60 @ Lakeside Dr,27.937513,-82.299524
0682,22nd St @ Diana St,28.00689,-82.434629
1764,Dale Mabry Hwy @ Handy Rd,28.074687,-82.506681
0683,22nd St @ Sligh Av,28.010376,-82.434599
1767,Dale Mabry Hwy @ Bearss Av,28.086872,-82.503997
1766,Dale Mabry Hwy @ Medical Dr,28.076506,-82.506694
0685,22nd St @ Busch Blvd,28.033278,-82.434547
0687,22nd St @ Okara Rd,28.036891,-82.434547
1763,Dale Mabry Hwy @ Moran Rd,28.06915,-82.505863
0688,22nd St @ Linebaugh Av,28.03968,-82.434557
1762,Dale Mabry Hwy @ Fletcher Av,28.06639,-82.504905
0689,22nd St @ Poinsettia Av,28.041591,-82.434547
2819,Sr 60 @ Phillip Lee Bl (9938),27.949262,-82.34521
2817,Sr 60 @ Grand Regency Blvd,27.938935,-82.322339
2818,Sr 60 @ Falkenburg Rd,27.944655,-82.336613
2813,Brandon Blvd @ Hilltop Rd,27.937902,-82.305977
0690,22nd St @ Bougainvillea Av,28.043411,-82.434536
0692,22nd St @ 111th Av,28.049016,-82.434526
0691,22nd St @ 109th Av,28.047024,-82.434526
1756,Dale Mabry Hwy @ 11007,28.049276,-82.504196
0695,22nd St @ Fowler Av,28.053675,-82.434559
3305,Howard Av @ Platt St,27.94168,-82.482891
1755,Dale Mabry Hwy @ Floyd  Rd,28.047308,-82.504338
3304,Howard Av @ Azeele St,27.94082,-82.48292
2800,Providence Rd @ Hannaway Dr,27.875494,-82.318522
1754,Dale Mabry Hwy @ Lake Carroll Way,28.043554,-82.504562
0693,22nd St @ 113th Av,28.050682,-82.434526
3307,Howard Av @ Walnut St,27.959921,-82.482848
2801,Providence Rd @ Dianne Cove,27.872242,-82.318516
3306,Howard Av @ Chestnut St,27.958519,-82.482876
3301,Howard Av @ Swann Av,27.937179,-82.482898
1751,Dale Mabry Hwy @ Cherry St,27.961525,-82.505435
3300,Howard Av @ Bristol Av,27.935023,-82.482938
1750,Dale Mabry Hwy @ Walnut St,27.960182,-82.50545
3303,Howard Av @ Horatio St,27.939633,-82.48291
0698,22nd St @ 131St Av,28.065299,-82.434529
3302,Howard Av @ Deleon St,27.938465,-82.482899
3309,Howard Av @ Beach St,27.962927,-82.482813
2803,Riverview Dr @ North St,27.871725,-82.320975
3308,Howard Av @ Cherry St,27.961466,-82.482826
2804,Riverview Dr @ Capitano St,27.871738,-82.323398
2805,Riverview Dr @ Us Hwy 301,27.871157,-82.326718
1757,Dale Mabry @ Hudson Ln @ Taco Bell,28.051043,-82.504041
3310,Howard Av @ St John St,27.964404,-82.482793
1741,Dale Mabry Hwy @ Dale Av,27.939277,-82.505626
1740,Dale Mabry Hwy @ Swann Av,27.937421,-82.505654
1743,Dale Mabry Hwy @ Cleveland St,27.942837,-82.505598
1742,Dale Mabry Hwy @ Azeele St,27.941026,-82.505627
1745,Dale Mabry Hwy @ North B St,27.947172,-82.505545
1744,Dale Mabry Hwy @ Kennedy Blvd,27.944521,-82.505604
1747,Dale Mabry Hwy @ Cass St,27.950095,-82.505521
1746,Dale Mabry Hwy @ Gray St,27.948867,-82.505536
1749,Dale Mabry Hwy @ Chestnut St,27.958316,-82.505468
1748,Dale Mabry Hwy @ Cypress St,27.951912,-82.5055
1730,Dale Mabry Hwy @ Obispo St,27.916895,-82.505902
1734,Dale Mabry Hwy @ San Carlos St,27.923625,-82.505795
1733,Dale Mabry Hwy @ Barcelona St,27.921741,-82.505845
1732,Dale Mabry Hwy @ Bay To Bay Blvd,27.91944,-82.505863
1731,Dale Mabry Hwy @ San Juan St,27.91829,-82.505882
1738,Dale Mabry Hwy @ Jetton Av,27.932665,-82.505681
1736,Dale Mabry Hwy @ Neptune St,27.930718,-82.50572
1739,Dale Mabry Hwy @ Inman Av,27.935283,-82.505663
4520,Dale Mabry Hwy @ Credit Union,27.869807,-82.506168
4513,Palm Dr @ Ysabella Av,27.923245,-82.489233
4512,Palm Dr @ Carolina Av,27.92411,-82.48688
4511,Palm Dr @ Ardson Av,27.925303,-82.48525
4510,Palm Dr @ Alabama Av,27.926144,-82.483913
4517,Dale Mabry Hwy @ Credit Union,27.870204,-82.506467
4516,Dale Mabry Hwy @ Ballast Point Blvd,27.889639,-82.506489
4514,Ysabella Av @ Rubideaux St,27.921877,-82.490007
4508,Howard Av @ Marjory Av,27.93096,-82.48319
4507,Swann Av @ Rome Av,27.937426,-82.477017
4509,Howard Av @ Hills Av,27.928142,-82.483313
4501,Nebraska Av @ 12th  Av,27.96373,-82.451263
4504,Nebraska Av @ Whitehead Ct,27.954684,-82.451305
4560,40th St @ Jean St,28.003907,-82.414287
4564,40th St @ Nursing Home,27.991703,-82.414201
4563,40th St@ Comanche Av,27.997604,-82.414238
4562,40th St@ Clifton St,28.000258,-82.414268
4561,40th St @ Paris St,28.002757,-82.414298
4556,40th St @ Jackson Place,28.019982,-82.414364
4557,40th St @ River Pine Dr,28.017745,-82.414233
4559,40th St @ Flora St,28.013262,-82.414984
4551,Alumni Dr @ Laurel Dr,28.058051,-82.417802
4540,40th St @ Humphrey  St,28.030549,-82.416223
4539,40th St @ Hutton Place,28.013724,-82.414609
4536,40th St @ Conover St,27.993864,-82.413905
4537,40th St @ Jean St,28.003944,-82.414105
1695,30th St @ Hanna Av,28.003593,-82.426606
4534,34th St @ Palifox St,27.986808,-82.42241
4535,40th St @ Trailer Park,27.991609,-82.413971
1697,30th St @ Henry Av,27.999502,-82.426527
4532,Columbus Dr @ 33Rd St,27.966641,-82.423189
4533,34th St @ Columbus Dr,27.967103,-82.422298
4531,22nd St @ 13th Av,27.964197,-82.434652
4530,Henderson Av @  Nebraska Av,27.959623,-82.450488
4525,Palm Dr @ Howard Av,27.9264,-82.483257
4526,Howard Av @ Jetton Av,27.932913,-82.482947
4527,Swann Av @ Melville Av,27.937243,-82.479619
4521,Dale Mabry Hwy @ Mango Av,27.875288,-82.506243
4523,Palm Dr @ Maryland Av,27.923943,-82.48694
4524,Palm Dr @ Ardson Place,27.925076,-82.485281
7400,Falkenburg Rd @ Queen Palm Dr,27.975431,-82.334887
7402,Falkenburg Rd @ Princess Palm Av,27.978766,-82.33517
7401,Falkenburg Rd @ Princess Palm Av,27.978882,-82.334924
4589,Sligh Av @ 51St St,28.010767,-82.39926
7407,N 42nd St @ Hellenic Dr,28.078251,-82.414225
7408,N 42nd St @ Vanderbilt Dr,28.076159,-82.414134
4587,56th St @ Diana St,28.007097,-82.393325
7405,Bruce B Downs Blvd @ N 37th St,28.080509,-82.41816
7406,Skipper Rd @ 42nd St,28.080382,-82.414472
7403,Falkenburg Rd @ Queen Palm Dr,27.974526,-82.335223
7404,Anderson Rd @ Waters Av,28.024847,-82.537339
4592,56th St @ Temple Terrace Shops,28.033757,-82.393311
7413,Orient Rd @ Park East Blvd,28.000376,-82.37322
4593,56th St @ Temple Hieghts Rd,28.035985,-82.39332
7412,Sligh Av @ Orient Rd,28.010655,-82.373476
4590,Purtian Rd @ Whittier St,28.020222,-82.40036
7411,Harney Rd @ Sligh Av N/S,28.011752,-82.375927
4591,56th St @ Temple Terrace Plaza,28.032164,-82.393322
4596,Fowler Av @ 52nd St,28.05457,-82.397453
7414,Orient Rd @ Hillsborough Av N/S,27.996857,-82.373114
7415,Orient Rd @ Hillsborough Av F/S,27.996663,-82.37297
7416,Orient Rd @ Park East Blvd,28.000348,-82.373081
7417,Orient Rd @ Sligh Av N/S,28.010591,-82.37315
7418,Sligh Av @ Harney Rd,28.01081,-82.376029
4579,50th St @  M L King Jr Blvd,27.981969,-82.401218
2785,Providence Rd @ Providence Ridge Bl,27.907135,-82.318831
2790,Providence @ Providence Bapt Church,27.897608,-82.318652
2791,Providence Rd @ Providence Oaks Dr,27.896176,-82.318624
4584,56th St @ Hillsborough Av,27.997072,-82.39331
2792,Providence Rd @ Bloomingdale Av Fs,27.893531,-82.318587
4585,56th St @ Henry Av,28.00016,-82.393319
2793,Providence Rd @ Watermark 6000,27.891026,-82.318577
4586,56th St @ 5805 Hanna Av,28.00151,-82.393308
7421,N 42nd St @ Reuter Strasse Cr,28.07831,-82.414113
4580,56th St @ Commerce Park Blvd,27.986459,-82.394937
7424,Bruce B Downs @ Lake Forest Dr,28.080746,-82.420958
4581,56th St @ Cone Rd,27.992942,-82.393282
7423,Bruce B Downs Blvd @ N 37th St,28.080805,-82.417712
4582,Hillsborough Av @ 56th St,27.996004,-82.392373
7427,Bruce B Downs Blvd @ Lake Forest Dr,28.080519,-82.422141
7428,N 42nd St @ Rocinante Blvd,28.072556,-82.414125
2799,Providence Rd @ Desoto Rd,27.877261,-82.318529
2798,Providence Rd @ Hackney Dr,27.879011,-82.318459
7426,Bruce B Downs Bl @ Tower Diagnostic,28.077143,-82.426027
4569,21St Av @ 23Rd St,27.970365,-82.433254
2797,Providence Rd @ Mahin Lane,27.880588,-82.318454
2796,Providence Rd @ Roberts Lane,27.882005,-82.318485
4567,34th St @ 32nd Av,27.979209,-82.422495
2795,Providence Rd @ Watson Rd,27.88653,-82.318516
4566,Osborne Av @ Webster St,27.98882,-82.421424
4565,Osborne Av @ Troy St,27.988813,-82.420046
7431,Bruce B Downs Bl @ Barnhard (Ntic),28.077303,-82.426335
7430,N 42nd St @ Winding Moss Trail,28.076111,-82.414026
4572,21St Av @ 38th St,27.970308,-82.417345
4573,21St Av @ 42nd St,27.970338,-82.412409
7435,Bloomingdale @ Duncan Rd Home Depot,27.89351,-82.332964
4570,21St Av @ 31St St,27.970346,-82.425943
4571,21St Av @ 35th St,27.970345,-82.420454
7433,Bruce B Downs Bl @ Medical Park Dr,28.070736,-82.426213
7432,Oakfield Dr @ Bob Dykes Dr,27.93414,-82.2993
5260,Orient Rd @ 14th Av,27.964818,-82.37297
5263,Broadway Av @ 50th St Es,27.962008,-82.401521
5264,18th Av @ 34th St,27.968269,-82.421893
5261,Broadway Av @ 71St St,27.966868,-82.375059
5262,Broadway Av @ 70th St,27.966815,-82.376503
5267,Himes Av @ Leroy St,27.972154,-82.501551
5268,Columbus Dr @ Gomez Av,27.966593,-82.491237
5265,17th Av @ 15th St,27.96732,-82.44334
5266,Columbus Dr @ Grove Dr,27.966892,-82.454332
5270,Broadwy Av @ 58th St,27.96472,-82.389784
5271,Broadway Av @ 68th St,27.966698,-82.379504
5272,Broadway Av @ Locicero Dr,27.966697,-82.377975
5274,Orient Rd @ Waycross Av,27.976458,-82.372975
5275,Orient Rd @ Delano Av,27.978182,-82.373032
5276,Orient Rd @ I-4 Fairground Entrance,27.988367,-82.373037
5277,Orient Rd @ Seminole Complex,27.992486,-82.37298
5281,Hillsborough Av @ Walton Way,27.996341,-82.380462
5282,Hillsborough Av @ 39th St,27.996146,-82.415434
5280,Hillsborough Av @ 6804,27.99634,-82.377852
5285,Hillsborough Av @ 9th Av,27.99614,-82.449632
5286,Hillsborough Av @ Highland Av,27.996346,-82.461808
5283,Hillsborough Av @ Railroad Crossing,27.996149,-82.4292
5284,Hillsborough Av @ 24th St,27.996131,-82.432361
5290,Hillsborough Av  @ Mendenhall Dr,27.996078,-82.478532
5292,Hillsborough Av @ Howard Av,27.996122,-82.481814
5293,Hillsborough Av @ Gomez Av,27.996191,-82.490708
5299,Hillsborough Av @ 7023,27.996661,-82.559418
5294,Hillsborough Av @ Matanzas Av,27.996198,-82.495186
5295,Hillsborough Av @ 3909,27.996203,-82.507826
5296,Hillsborough Av @ 4021,27.996235,-82.51127
3477,Yukon St @ 28th St,28.028868,-82.428822
3479,Yukon St @ Ruth Place,28.028867,-82.427261
7338,Westshore Plaza Transfer Center,27.948825,-82.525819
7346,M L King Jr Blvd @ Burdines Dr,27.981414,-82.495843
7340,Citrus Park Dr @ Sheldon Rd,28.065771,-82.580681
7341,Sheldon Rd @ Citrus Park Dr,28.064512,-82.582346
0968,N Boulevard @ 116th Av,28.053522,-82.46751
0965,N Boulevard @ Seneca Av,28.045372,-82.467609
0966,N Boulevard @ 109th Av,28.047183,-82.467589
0960,N Boulevard @ Patbur Av,28.03667,-82.467657
0963,N Boulevard @ Bougainvillea Av,28.043525,-82.467608
0961,N Boulevard @ Linebaugh Av,28.039767,-82.467637
7330,Boyette Rd @ Us Hwy 301,27.857021,-82.325384
7331,Boyette Rd @ Us Hwy 301,27.857184,-82.325303
7332,Hillsborough Av @ 59th St,27.99632,-82.39047
7333,Hillsborough Av @ 59th St,27.99602,-82.389158
7335,Westshore Plaza,27.94881,-82.525601
7336,Elliott St @ Bradley St,27.860808,-82.533316
7316,Super Walmart @ Henderson Rd,28.062226,-82.550374
5129,Dale Mabry Hwy @ Cypress Meadows Dr,28.111354,-82.502617
0941,N Boulevard @ Laurel St,27.955358,-82.468326
5126,Lumsden Rd @ Kensington Ridge Blvd,27.923421,-82.313419
0947,N Boulevard @ Lowry Ln,28.013555,-82.467719
0944,N Boulevard @ Virginia Av,27.97963,-82.46762
0943,N Boulevard @ West St,27.970491,-82.467619
7392,Henderson Rd @ Cedar Creek Blvd,28.059903,-82.549782
7391,Henderson Rd @ Cedar Creek Blvd,28.059888,-82.549625
7394,Henderson Rd @ Palmview Ct,28.050226,-82.549896
5132,Fletcher Av @ Greentree Dr,28.06922,-82.47829
7399,Sligh Av @ Hesperides St,28.010699,-82.518994
5131,Dale Mabry Hwy @ Northdale Blvd,28.092841,-82.502507
5130,Dale Mabry Hwy @ Carrollwood Place,28.107285,-82.502575
7396,Anderson Rd @ Benjamin Rd,28.027309,-82.538669
7395,Henderson Rd @ Airview Dr,28.04635,-82.549912
7398,Sligh Av @ Renellie Dr,28.010696,-82.523138
5115,Greenhollow Ln @ Bell Shoals Rd,27.885265,-82.26924
0951,N Boulevard @ Hollywood St,28.019437,-82.467681
5116,Greenhollow Ln @ Orangecrest St,27.884835,-82.266287
0950,N Boulevard @ Kirby St,28.017961,-82.467711
5117,Bell Shoals Rd @ Rosemead Ln,27.88752,-82.26919
0953,N Boulevard @ Sitka St,28.021955,-82.467672
5118,Bell Shoals  @ Starwood  @ Sweetbay,27.891769,-82.269197
0952,N Boulevard @ Ola Av,28.020524,-82.467682
5119,Bloomingdale Av @ Bryan Rd,27.893728,-82.277272
0955,N Boulevard @ Waters Av North,28.02613,-82.467613
0954,N Boulevard @ Waters Av South,28.025034,-82.467632
0957,N Boulevard @ Humphrey St,28.030784,-82.467655
0956,N Boulevard @ Yukon St,28.028855,-82.467644
7383,Sligh Av @ Hesperides St,28.010822,-82.519176
7382,N Boulevard @ North B St,27.946622,-82.468546
7381,N Boulevard @ Arch St,27.954361,-82.468508
7380,N Boulevard @ Main St,27.957185,-82.468434
5121,Kings Av @ Echo Dr,27.910143,-82.293858
7389,Henderson Rd @ Palmview Ct,28.049936,-82.549714
5120,Bloomingdale @ Bloomingdale Villas,27.89377,-82.28229
7388,Henderson Rd @ Quail Ridge Dr,28.045499,-82.549738
5123,Kings Av @ Oaks Park Place,27.920594,-82.293783
7387,Linebaugh Av @ Henderson Rd,28.040665,-82.548789
5122,Kings Av @ Tradewind Dr,27.917861,-82.293844
7386,Anderson Rd @ Corp Lake Dr (Amc ),28.034506,-82.541181
5125,Lumsden Rd @ Paddock Club Dr,27.923446,-82.306549
5124,Lumsden Rd @ Brandon Parkway,27.923424,-82.303054
1601,40th St @ Diana St,28.006832,-82.414124
5108,Bell Shoals Rd @ Garnet Dr,27.879305,-82.269383
1600,40th St @ Fern St,28.005067,-82.414178
5106,Bell Shoals @   Starwood  @ Walmart,27.891009,-82.26937
0920,Fletcher Av @ Rome Av,28.069306,-82.47605
5104,Bloomingdale @ Bloomingdale Villas,27.893565,-82.282275
5105,Bloomingdale Av @ Bryan Rd,27.89354,-82.277692
0924,Fletcher Av @ Ola Av,28.069259,-82.46362
0923,Fletcher Av @ N Boulevard,28.069082,-82.467876
1607,40th St @ River Hills Dr,28.02145,-82.415076
0921,Fletcher Av @ Forest Hills Dr,28.069303,-82.473856
0928,Fletcher Av @ Summit Av,28.069201,-82.453374
7370,Ashley Dr @ Jackson St,27.946153,-82.459102
7372,Ashley Dr @ Polk St,27.949812,-82.460662
5114,Natures Way Blvd @ Callista Ln,27.883369,-82.265862
7374,N Boulevard @ North B St,27.946051,-82.468466
5113,Natures Way Blvd @ Dunaire Dr,27.880995,-82.266318
7373,Providence Rd @ Bloomingdale Av Ns,27.893984,-82.318597
5112,Natures Way Blvd @ Elm Grove Ln,27.878704,-82.266108
7376,N Boulevard @ Main St,27.956958,-82.468318
5111,Glenhaven Dr @ Natures Way Blvd,27.876608,-82.265595
7375,N Boulevard @ Cypress St,27.951807,-82.468374
5110,Glenhaven Dr @ Bell Shoals Rd,27.875707,-82.268561
7378,N Boulevard @ Columbus Dr,27.967271,-82.467605
7377,N Boulevard @ Ross Av,27.963072,-82.467643
7379,N Boulevard @ Ross Av,27.963021,-82.46776
0930,Fletcher Av @ Nebraska Av Es,28.069183,-82.45034
5101,Lumsden Rd @ Heather Lakes Bl East,27.923102,-82.30645
5100,Lumsden Rd @ Heather Lakes Bl West,27.923091,-82.312989
5103,Kings Av @ Southwood Cove,27.903477,-82.294038
5102,Lumsden Rd @ Brandon Parkway,27.92305,-82.301775
7369,Ashley Dr @ Zack St,27.949604,-82.460996
7368,Ashley Dr @ Tyler St,27.951261,-82.461695
4043,Broadway Av @ 70th St,27.966697,-82.376608
4047,Busch Blvd @ 30th St,28.03267,-82.427015
4044,Broadway Av @ 50th St Ws,27.961674,-82.402859
4927,Kennedy Blvd @ Parker St,27.94637,-82.461754
4925,Busch Blvd @ N Boulevard,28.033039,-82.467625
1628,40th St @ Humphrey St,28.030767,-82.416438
4926,Yukon St @ Taliaferro Av,28.02928,-82.45336
1629,40th St @ Yukon St,28.02911,-82.416438
4929,Macdill Av @ Stovall St,27.916349,-82.493737
4920,Waters Av @ Hulsey Rd,28.025622,-82.55864
4923,Waters Av @ Fl Orida Mining Blvd,28.025403,-82.533681
4924,Waters Av @ 4030,28.025267,-82.511135
4921,Waters Av @ Jr Manor Dr,28.025597,-82.556704
4936,Macdil Av @ Chapin Av,27.899727,-82.493908
3408,Rome Av @ Powhatan Av,27.999222,-82.476072
4937,Macdill Av @ Leila Av,27.88486,-82.49396
3407,Rome Av @ Comanche Av,27.997555,-82.476061
4938,Macdill Av @ 6207,27.878571,-82.494038
4939,Macdill Av @ 6321,27.876608,-82.49406
3409,Rome Av @ Burke St,28.001776,-82.476053
4027,Nebraska Av @ Fletcher Av,28.0689,-82.45098
4930,Macdill Av @ Academy Of Holy Names,27.915136,-82.493746
4931,Macdill   @ Bayshore Terrace Condos,27.914094,-82.493765
3401,Rome Av @ Wishart Blvd,27.988861,-82.47627
4932,Euclid Av @ Waverly Place,27.90874,-82.49463
3404,Rome Av @ Barr Dr,27.993571,-82.476151
1613,40th St @ Yukon St,28.028395,-82.416266
4933,Euclid Av @ Waverly Cr,27.908567,-82.49696
1612,40th St @ Seward St,28.027227,-82.41633
4934,Macdill Av @ Bay Court Av,27.907173,-82.493801
3406,Rome Av @ Hillsborough Av,27.995029,-82.476101
1611,40th St @ Regnas Av,28.025136,-82.41632
1610,40th St @ Bird St,28.023195,-82.415508
3420,Rome Av @ Burke St,28.001824,-82.476166
4022,17th Av @ 21St St,27.967498,-82.435372
4021,Henderson Av @ Florida Av,27.959575,-82.459303
4020,Waters Av @ Hanley Rd,28.025699,-82.562551
4949,Macdill Av @ Chapin Av,27.899591,-82.493716
1648,40th St @ Ellicott St,27.990768,-82.41421
1647,40th St @ Conover St,27.99346,-82.414197
4947,Bay Haven Dr @ 2821,27.867258,-82.491993
3419,Rome Av @ Hanna Av,28.003519,-82.476159
4948,Macdill Av @ Hartnett Av,27.872215,-82.493951
3418,Rome Av @ North St,28.00618,-82.476148
1649,40th St @ Osborne Av,27.988999,-82.414214
4945,Bayshore Blvd @ MacDill AFB Gate,27.865133,-82.488677
1644,40th St @ Powhattan Av,27.999162,-82.414258
4946,Bay Haven Dr @ Bayshore Blvd,27.867297,-82.48981
4943,Bayshore Blvd @ MacDill AFB Gate,27.864578,-82.488755
4019,Waters Av @ Beasley Rd,28.025748,-82.567547
3414,Rome Av @ Sligh Av,28.010571,-82.476019
1645,40th St @ Hillsborough Av,27.995431,-82.414249
4941,Macdill Av @ Bay Haven Dr,27.867323,-82.49417
4017,Nebraska Av @ Cayuga St,27.986895,-82.451095
3413,Rome Av @ Hiawatha St,28.009011,-82.476026
1640,40th St @ Fern St,28.00513,-82.414307
4942,Bay Haven Dr @ 2826,27.867143,-82.491955
3412,Rome Av @ Lambright St,28.005688,-82.476004
3411,Rome Av @ Hanna Av,28.003188,-82.476044
4015,Tampa St @ Oak Av,27.961133,-82.460989
4940,Macdill Av @ Averill Av,27.874987,-82.494125
4016,Tampa St @ Henderson Av,27.959114,-82.461019
4960,29th St @ 28th Av,27.976521,-82.428021
3431,Rome Av @ Ferris Av,27.982675,-82.47656
4013,Tampa St @ Ross Av,27.963352,-82.460999
4010,Tampa St @ Euclid Av,27.967881,-82.460925
1639,40th St @ River Grove Dr,28.00714,-82.414296
4958,Macdill Av @ Parkland Blvd,27.93462,-82.493232
3429,Rome Av @ Johnston Av,27.985097,-82.476495
1638,40th St @ Norfolk St,28.011542,-82.415197
4959,Kennedy Blvd @ Ashley Dr,27.946823,-82.459973
4954,Macdill Av @ Acadamy Of Holy  Names,27.915036,-82.493564
3426,Rome Av @ Bedingfield Dr,27.99232,-82.476295
4955,Macdill Av @ Stovall St,27.916431,-82.493554
3425,Rome Av @ Alexander Rd,27.994008,-82.476248
1634,40th St @ Hanlon St,28.018442,-82.414232
4956,Macdill Av @ Santiago St,27.91836,-82.493556
1633,40th St @ River Hills Dr,28.021712,-82.415275
4957,Macdill Av @ Granada St,27.920526,-82.493584
3427,Rome Av @ Wishart Blvd,27.98973,-82.476375
1632,40th St @ Bird St,28.023387,-82.415801
4950,Macdill Av @ Tambay Av,27.904809,-82.493668
3422,Rome Av @ Powhatan Av,27.99908,-82.47619
1631,40th St @ Regnas Av,28.024999,-82.416439
4951,Euclid Av @ Waverly Place,27.908577,-82.493985
3421,Rome Av @ Clifton St,28.00051,-82.47632
4005,Tampa St @ Emily St,27.975027,-82.460962
1630,40th St @ Seward St,28.027245,-82.416459
3424,Rome Av @ Hillsborough Av,27.99625,-82.476205
4006,Tampa St @ 26th St,27.974336,-82.460907
4953,Macdill @ Bayshore Terrace Condos,27.91404,-82.493583
3423,Rome Av @ Comanche Av,27.997768,-82.476182
4007,Tampa St @ Adalee St,27.971969,-82.460919
4003,Tampa St @ Indiana Av,27.978153,-82.461145
6263,Gunn Hwy @Plantation/Sugarmill Dr W,28.052839,-82.524964
1670,30th St @ Bougainvillea  Av,28.043362,-82.426114
3434,Rowlett Park Dr @ 22nd St,28.02234,-82.435156
1661,30th St @ Hanna Av,28.003203,-82.426414
3432,Rowlett Park Dr @ Sligh Av,28.011227,-82.430111
1663,30th St @ Fern St,28.004625,-82.426424
1664,30th St @ Diana St,28.006817,-82.426413
3438,Rowlett Park Dr @ Mulberry Dr,28.022728,-82.435581
1665,30th St @ Pocahontas Av,28.008628,-82.426393
1666,30th St @ Sligh Av,28.01052,-82.426372
3439,Rowlett Park Dr @ Sligh Av,28.011371,-82.430315
1667,30th St @ River Forest Cr,28.030318,-82.426361
3436,Rowlett Park Dr @ Waters Av,28.024875,-82.436817
1668,30th St @ Busch Blvd,28.031954,-82.426321
3437,Rowlett Park Dr @ Waters Av,28.024592,-82.43678
1669,30th St @ Annie St,28.036023,-82.426126
6257,Anderson Rd @ Crenshaw St,28.016068,-82.533894
6258,Anderson Rd @ Pioneer Park Blvd,28.013818,-82.533412
6255,Anderson Rd @ Tampa West Blvd,28.019932,-82.534458
1660,30th St @ Paris St,28.002307,-82.426414
3451,South Boulevard @ Platt St,27.941613,-82.468485
6254,Anderson Rd @ 8110,28.022266,-82.535561
3450,South Boulevard @ Azeele St,27.940389,-82.468554
3453,South Boulevard @ Horatio St,27.939933,-82.468643
3452,South Boulevard @ Platt St,27.941974,-82.468599
3443,Seward St @ Branch Av,28.027979,-82.458067
1652,30th St @ Osborne Av,27.988695,-82.426345
3444,Seward St @ Dixon Av,28.02797,-82.457328
1653,30th St @ Ellicott St,27.990434,-82.426365
3445,Skagway Av @ 20th St,28.031893,-82.436594
3446,Skagway Av @ 22nd St,28.031702,-82.434811
1656,30th St @ Hillsborough Av,27.995677,-82.426374
3447,South Boulevard @ Bay St,27.93798,-82.4686
1657,30th St @ Comanche Av,27.997217,-82.426374
1654,30th St @ Wilder Av,27.992254,-82.426365
3449,South Boulevard @ Horatio St,27.9396,-82.468563
6248,Race Track Rd @ McCormick Dr,28.059179,-82.645945
1655,30th St @ Shadowlawn St,27.993712,-82.426365
1658,30th St @ Powhatan Av,27.999155,-82.426374
1659,30th St @ Idlewild Av,28.00112,-82.426394
3464,Ysabella Av @ Palm Dr,27.923109,-82.489257
1691,30th St @ Yukon St,28.029157,-82.426407
3463,Ysabella Av @ Rubideaux St,27.921741,-82.489914
3462,Ysabella Av @ Barcelona St,27.92078,-82.490521
6242,Linebaugh Av @ Sheldon Rd,28.044645,-82.583572
3461,Ysabella Av @ Bay To Bay Blvd,27.919594,-82.491188
1692,30th St @ Diana Ct,28.007161,-82.426531
6244,Mccormick Dr @ 13801,28.060192,-82.645881
6246,Tri-County Business Park,28.064246,-82.644199
1687,30th St @ 97th Av,28.03784,-82.42629
1688,30th St @ Annie St,28.036449,-82.426286
1689,30th St @ Busch Blvd,28.032145,-82.426491
3457,Violet St @ Florida Av,27.990673,-82.460145
1685,30th St @ Poinsettia Av,28.041227,-82.426273
1686,30th St @ 99th Av,28.03917,-82.42629
3455,South Boulevard @ Swann Av,27.93757,-82.46868
4909,Waters Av @ Lago Vista Dr,28.025517,-82.49498
4908,Waters Av @ Fountain Bridge Apts,28.025388,-82.481912
4906,Busch Blvd @ Florida Av,28.033027,-82.460922
4905,Taliaferro Av @ Yukon St,28.029475,-82.453361
4904,Taliaferro Av @ Humphery St,28.030823,-82.453406
3473,Yukon St @ Suwanee Av,28.028966,-82.458888
1682,30th St @ Bougainvillea Av,28.043801,-82.426278
1681,30th St @ 109th Av,28.04653,-82.426272
3475,Yukon St @ Nebraska Av,28.029193,-82.451937
1680,30th St @ 113th Av,28.051045,-82.426262
3471,Yukon St @ Florida Av,28.029138,-82.459172
3470,Yukon St @ 26th St,28.028886,-82.430443
4911,Waters Av @ Quail Oaks Apts,28.025592,-82.521701
3469,Yukon St @ Linda Ct,28.028978,-82.42822
4910,Waters Av @ Dale Mabry Hwy Ws,28.025585,-82.50594
4913,Waters Av @  Savarese Pl Ace,28.025654,-82.529809
4912,Waters Av @ 4899 Lanier Co,28.025616,-82.526153
3466,Ysabella Av @ Bay To Bay Blvd,27.919589,-82.491423
3467,Ysabella Av @ Barcelona St,27.920155,-82.491077
3468,Yukon St @ Ruth Place,28.028978,-82.42706
4919,15th St @ 124th Av,28.060244,-82.442747
4915,Waters Av @ Patterson Rd,28.025791,-82.54738
4914,Waters Av @ Comfort Suites,28.025746,-82.534664
4917,Waters Av @ Hulsey Rd,28.025932,-82.557019
4916,Waters Av @ Rustic Dr,28.025966,-82.559208
1577,Sligh Av @ 30th St,28.010548,-82.426717
1579,Sligh Av @ 47th St,28.010589,-82.40614
1574,Sligh Av @ 24th St,28.010566,-82.432775
4897,22nd St @ 23Rd Av,27.972085,-82.434768
4898,Nebraska Av @  Estelle St,27.958516,-82.451291
1573,Sligh Av @ 22nd St,28.010467,-82.434984
4895,22nd St @ 28th Av,27.975717,-82.434806
4896,22nd St @ 26th Av @ Lee Davis Bldg,27.974784,-82.434806
1581,Sligh Av @ 50th St,28.010596,-82.402107
1583,Sligh Av @ 53Rd St,28.010613,-82.397953
4888,Rowlett Park Dr @ theochem Lab,28.016063,-82.431822
4889,Rowlett Park Dr @ Gas Station,28.015574,-82.43167
4884,Rowlett Park Dr @ theochem Lab,28.019758,-82.433332
1587,Harney Rd @ Sligh Av,28.010271,-82.376719
4885,22nd St @ Sewaha St,28.034817,-82.434517
4886,22nd St @ 115th Av,28.052049,-82.434516
1585,Sligh Av @ 56th St Ws,28.010629,-82.39388
4887,22nd St @ 113 Av,28.050863,-82.434698
4892,22nd St @ Hanna Av,28.003466,-82.434812
4891,22nd St @ Fern St,28.004825,-82.434802
1594,40th St @ Hillsborough Av,27.994742,-82.413905
4894,22nd St  @ Cayuga St,27.986632,-82.434773
1591,40th St @ Osborne Av,27.989177,-82.413983
1592,40th St @ Ellicott St,27.990364,-82.413977
4890,Sligh Av @ 24th Av,28.010747,-82.432512
1596,40th St @ Powhattan Av,27.9988,-82.414056
1595,40th St @ Comanche Av,27.997373,-82.413954
1598,40th St @ Paris St,28.002576,-82.414105
1597,40th St @ Idlewild Av,28.001073,-82.414096
4098,Swann Av @ Dakota Av,27.9374,-82.475642
4095,Rome Av @ Knollwood St,28.007418,-82.476025
4090,Oakfield Dr @ Pauls Dr,27.933948,-82.302207
4093,Orient Rd @ Broadway Av,27.965617,-82.372913
4091,Oakfield Dr @ Morrison Rd,27.934183,-82.309075
4858,14th St @ 29th Av,27.977021,-82.444322
4857,15th St @ Escort Av,28.008954,-82.443048
4854,Water Av @ Klondike St,28.025329,-82.445756
4851,15th St @ Shaw Elementary School,28.05229,-82.442905
4859,14th St @ 27th Av,27.975574,-82.444345
4071,Lois Av @ Alva St,27.983888,-82.51349
4860,14th St @ 26th Av,27.974277,-82.444333
4861,14th St @ 24th Av,27.972864,-82.444313
4078,Manhattan Av @ Gandy Blvd,27.8933,-82.51845
4076,Mac Dill Av @ Angeles St,27.927726,-82.493562
4074,Lois Av @ M L King Jr Blvd,27.981515,-82.513488
4845,140th Av @ 12th St,28.074595,-82.447178
4844,140th Av @ North Towne Ct,28.074595,-82.449044
4841,Nebraska Av @ 145th Av,28.077936,-82.451397
4840,Nebraska Av @ Skipper Rd,28.080716,-82.451468
4849,15th St @ 130th Av,28.064702,-82.442885
4848,131St Av @ 17th St,28.065623,-82.440669
4081,Morgan St @ Brorein St,27.945112,-82.45402
4083,Northbridge Blvd @ Waters Av,28.025203,-82.575602
4850,15th St @ College Park Lane,28.055513,-82.442903
4085,Nuccio Pkwy @ Palm Av,27.962657,-82.446854
4876,Laurel St @ 4913,27.955864,-82.526992
4875,Laurel St @ Laurel Oaks,27.95588,-82.529392
4874,Laurel St @ 5215,27.955949,-82.534292
4049,Columbus Dr @ Massachusetts Av,27.966793,-82.465719
4048,Columbus Dr @ Woodrow Av,27.966802,-82.466904
4879,Cass St @ N Boulevard,27.950073,-82.467992
4878,Cypress St @ Holiday Inn,27.95212,-82.520174
4877,Laurel St @ Westshore Blvd,27.955848,-82.524947
4050,Columbus Dr @ Jefferson St,27.966768,-82.457173
4053,Columbus Dr @ 3901,27.96664,-82.416202
4054,Columbus Dr @ Jefferson St,27.966894,-82.456957
4051,Columbus Dr @ Grove St,27.96675,-82.454388
4052,Columbus Dr @ 22nd St,27.966706,-82.434875
4882,22nd St @ Giddens Av,27.995171,-82.43465
4883,Rowlett Park Dr @ Gas Station,28.015855,-82.431559
4055,Dale Mabry Hwy @ Stall Rd,28.061963,-82.503593
4880,Westshore Blvd @ North B St,27.946329,-82.524056
4863,14th St @ 21St Av,27.970756,-82.444258
4059,Dale Mabry Hwy @ Northgreen Av,28.10364,-82.502529
4862,14th St @ 23Rd Av,27.972022,-82.444302
4865,Republica De Cuba @ 19th Av,27.968851,-82.444243
4864,Republica De Cuba @ 20th Av,27.969893,-82.444242
4867,Nuccio Pkwy @ 4th Av,27.958418,-82.447137
4869,Cass St @ N Boulevard,27.950236,-82.468043
4868,Nuccio Pkwy @ 1330,27.955722,-82.448933
4061,Habana Av @ Sligh Av,28.010365,-82.488468
4062,Hanna Av @ 43Rd St,28.003291,-82.410235
4063,Harney Rd @ Hanna Av,28.003306,-82.380623
4064,Himes Av @ Waters Av Ns,28.02622,-82.50062
4065,Himes Av @ Hillsborough Av,27.996765,-82.500829
4870,Cypress St @ Edison Av,27.952023,-82.469719
4069,Linebaugh Av @ Albany Av,28.039899,-82.480134
5168,Us Hwy 41 @ Ohio St,27.822058,-82.382254
5950,Grand Regency Blvd @ Pineberry St,27.951148,-82.325309
5166,Us Hwy 41 @ Symmes Rd,27.834534,-82.381912
5167,Us Hwy 41 @ Mabrey Av,27.827132,-82.382028
5164,Us Hwy 41 @ Shirley Av,27.84463,-82.38171
5161,Lynn Turner Rd @ Barrett Dr,28.062551,-82.541671
0913,Fletcher Av @ Paddock Av,28.065716,-82.490289
0910,Fletcher Av @ Reseda Ct,28.06584,-82.49302
0911,Fletcher Av @ Orange Grove Dr,28.06572,-82.50029
0917,Fletcher Av @ Armenia Av,28.066084,-82.483617
0914,Fletcher @ Park At Lake Magdalene,28.065674,-82.488926
5948,Grand Regency Blvd @ Lake Kathy St,27.947108,-82.325244
0915,Fletcher Av @ Sebring Blvd,28.06571,-82.48768
5947,Grand Regency Blvd @ Vildibill Dr,27.943089,-82.325342
5946,Town Center Blvd @ Providence Rd,27.925769,-82.317458
5945,Town Center Blvd @ Providence Rd,27.925995,-82.317195
5943,Moon Av @ Oakfield Dr (Hosp),27.934137,-82.288507
5942,Moon Av @  Sr Hwy 60,27.937241,-82.288503
5941,Sr 60 @ Knights Av,27.937563,-82.289989
5940,Grand Regency Blvd @ Vildibill Dr,27.942127,-82.325554
5177,Us Hwy 41 @ Shirley Av,27.844632,-82.381531
5178,Gibsonton Dr @ Ethel St,27.849658,-82.379112
5175,Us Hwy 41 @ Isabel Av,27.830803,-82.381643
5176,Us Hwy 41 @  Cedar Av,27.841936,-82.381482
0907,Fletcher @ Park At Lake Magdalene,28.065853,-82.488898
0900,Fletcher Av @ Rome Av,28.069443,-82.47535
5938,Grand Regency Bl @ Atlantic Bus Pk,27.94863,-82.325606
0903,Fletcher Av @ Greentree Dr,28.069391,-82.478141
5937,Grand Regency Blvd @ Tealwood Dr,27.951483,-82.325511
5939,Grand Regency Bl @ Lake Kathy Rd,27.94738,-82.325415
0906,Fletcher Av @ Lake George Ln,28.065855,-82.485475
5934,Falkenburg Rd @ Cedar Run,27.955981,-82.335216
5933,Falkenburg Rd @ Fisher Rd,27.959247,-82.335281
5936,Woodberrry Rd @ Hobbs St,27.952104,-82.329813
5935,Woodberry Rd @ Falkenburg Rd,27.952072,-82.334207
5930,Falkenburg Rd @ Broadway Av,27.973158,-82.335204
5932,Falkenburg Rd @ Windhorst Rd,27.962978,-82.335348
5931,Falkenburg Rd @ Reeves Rd,27.970432,-82.335258
5143,Sr 579 @ Wal-Mart,27.9839,-82.30229
5971,Adamo Dr @ 22nd St,27.955683,-82.43363
5972,Adamo Dr @ 26th St,27.95572,-82.430864
5147,Sr 579 @ Wal-Mart,27.98386,-82.30247
5144,Sr 579 @ Clay Pit Rd,27.98849,-82.302267
5970,4th Av @ 18th St,27.958029,-82.43928
5969,4th Av @ 16th St,27.958038,-82.441801
5155,Gunn Hwy @ Forest Lane Dr,28.059628,-82.537632
5156,Gunn Hwy @Plantation Sugarmill Dr E,28.05131,-82.522803
5952,Woodberry Rd @ Falkenburg Rd,27.952235,-82.334693
5951,Woodberry Rd @ Hobbs St,27.952268,-82.330441
5954,Falkenburg Rd @ Fisher Av,27.95827,-82.335043
5953,Falkenburg Rd @ Cedar Run,27.955772,-82.335027
5956,Falkenburg Rd @ Columbus Dr,27.966588,-82.335072
5955,Falkenburg Rd @ Windhorst Rd,27.963249,-82.335081
5958,Falkenburg Rd @ Broadway Av,27.973457,-82.33489
5957,Falkengurg Rd @ Leroy Av,27.969653,-82.334996
5994,78th St @ Southside Lane,27.94299,-82.368913
5993,Palm River Rd @ 82nd St,27.94082,-82.363295
5991,Us Hwy 301 @ Florida Palm,27.944146,-82.353847
5990,Us Hwy 301 @ Adamo Dr,27.948186,-82.354268
5988,Us Hwy 301 @ Adamo Dr,27.948874,-82.353923
5987,Us Hwy 301 @  Florida Palm Dr,27.944101,-82.353452
5984,78th St @ Southside Lane,27.94263,-82.369016
5985,Palm River Rd @ 82nd St,27.940659,-82.365603
5981,Adamo Dr @ Orient Rd,27.952023,-82.375161
5980,Adamo  Dr @ 68th St,27.95198,-82.379808
5982,78th St @ Adamo Dr,27.95126,-82.369113
5977,Adamo Dr @ 52nd St,27.951898,-82.396372
7307,Cypress St @ Westshore Blvd,27.952407,-82.523901
5978,Adamo Dr @ 57th St,27.951945,-82.390185
5979,Adamo Dr @ Maydell Dr,27.951929,-82.385599
5973,Adamo Dr @ 34th St,27.954305,-82.421673
5974,Adamo Dr @ 39th St,27.954947,-82.414858
5975,Adamo Dr @ 42nd St,27.953742,-82.412439
5976,Adamo Dr @ 45th St,27.951956,-82.408207
5183,Arbor Pl @ South Davis Blvd,27.934849,-82.457702
5181,Gibsonton Dr @ Martin Rd,27.8497,-82.364085
5180,Gibsonton Dr @ Pine St,27.849633,-82.35705
5187,Jackson St @ Pierce St,27.947947,-82.454354
5186,Jackson St @ Franklin St,27.94676,-82.457756
5185,Plant Av @ W Grand Centrl Av,27.94433,-82.46271
5184,Davis Bl @ One Davis Medical Bldg,27.936527,-82.459805
5192,7th Av @ 17th St,27.960158,-82.440717
5194,7th Av @ 21St St,27.960302,-82.435675
5193,7th Av @ 19th St,27.960149,-82.438166
5196,7th Av @ 17th St,27.960296,-82.440216
5195,7th Av @ 19th St,27.960321,-82.437811
5198,7th Av @ 13th St,27.960317,-82.445228
5197,7th Av @ 15th St,27.960321,-82.442641
5997,Adamo Dr @ Orient Rd,27.95233,-82.37597
5998,Adamo Dr @ 68th St,27.9523,-82.38075
5999,Adamo Dr @ Maydell Dr,27.952288,-82.385952
2006,56th St @ 113th Av @ City Hall,28.049894,-82.393464
0842,Busch Blvd @ 40th St,28.032724,-82.41583
2005,56th St @ Whiteway Dr,28.04753,-82.393466
0840,Busch Blvd @ 46th St,28.032732,-82.409661
2003,56th St @ Deer Park Av,28.042622,-82.393377
0841,Busch Blvd @ 42nd St,28.032734,-82.411901
0847,Busch Blvd @ 26th St,28.032674,-82.430231
0849,Busch Blvd @ 22nd St,28.032698,-82.433939
7210,Grand Regency Blvd @ Holiday Inn,27.945244,-82.326184
7212,M L King Jr Blvd @ 68th St,27.981587,-82.378609
7213,Us Hwy 41 @ Apollo Beach Blvd,27.769362,-82.391452
7214,Adamo Dr @ Tampa Warehouse,27.952223,-82.396862
7215,Providence @ Providence Park  Apts,27.933157,-82.314492
2018,56th St @ Temple Heights Rd,28.036374,-82.393634
0851,Busch Blvd @ 19th St,28.032667,-82.437362
0852,Busch Blvd @ Elmer St,28.032695,-82.439792
0855,Busch Blvd @ 12th St,28.032907,-82.446895
0857,Busch Blvd @ Ola Av,28.03304,-82.463815
0858,Busch Blvd @  N Boulevard,28.033259,-82.467549
0859,Busch Blvd @ Florida Av,28.032864,-82.459974
7204,Nebraska Av @ Linnwood Dr,28.067529,-82.45108
7202,Marion St @ Fortune St,27.954314,-82.458648
3598,Fowler Av @ 9th St,28.054693,-82.449589
0862,Busch Blvd @ 12th St,28.032644,-82.447265
3599,Fowler Av @ Florida Av,28.054706,-82.459181
7228,Waters Av @ 12th St,28.025137,-82.447437
0860,Busch Blvd @ Ola Av,28.032804,-82.463754
7229,Palm River Rd @ Maydell Dr,27.94163,-82.384978
0869,Busch Blvd @ 26th St,28.032408,-82.43022
0867,Busch Blvd @ 22nd St,28.032391,-82.43478
7235,Bloomingdale Av @ Cricket Hollow Dr,27.8936,-82.32571
7236,Bloomingdale Av @ Providence Rd,27.893533,-82.320287
7237,Providence Lakes@ Lake Lucerne Way,27.912138,-82.319451
7230,Progress Blvd @ 85th St,27.899007,-82.362836
7231,Progress Blvd @ 86th St,27.899006,-82.361642
7232,Progress Blvd @ Us Hwy 301 W/S,27.893726,-82.340663
7233,Bloomingdale Av @ Us Hwy 301 E/S,27.893613,-82.335969
0874,Busch Blvd @ 37th Av,28.032452,-82.417887
0878,Busch Blvd @ 46th St,28.032459,-82.410205
0879,Busch Blvd @ Temple Av,28.032458,-82.407043
7225,Waters Av @ 9th St,28.025223,-82.450426
7226,Waters Av @ 9th St,28.025091,-82.450528
7221,Columbus Dr @ Himes Av,27.966887,-82.500473
2001,56th St @ Mission Hills Av,28.039661,-82.393358
0802,15th St @ 130th Av,28.0645,-82.442737
0801,15th St @ 127th Av,28.061756,-82.442747
0807,15th St @ 127th Av,28.062077,-82.442864
7249,Palm River Rd @ Maydell Dr,27.941852,-82.385007
0808,15th St @ 124th Av,28.060313,-82.44287
0809,15th St @ 122nd Av,28.058403,-82.442881
7250,Palm River Rd @ 58th St,27.943151,-82.3901
0811,15th St @ Fowler Av N,28.054805,-82.442925
0813,15th St @ 113th Av,28.051046,-82.442909
0816,15th St @ Seneca Av,28.045873,-82.442916
0815,15th St @ Poinsettia Av,28.041864,-82.44292
0818,15th St @ 109th Av,28.047349,-82.442913
0817,15th St @ Bougainvillea Av,28.043723,-82.442919
7238,Providence Lakes Bl @ Ladora Dr,27.912114,-82.321366
7239,Gornto Lake Rd @ Aston Commons Pl,27.91544,-82.323515
0810,15th St @ Fowler Av S,28.053306,-82.442921
7244,Providence Lakes @ Lake Lucerne Way,27.911831,-82.320028
7243,Providence Lakes Blvd  @ Ladora Dr,27.911916,-82.323196
7242,Gornto Lake Rd @ Astor Commons Pl,27.915812,-82.323858
7241,Gornto Lake Rd @ Causeway Blvd F/S,27.921418,-82.32296
7248,Progress Blvd @ 86th St,27.899268,-82.36178
7247,Bloomingdale Av@ Bandera Springs Cr,27.893856,-82.334137
7246,Bloomingdale Av @ Duncan Rd,27.893807,-82.330627
7245,Bloomingdale Av @ Cricket Hollow Dr,27.893715,-82.324065
0819,15th St @ Linebaugh Av,28.040047,-82.442929
7240,Gornto Lake Rd @ Causeway Blvd N/S,27.921925,-82.322626
6194,Powhatan Av @ Town N Country Blvd,28.000028,-82.568633
0829,15th St @ Wilder Av,27.992508,-82.443048
0828,15th St @ Frierson Av,27.994474,-82.443028
0827,15th St @ Hillsborough Av,27.996312,-82.443028
0826,15th St @ Comanche Av,27.997997,-82.443028
0825,15th St @ Henry Av,27.999808,-82.443048
0824,15th St @ Idlewild Av,28.001655,-82.443028
0823,15th St @ Hanna Av,28.003466,-82.443028
0822,15th St @ North St,28.00526,-82.443038
0821,15th St @ Diana St,28.007116,-82.443048
5007,Hanley Rd @ 6000 (School),28.001448,-82.562777
5008,Hanley Rd @ 5520,27.999271,-82.562845
5005,Hanley Rd @ 7948,28.019523,-82.562623
5006,Hanley Rd @ Fountain Av,28.010619,-82.5626
6988,Macinnes Place @ Fortune St,27.952329,-82.463184
5009,Hanley Rd@  Auto Zone,27.99819,-82.56288
5011,Spruce St @ Frontage Rd,27.959682,-82.532059
5010,Memorial Hwy @ Chase Manhattan,27.981625,-82.553078
6992,Columbus Dr @ Tech Blvd,27.966828,-82.329496
5014,Westshore Blvd @ 700 Omni Hotel,27.951446,-82.524315
6991,Columbus Dr @ Tech Blvd,27.966641,-82.329693
5013,Westshore Blvd @ 1300,27.954517,-82.524287
7271,140th Av @ 1401,28.074721,-82.444953
7273,140th Av @ North Towne Ct,28.0747,-82.448988
7272,140th Av @ 12th St,28.074722,-82.446937
0838,Busch Blvd @ Busch Plaza,28.032765,-82.402543
0837,15th St @ 31St Av,27.978801,-82.442998
0839,Busch Blvd @ Temple St,28.032741,-82.407279
0834,15th St @ Chelsea St,27.985254,-82.443037
0833,15th St @ Cayuga St,27.986386,-82.443037
0836,15th St @ M L King Jr Blvd,27.981725,-82.442996
0835,15th St @ North Bay St,27.983407,-82.443027
0830,15th St @ Ellicott St,27.991313,-82.443048
0832,15th St @ Osborne Av,27.988881,-82.44298
0831,15th St @ New Orleans Av,27.990317,-82.443027
5000,Memorial Hwy @ 5109,27.981878,-82.55285
7268,140th Av @ 1402,28.074586,-82.444775
5002,Hanley Rd @ 6000 (School),28.001552,-82.562618
7265,Cypress St @ O'Brien St,27.952264,-82.532759
5004,Hanley Rd @ Winging Way Dr,28.023445,-82.562224
5003,Hanley Rd @ 7937,28.01946,-82.562309
7290,Causeway Blvd @ 70th St,27.922605,-82.377207
2090,Cypress St @ Howard Av,27.951988,-82.48323
7291,Causeway Blvd @ 70th St,27.922767,-82.376742
2092,Cypress St @ Fremont Av,27.951944,-82.478927
2091,Cypress St @ Albany Av,27.951971,-82.481033
7294,Causeway Blvd @ 58th St,27.922865,-82.389717
7295,Causeway Blvd @ 54th St,27.922876,-82.393441
7292,Causeway Blvd @ 66th St,27.922806,-82.381205
7293,Causeway Blvd @ Maydell Dr,27.922826,-82.384747
7298,Causeway Blvd @ 45th St,27.923098,-82.407843
6164,Redbraes Dr @ Shandwick Ct,28.025579,-82.58605
3540,29th St @ 27th Av,27.974956,-82.42815
2097,Manhattan Av @ Interbay Blvd,27.86632,-82.518515
3541,29th St @ 25th Av,27.973471,-82.42815
6166,Woodlake Blvd @ Somerford Pl,28.024187,-82.590516
6165,Woodlake Blvd @ Reisling Pl,28.02478,-82.586997
6168,Pacers Ferry Dr @ Timberlane Dr,28.022842,-82.594263
2094,Cypress St @ Oregon Av,27.9519,-82.474796
6167,Attenbury Dr @ Featherhall Pl,28.024277,-82.592282
6970,International Plaza,27.962767,-82.517985
2093,Cypress St @ Rome Av,27.951927,-82.476902
2096,Cypress St @ Willow Av,27.951901,-82.472883
6169,Timberlane Dr @ Enchanted Oaks Ct,28.02001,-82.596451
2095,Cypress St @ Edison Av,27.951848,-82.46938
6963,Florida Keys Av @ Cypress Stand St,27.852641,-82.486202
1523,Sligh Av @ 21St St,28.01063,-82.436088
3538,29th St @ Lake Av,27.977574,-82.428149
1522,Sligh Av @ 22nd St,28.010711,-82.433788
3537,29th St @ 31St Av,27.97866,-82.428139
1525,Sligh Av @ 17th St,28.010675,-82.441124
3536,29th St @ Lindell Av,27.980055,-82.428139
4823,143Rd Av @ 19th St,28.076597,-82.438083
6966,Marion Transit Center,27.95515,-82.458671
1524,Sligh Av @ 19th St,28.010648,-82.438601
3535,29th St @ M L King Jr Blvd,27.981631,-82.428129
4820,131St Av @ 1505,28.06546,-82.44221
6967,Marion Transit Center,27.955343,-82.45832
3534,29th St @ North Bay St,27.982935,-82.428128
4821,131St Av @ 22nd St,28.065441,-82.434931
6968,Marion Transit Center,27.954848,-82.458102
3533,29th St @ 38th Av,27.983814,-82.428118
6969,Marion Transit Center,27.954333,-82.458423
1520,Sligh Av @ Rowlett Park Dr,28.01072,-82.429928
3531,29th St @ Chelsea Av,27.984964,-82.427926
1527,Sligh Av @ 13th St,28.01067,-82.44496
4828,Nebraska Av @  140th Av,28.074495,-82.451112
1526,Sligh Av @ 15th St,28.010684,-82.442826
1529,Sligh Av @ 10th St,28.010655,-82.44907
1528,Sligh Av @ 12th St,28.01067,-82.447
3539,29th St @ 28th Av,27.976449,-82.428084
7280,22nd St @ Hemlock St,27.938275,-82.434805
7283,Causeway Blvd @ 45th St,27.922935,-82.407823
7284,Causeway Blvd @ Sagasta St,27.922871,-82.404645
7285,Causeway Blvd @ 50th St,27.92287,-82.401032
7286,Causeway Blvd @ 54th St,27.922703,-82.392955
7287,Causeway Blvd @ 58th St,27.922702,-82.389889
3551,43Rd St @ 6524,28.009999,-82.410125
7288,Causeway Blvd @ Maydell Dr,27.922663,-82.384677
7289,Causeway Blvd @ 66th St,27.922634,-82.380709
6984,Franklin St @ Whiting St,27.944939,-82.456586
6981,Dick Greco Plaza,27.941118,-82.45496
4833,Nebraska Av @ Bearss Av,28.086221,-82.451256
3547,43Rd St @ Fern St,28.005346,-82.409991
1513,Sligh Av @ 53Rd St,28.010776,-82.39767
3546,43Rd St @ Hanna Av,28.003988,-82.409972
3548,43Rd St @ Diana St,28.00694,-82.41009
3543,29th St @ 21St Av,27.970606,-82.428108
4830,Nebraska Av @ 145th Av,28.078597,-82.451082
3542,29th St @ 23Rd Av,27.971967,-82.42817
4831,Nebraska Av @ Skipper Rd,28.080196,-82.451187
4832,Nebraska Av @ April Lane,28.08192,-82.451251
4837,Bearss Av @ Nebraska Av,28.087816,-82.452494
1518,Sligh Av @ Trout St,28.010694,-82.408377
1517,Sligh Av @ Bream St,28.010708,-82.403707
4839,Nebraska Av @ April Lane,28.0823,-82.451509
6181,Memorial Hwy @ Middlesex Dr,28.003353,-82.588804
6183,Mohr Rd @  Bryce Ln,28.002516,-82.583984
6180,Memorial Hwy @ Kings Point Dr,28.00487,-82.590352
2071,Cypress St @ Trask St,27.952145,-82.522351
6951,Himes Av @ IVy St,27.969832,-82.501582
2074,Cypress St @ Hubert Av,27.952078,-82.516084
6950,Linebaugh Av @ Dale Mabry Hwy,28.040187,-82.506673
2073,Cypress St @ Manhattan Av,27.952103,-82.51817
2075,Cypress St @ Lois Av,27.952071,-82.51333
2078,Cypress St @ Church Av,27.952117,-82.50802
2077,Cypress St @ Grady Av,27.9521,-82.50998
2068,Cypress St @ Ward St,27.952204,-82.528699
3512,17th Av @ 27th St,27.967542,-82.429506
6946,Himes Av @ Colwell Av,28.034157,-82.500663
2069,Cypress St @ Occident St,27.952178,-82.526644
6947,Himes Av @ Busch Blvd,28.035923,-82.500553
3516,17th Av @ 20th St,27.967527,-82.436765
6941,Kennedy Blvd @ Gray Ct,27.944644,-82.498594
1500,Waters Av @ Orleans Av,28.025222,-82.473378
3515,17th Av @ 22nd St,27.96753,-82.434561
6942,Gray St @ Westshore Blvd,27.948457,-82.524362
4803,Borein St @ Jefferson St,27.94496,-82.4516
1503,Waters Av @ Klondyke St,28.0252,-82.445856
3514,17th Av @ 24th St,27.967478,-82.4331
1502,Waters Av @ El Portal Dr,28.025295,-82.469658
3513,17th Av @ 25th St,27.967515,-82.43182
1505,Waters Av @ Marks St,28.025228,-82.442624
1504,Waters Av @ 14th St,28.02521,-82.444336
3519,19th Av @ 40th St,27.968551,-82.414682
3518,17th Av @ 16th St,27.967614,-82.441612
4804,Nuccio Pkwy @ Scott Dr,27.956715,-82.447612
3517,17th Av @ 18th St,27.967612,-82.439158
6172,Westgate Dr @ Fox Park Dr (Com Pk),28.015357,-82.597502
6171,Timberlane Dr @ Westgate Dr,28.015485,-82.596378
6170,Timberlane Dr @ Wheatley Hills Ct,28.01765,-82.596351
2080,Cypress St @ Himes Av,27.952033,-82.501829
6962,131St Av @ 22nd St,28.065604,-82.435042
2085,Cypress St @ MacDill Av  Ws,27.951938,-82.493901
2084,Cypress St @ Matanzas Av,27.951964,-82.49544
6179,Memorial Hwy @ Little River Dr,28.006336,-82.591954
2083,Cypress St @ Lincoln Av,27.95199,-82.497495
2082,Cypress St @ Glen Av,27.952034,-82.499591
2089,Cypress St @ Armenia Av,27.952005,-82.485316
2088,Cypress St @ Tampania Av,27.951995,-82.487209
6175,Timberlane West Dr @ Memorial Hwy,28.011989,-82.599899
2087,Cypress St @ Excelda Av,27.951912,-82.490307
6174,Timberlane West Dr @ Sunburst Ct,28.014313,-82.598757
2086,Cypress St @ MacDill Av Es,27.951938,-82.492524
3530,29th St @ North Bay St,27.98289,-82.428004
3520,19th Av @ 36th St,27.968502,-82.419164
2079,Cypress St @ Dale Mabry Hwy,27.952093,-82.506243
3523,29th St @ 25th Av,27.973208,-82.427978
3522,29th St @ 23Rd Av,27.971822,-82.427978
6954,Himes Av @ St Conrad St,27.964147,-82.501472
4811,Nuccio Pkwy @ 4th Av,27.958201,-82.44663
6955,Sterling Av @ Euclid Av,27.907937,-82.504144
4812,Nuccio Pkwy @ 1330,27.955511,-82.448787
3524,29th St @ 27th Av,27.974775,-82.427967
4813,15th St @ M L King Jr Blvd,27.980845,-82.442868
6952,Himes Av @ Aileen St,27.968037,-82.501537
3527,29th St @ 31St Av,27.978452,-82.428023
6953,Himes Av @ St Joseph St,27.966027,-82.501566
3526,29th St @ Lake Av,27.977704,-82.428023
3529,29th St @ M L King Jr Blvd,27.981223,-82.427946
4816,20th St @ Skagway Av,28.031539,-82.436645
3528,29th St @ Lindell Av,27.979911,-82.428012
4818,15th St @ 113th Av,28.050628,-82.442767
4819,15th St @ Shaw Elementary School,28.051923,-82.442777
2053,Cypress St @ Grady Av,27.952258,-82.509596
1570,Sligh Av @ 17th St,28.010512,-82.441377
2055,Cypress St @ Lois Av,27.952315,-82.513584
2056,Cypress St @ Hubert Av,27.952322,-82.516226
2050,Cypress St @ Himes Av,27.952205,-82.501292
3580,Brorein St @ Hyde Park Av,27.943178,-82.46364
2051,Cypress St @ Dale Mabry Hwy,27.95223,-82.505221
2052,Cypress St @ Church Av,27.952267,-82.507598
6927,Nebraska Av @ Kay St,27.95702,-82.451248
6920,Florida Av @ Bank Of America,28.041806,-82.459591
1567,Sligh Av @ 12th St,28.01056,-82.447177
1568,Sligh Av @ 13th St,28.010548,-82.445207
1569,Sligh Av @ 15th St,28.01053,-82.44314
1562,Sligh Av @ Florida Av,28.010659,-82.459775
6924,Nebraska Av @ Seneca Av,28.045692,-82.451341
2047,Cypress St @ Matanzas Av,27.952118,-82.495187
1563,Sligh Av @ Dixon Av,28.01063,-82.4572
6923,Bearss Av @ 1913 Pine Lake Plaza,28.08035,-82.436424
2046,Cypress St @ MacDill Av,27.952101,-82.492312
3578,Brorein St @ Parker St,27.94347,-82.460659
1564,Sligh Av @ Central Av,28.010583,-82.455551
0887,Fletcher Av @ Winward Dr,28.069281,-82.440081
2049,Cypress St @ Glen Av,27.952188,-82.499318
1565,Sligh Av @ Nebraska Av,28.010566,-82.45083
6925,Nebraska Av @ Skagway Av,28.031881,-82.451357
2048,Cypress St @ Lincoln Av,27.952144,-82.497242
3594,Fowler Av @ 51St St,28.054575,-82.399757
2067,Cypress St @ Sherrill St,27.952238,-82.53039
3593,Fowler Av @ 53Rd St,28.054568,-82.395391
2064,Cypress St @ Frontage Rd,27.952552,-82.533995
3595,Fowler Av @ 50th St,28.054577,-82.401516
2062,Cypress St @ Sherrill St,27.952483,-82.530158
2063,Cypress St @ O'Brien St,27.952509,-82.532081
6940,Westshore Blvd @ Fig St,27.947606,-82.524361
2060,Cypress St @ Occident St,27.952432,-82.525946
3591,Elliot St @ Ingraham St,27.862104,-82.533287
2061,Cypress St @ Ward St,27.952458,-82.528031
0899,Fletcher Av @  N Boulevard,28.069348,-82.467274
6938,Hwy 60 @ Meadowlark Pl,27.96064,-82.71195
1559,Sligh Av @ N Boulevard,28.010692,-82.468028
1557,Sligh Av @ Oregon Av,28.01066,-82.474314
0894,Fletcher Av @ Central Av,28.069343,-82.45615
6107,Town N Country Bl @ Hillsborough Av,27.997791,-82.568926
0893,Fletcher Av @ Summit Av,28.069316,-82.453028
0892,Fletcher Av @ Nebraska Av,28.069316,-82.450787
6931,Harney Rd @ Steamboat Ln,28.023258,-82.368845
6105,Town N Country Library,27.999125,-82.566433
6930,Temple Terrace Hwy @ Hamilton Hill,28.03248,-82.361126
6937,Nebraska Av @ 114th Av,28.052787,-82.451057
0898,Fletcher Av @ Ola Av,28.069403,-82.463249
6936,Nebraska Av @ 112th Av,28.049714,-82.451095
1551,Sligh Av @ Rome Av,28.01066,-82.476371
6935,Nebraska Av @ 93Rd Av,28.03379,-82.451362
2058,Cypress St @ Trask St,27.952399,-82.521886
3589,Route 1 @ Yukon Transfer Center,28.029753,-82.456404
6934,Nebraska Av @ 10920,28.048807,-82.451332
2057,Cypress St @ Manhattan Av,27.952339,-82.517856
6141,Manhattan Av @ Lambright St,28.006957,-82.517345
2031,56th St @ Hanna Av,28.003771,-82.393629
6142,Manhattan Av @ Minnehaha St,28.008864,-82.517326
2032,56th St @ Henry Av,28.000241,-82.393621
3561,Bay Haven Dr @ Bayshore Blvd,27.867162,-82.489346
1550,Sligh Av @ Armenia Av Ws,28.010674,-82.484466
6143,Manhattan Av @ Sligh Av,28.010311,-82.517231
3560,Bay Haven Dr @ MacDill Av,27.867277,-82.494008
6140,Manhattan Av @  North St,28.005294,-82.517277
1548,Sligh Av @ Anderson Rd,28.01078,-82.531355
1549,Sligh Av @ Tampania Av,28.010723,-82.486405
6909,Florida Av @ 148th Av,28.083433,-82.459502
6905,15th St @ 139th Av,28.073763,-82.442839
6908,Florida Av @ 135th Av,28.071281,-82.45925
6907,Florida Av @ Fletcher Av  F/S,28.068265,-82.459445
1540,Sligh Av @ Packwood Av,28.010813,-82.477263
6902,Fletcher Av @ 23Rd St,28.06928,-82.432315
2025,56th St @ Puritan Rd Ss,28.019833,-82.393493
3555,43Rd St @ Hanna Av,28.003553,-82.410387
1541,Sligh Av @ Fremont Av,28.010798,-82.478746
6901,Fletcher Av @ 23Rd St,28.069131,-82.43255
2024,56th St @ River Hills Dr,28.026681,-82.393558
1542,Sligh Av @ Albany Av,28.010795,-82.480165
1543,Sligh Av @ Howard Av,28.010813,-82.482341
2026,56th St @ Kirby St,28.018169,-82.393526
1544,Sligh Av @ Armenia Av,28.010828,-82.484133
6139,Hanna Av @ Manhattan Av,28.003619,-82.51764
2029,56th St @ Diana St,28.007159,-82.393636
6138,Hesperides St @ Hanna Av,28.003592,-82.519427
1545,Sligh Av @ Tampania Av,28.010822,-82.486427
2028,56th St @ Sligh Av,28.011694,-82.393634
6900,15th St @ 139th Av,28.073907,-82.443011
1547,Sligh Av @ Anderson Rd,28.010943,-82.531608
6136,Hesperides St @ Henry St,28.000239,-82.519349
2040,Cypress St @ Fremont Av,27.952094,-82.479026
2041,Cypress St @ Albany Av,27.952111,-82.480775
6135,Hesperides St @ Comanche Av,27.998039,-82.51945
2044,Cypress St @ Tampania Av,27.952167,-82.486966
2045,Cypress St @ Excelda Av,27.952051,-82.490288
2042,Cypress St @ Howard Av,27.952129,-82.482243
2043,Cypress St @ Armenia Av,27.952156,-82.484842
1538,Sligh Av @ Oregon Av,28.010805,-82.474306
6918,Florida Av @ Mohawk Av,27.997112,-82.459511
6917,Florida Av @ 115th Av,28.053017,-82.459495
6916,Florida Av @ 111th Av,28.048091,-82.459491
1531,Sligh Av @ Central Av,28.010746,-82.455237
6915,Florida Av @ Woodfield Square,28.071144,-82.459456
2038,Cypress St @ Oregon Av,27.952052,-82.474559
1532,Sligh Av @ Dixon Av,28.010722,-82.456962
6914,Florida Av @ 148th Av,28.082596,-82.459654
2037,Cypress St @ Willow Av,27.95203,-82.472955
1530,Sligh Av @ Nebraska Av,28.010722,-82.45074
6912,Nebraska Av @ 142nd Av,28.076117,-82.451117
1535,Sligh Av @ Ola Av,28.010722,-82.463322
1536,Sligh Av @ N Boulevard,28.010804,-82.467638
6910,Nebraska Av @ Bearss Av,28.086248,-82.45159
1533,Sligh Av @ Florida Av,28.010746,-82.45928
1534,Sligh Av @ Duncan Rd,28.010736,-82.460882
2039,Cypress St @ Rome Av,27.952075,-82.476615
1475,Waters Av @ Anderson Rd,28.025426,-82.538231
4798,Channelside Dr @ Harbor St,27.9536,-82.445577
4796,7th Av @ 2900,27.960277,-82.427073
1476,Waters Av @ 5400 thompson Center,28.025428,-82.536458
4797,Channelside Dr @ Adamo Dr,27.956399,-82.445638
1480,Waters Av @ Savarese Blvd,28.025361,-82.53028
1481,Waters Av @ Woodland Center Blvd,28.02531,-82.525351
1482,Waters Av @ Woodland Corporate Blvd,28.025295,-82.522504
1484,Waters Av @ Manhattan Av,28.02528,-82.517417
4785,Palm River Rd @ 70th St,27.941151,-82.37704
4786,Palm River Rd @ 66th St,27.941154,-82.381296
1487,Waters Av @ Grady Av,28.025259,-82.509209
1486,Waters Av @ Lois Av,28.025265,-82.513262
1485,Waters Av @ thatcher Av,28.025273,-82.514904
4789,Palm River Rd @ 56th St,27.943073,-82.395087
1489,Waters Av @ Dale Mabry Hwy,28.025262,-82.503899
1490,Waters Av @ Himes Av,28.0253,-82.501042
1491,Waters Av @ Sevilla Dr,28.025302,-82.498407
4791,50th St @ Washington Blvd,27.948107,-82.401589
1494,Waters Av @ Habana Av,28.025171,-82.488598
4793,7th Av @ 48th St,27.961242,-82.404542
1495,Waters Av @ Armenia Av,28.025209,-82.484545
4792,50th St @ Distribution Dr,27.95692,-82.401653
1492,Waters Av @ Lago Vista Dr,28.025258,-82.495235
4795,7th Av @ 36th St,27.960256,-82.419817
1493,Waters Av @ Palma Vista Lane,28.02525,-82.492682
4794,7th Av @ 41St St   J W Conner Bldg,27.960255,-82.412427
4778,78th St @ 34th Av,27.91778,-82.36867
4779,78th St @ 32nd Av,27.919248,-82.368607
4776,78th St @ 4217,27.909175,-82.368585
1453,Waters Av @ Twelve Oaks Blvd,28.025839,-82.551385
4777,78th St @ 3900,27.91178,-82.36861
4774,79th St @ 78th St,27.902481,-82.368621
4775,78th St @ 49th Av,27.903423,-82.36857
1454,Waters Av @ J R Manor Dr,28.02585,-82.554502
4783,Palm River Rd @ Turner Dr,27.941148,-82.373985
1460,Waters Av @ Pinehurst Dr,28.026115,-82.571033
4782,Palm River Rd @ 76th St,27.941215,-82.371818
4781,78th St @ Destin Dr,27.938938,-82.368578
4780,78th St @ Clair Mel Cr,27.934582,-82.368595
4767,Causeway Blvd @ 90th St,27.922727,-82.356641
4769,Causeway Blvd @ Clifford Sample Dr,27.922731,-82.362238
1468,Waters Av @ Twelve Oaks Blvd,28.025512,-82.551678
1467,Waters Av @ Rustic Dr,28.025639,-82.559785
4763,Causeway Blvd @ Marsh Harbor Way,27.923163,-82.341628
1466,Waters Av @ Hanley Rd,28.025682,-82.561629
4765,Causeway Blvd @ Us Hwy 301 Ws,27.922731,-82.350559
1464,Waters Av @ Flowerfield Dr,28.025794,-82.574164
4771,83Rd @ 4986,27.900884,-82.364605
1472,Waters Av @ Oak Trace Way,28.025496,-82.550077
1473,Waters Av @ Patterson Rd,28.02549,-82.547006
4773,Fir Dr @ 82nd St,27.903313,-82.3661
4772,83Rd @ 4916,27.902242,-82.364604
6104,Town N Country Bl @ Hillsborough Av,27.997221,-82.56881
3629,Hanna Av @ 42nd St,28.003291,-82.412241
3627,Hanna Av @ 39th St,28.003319,-82.416344
3628,Hanna Av @ 40th St,28.00331,-82.414449
4755,Causeway Blvd @ Clifford Sample Dr,27.922577,-82.362441
4753,83Rd St @ 5201,27.90084,-82.36472
4752,83Rd St @ 4917,27.901944,-82.364787
3620,Hanna Av @ 30th St,28.003409,-82.426315
4759,Causeway Blvd @ Hwy 301 Ws,27.922578,-82.352239
3625,Hanna Av @ 36th St,28.003293,-82.420427
3626,Hanna Av @ 37th St,28.00332,-82.41839
4757,Causeway Blvd @ 90th St,27.922563,-82.356388
3623,Hanna Av @ 32nd St,28.003284,-82.42458
3624,Hanna Av @ 34th St,28.003293,-82.422432
4761,Causeway Blvd @ Marsh Harbor Way,27.922841,-82.341551
4760,Causeway Blvd @ Hwy 301 Es,27.922493,-82.348271
3616,Hanna Av @ 37th St,28.003492,-82.418188
4749,78th St @ Carnegie Cr North,27.933213,-82.368749
3617,Hanna Av @ 36th St,28.003409,-82.4219
3618,Hanna Av @ 34th St,28.003408,-82.422234
3619,Hanna Av @ 32nd St,28.003392,-82.424758
4742,50th St @ Washington Blvd,27.948956,-82.401871
4741,50th St @ Distrubution Dr,27.956907,-82.401893
3610,Gunn Hwy @ Linebaugh Av,28.040445,-82.509134
3613,Hanna Av @ 42nd St,28.003416,-82.411984
4748,78th St @ Parish Place,27.936071,-82.368741
3614,Hanna Av @ 40th St,28.003422,-82.414655
4747,Palm River Rd @ 68th St,27.941021,-82.379259
3615,Hanna Av @ 39th St,28.00342,-82.4161
4750,78th St @ 3900,27.91187,-82.3687
4751,78th St @ 4216,27.909275,-82.368757
3607,Gunn Hwy @ Linebaugh Av,28.039857,-82.508532
3605,Fowler Av @ 56th St,28.054204,-82.392783
4739,50th St @ Gyro Restaurant,27.96007,-82.401998
4737,7th Av @ 48th St,27.961148,-82.404316
4736,7th Av @ 47th St,27.960705,-82.406088
4735,7th Av @ 4100,27.9601,-82.412386
4734,7th Ave @ 2900,27.96013,-82.427058
1496,Waters Av @ Saulray St,28.025219,-82.481474
4733,7th Av @ 27th St,27.96013,-82.428941
1497,Waters Av @ Fremont Av,28.02522,-82.478799
1498,Waters Av @ Packwood Av,28.025221,-82.476955
4731,Main St @ Delaware Av,27.956901,-82.470647
1499,Waters Av @ Rome Av,28.025221,-82.476094
4730,Armenia Av @ Cherry St,27.961314,-82.484992
4740,50th St @ Uceta Rd,27.958693,-82.401929
4728,Armenia Av @ Ohio Av,27.977246,-82.484805
4727,Armenia Av @ St Isabel St,27.978461,-82.484814
4729,Armenia Av @ Fiesta Plaza,27.975175,-82.484838
4724,Rome Av @ School Light,27.987138,-82.476434
4723,Rome Av @ Knollwood St,28.007748,-82.476143
4726,Ferris Av @ Albany Av,27.982178,-82.480502
4725,Ferris Av @ 1709,27.982357,-82.477539
4720,N Boulevard @ Saftey Village,28.016429,-82.467854
4722,Rome Av @ Hiawatha St,28.009485,-82.476126
4721,N Boulevard @ Picnic Area,28.015263,-82.467933
5021,Fletcher Av @ Armenia Av,28.066205,-82.483725
5022,Fletcher Av @ Sebring Blvd,28.06585,-82.48752
5020,Fletcher Av @ 2121,28.06856,-82.48052
5025,Fletcher Av @ Reseda Ct,28.065581,-82.493985
5026,Fletcher Av @ 2516,28.0657,-82.4861
5023,Fletcher Av @ Paddock St,28.065833,-82.492248
5019,Fletcher Av @ Forest Hills Dr,28.06944,-82.473495
5018,Fletcher Av @ 1205,28.068899,-82.470216
5017,Fletcher Av @ 203,28.069365,-82.46126
5030,Fletcher Av @ I-275,28.069189,-82.456479
5034,Jackson Springs Rd @ Hanley Rd,28.007489,-82.562049
5028,Fletcher Av @ 1208,28.068762,-82.470344
5027,Fletcher Av @ 2122,28.06824,-82.48063
5833,Publix @  Us Hwy 301/Sr 674,27.714133,-82.336514
5029,Fletcher Av @ 302,28.06925,-82.461252
5835,North St @ 11th St,27.715816,-82.313312
5834,La Estancia Apts @ Guadalupe,27.724088,-82.315232
5047,Dale Mabry Hwy @ Jetton Av,27.932674,-82.505863
5048,Dale Mabry Hwy @ San Nicholas St,27.925546,-82.505787
5045,M L King Jr Blvd @ Florida Av Es,27.98159,-82.458672
5046,M L King Jr Blvd @ 2125,27.981349,-82.481676
5043,M L King Jr Blvd @ 29th St,27.981506,-82.427809
5044,M L King Jr Blvd @ 17th St,27.981563,-82.439928
5042,M L King Jr Blvd @ 42nd St,27.981498,-82.412525
5820,6th St Se @ 14th Av Se,27.706142,-82.427144
5829,14th Av Se @ 24th St Se,27.705701,-82.402381
5051,M L King Jr Blvd @ 24th St,27.981351,-82.432848
5056,Harney Rd @ 6429,28.002074,-82.381333
5058,Harney Rd @ Tampa Bay Tech,28.008357,-82.377672
5059,Harney Dr @ Sligh Av,28.010068,-82.376698
5052,M L King Jr Blvd @ 26th St,27.981323,-82.430792
5053,M L King Jr Blvd @ 29th St,27.981287,-82.42824
5054,Harney Rd @ Hillsborough Av,27.997022,-82.384224
5055,Harney Rd @ Park East Blvd,27.99953,-82.382774
5049,Dale Mabry Hwy @ Angeles St,27.927701,-82.505758
5816,Us Hwy 41 @ South Bay Family Center,27.726563,-82.43394
5819,Ruskin Community Senior Center,27.710474,-82.427366
5891,56th St @ 131St Av,28.066159,-82.393819
5066,43Rd St @ 6522,28.008733,-82.410203
5890,56th St @ Fletcher Av,28.068128,-82.393833
5065,Sligh Av @ 47th St,28.010703,-82.40602
5064,Sligh Av @ 56th St Es,28.010798,-82.392217
5063,Sligh Av @ River Tree Landing  Apts,28.010748,-82.389082
5069,Habana Av @ North St,28.005884,-82.488529
5894,56th St @ 131St Av,28.066183,-82.393516
5068,43Rd St @ Fren St,28.005346,-82.410174
5067,43Rd St @ Diana St,28.007158,-82.410203
5062,Sligh Av @ Halifax River Dr (6102),28.01076,-82.387852
5061,Sligh Av @ Peoples Park,28.010789,-82.386393
5060,Sligh Av @ 6216,28.010785,-82.3828
5885,N Florida Av @ Polk St,27.950736,-82.458172
5075,Habana Av @ Idlewild Av,28.001119,-82.488452
5074,Habana Av @ Frierson Av,27.994845,-82.48847
5880,Harbour Place Dr @ Knights Run Av,27.938047,-82.45253
5076,Habana Av @ Paris St,28.002839,-82.488433
5079,Sligh Av @ Albany Av,28.01064,-82.480312
5078,Sligh Av @  Howard Av,28.010675,-82.482409
5881,S Harbor Island Bl @ Westin Hotel,27.938989,-82.454029
5884,N Florida Av @ Madison St,27.949142,-82.457513
5071,Habana Av @ Violet St,27.990185,-82.488777
5070,Habana Av @ Rio Vista Av,27.997822,-82.488653
5073,Habana Av @ 4600,27.98227,-82.48895
5072,Habana Av @ 4700,27.985137,-82.488864
5876,Tampa Convention Center,27.941109,-82.455153
5877,S Harbour Island Bl @ Westin  Hotel,27.938401,-82.453998
5878,Knights Run @ Harbour Place Dr,27.937658,-82.451346
5879,Beneficial Dr @ Knights Run Av,27.938356,-82.449878
5873,Franklin St @ Whiting St,27.944786,-82.456763
5872,Tampa St @ Jackson St,27.94647,-82.458454
5871,Tampa St @ Zack St,27.949395,-82.459771
5870,Tampa St @ Cass St,27.950808,-82.460369
5089,43Rd St @ Smugglers Cove,28.010132,-82.410069
5088,43Rd St @ 6521,28.00886,-82.410095
5086,Hanna Av @ 30th St,28.003285,-82.425938
5085,Sligh Av @ 21St St,28.010467,-82.436068
5084,Sligh Av @ 19th St,28.010485,-82.438722
5083,Sligh Av @ Duncan Av,28.010582,-82.461245
5082,Sligh Av @ Ola Av,28.010635,-82.463318
5081,Sligh Av @ Packwood Av,28.010641,-82.477607
5080,Sligh Av @ Fremont Av,28.01064,-82.478965
5865,Palm River Rd @ 78th St,27.940923,-82.368417
5866,Palm River Rd @ 78th St,27.940678,-82.367071
5863,4th Av @ 21St St,27.958002,-82.435604
5864,4th Av @ 21St St,27.958156,-82.435391
5097,Harney Rd @ Tampa Bay Tech,28.008542,-82.377703
5096,Sligh Av @ 6215,28.010633,-82.382888
5099,Lumsden Rd @ Providence Rd,27.923068,-82.316268
5098,Harney Rd @ Park East Blvd,27.999965,-82.382685
5093,Sligh Av @ River Tree Apts,28.010636,-82.389352
5092,Sligh Av @ 56th St Es (King High),28.010678,-82.392223
5095,Sligh Av @ Peoples Park,28.010626,-82.38693
5094,Sligh Av @ 1601,28.010627,-82.387913
5091,Sligh Av @ Bream St,28.010588,-82.404245
5090,Sligh Av @ 4405 (School),28.010589,-82.4085
5853,Brandon Hcc @ Columbus Dr,27.968072,-82.328714
1410,Westshore Blvd @ Lancaster St,27.868613,-82.52698
1415,Westshore Blvd @ Idaho St,27.859764,-82.527003
1414,Westshore Blvd @ Bradley St,27.860998,-82.527004
1413,Westshore Blvd @ Ingraham St,27.862265,-82.526988
1412,Westshore Blvd @ Loughman St,27.863489,-82.52699
1419,Waters Av @ Mulberry St,28.025345,-82.443944
1418,Waters Av @ Semmes St,28.025382,-82.441955
6499,27th St @ Uatc,28.066139,-82.429482
1422,Waters Av @ Edison Av,28.025395,-82.468523
1421,Waters Av @ 12th St,28.025329,-82.44718
1424,Waters Av @ Willow Av,28.025386,-82.471543
1423,Waters Av @ El Portal Dr,28.025388,-82.469545
1426,Waters Av @ Rome Av,28.025367,-82.475728
1425,Waters Av @ Orleans Av,28.025386,-82.473176
1427,Waters Av @ Jones Av,28.025383,-82.478018
1429,Waters Av @ Armenia Av,28.025439,-82.484001
1437,Waters Av @ Grady Av,28.025575,-82.5088
1435,Waters Av @ Dale Mabry Hwy Es,28.025579,-82.503707
1433,Waters Av @ Sevilla Dr,28.025522,-82.498195
1431,Waters Av @ Twin Lakes Blvd,28.025501,-82.492348
1430,Waters Av @ Habana Av,28.025409,-82.488115
1439,Waters Av @ Lois Av,28.025568,-82.512898
1438,Waters Av @ Lake Melena Way,28.025566,-82.510896
1440,Waters Av @ Camden St,28.025573,-82.514478
1448,Waters Av @ Anderson Rd,28.025761,-82.537978
1447,Waters Av @ Florida Mining Blvd N/S,28.025701,-82.53325
1442,Waters Av @ Cypress Lake Apts,28.025632,-82.519708
1441,Waters Av @ Manhattan Av,28.025578,-82.516945
1443,Waters Av @ Sunstate St,28.025645,-82.528673
1450,Waters Av @ Benjamin Rd,28.025738,-82.541523
1451,Waters Av @ Henderson Rd,28.025822,-82.55026
1402,Westshore Blvd @ Everett St,27.87193,-82.52697
3684,Reo St @ Cypress St,27.952102,-82.536407
3678,Northbridge Blvd @ Wooddrift Dr,28.015567,-82.57661
4292,Frontage Rd @ Laurel St,27.956001,-82.536651
4294,Manhattan Av @ Sligh Av,28.010331,-82.517356
4296,22nd St @ Columbus Dr,27.966642,-82.434652
4298,22nd St @ Sligh Av,28.010204,-82.434755
5802,Us Hwy 301 @ Rivercrest Dr,27.860755,-82.326732
5809,Ruskin Neighborhood Service Center,27.70568,-82.431687
5805,Ruskin Sweetbay Supermarket @ Us 41,27.727604,-82.431776
2508,Lois Av @ Cayuga St,27.986342,-82.513461
2506,Lois Av @ Spruce St,27.95924,-82.513738
2509,Lois Av @ Osborne Av,27.988791,-82.513509
3632,Hesperides St @ Henry St,28.000333,-82.51948
2500,Lois Av @ Azeele St,27.94099,-82.51402
3633,Hesperides St @ Comanche Av,27.998609,-82.51957
2504,Lois Av @ Laurel St,27.955639,-82.513802
2503,Lois Av @ Arch St,27.95425,-82.513806
3634,Kissimmee St @ Commerce St,27.863619,-82.528566
2502,Lois Av @ Grace St,27.952739,-82.513808
2501,Lois Av @ Cleveland St,27.942877,-82.51393
2517,Lois Av @ M L King Jr Blvd,27.981871,-82.513661
2516,Lois Av @ Alva St,27.984594,-82.513662
2519,Lois Av @ Kentucky Av,27.97858,-82.513738
2511,Lois Av @ Crest Av,27.993723,-82.513387
2510,Lois Av @ South St,27.991378,-82.513425
2513,Lois Av @ South St,27.991649,-82.513598
2512,Lois Av @ Crest Av,27.994176,-82.51358
2515,Lois Av @ Cayuga St,27.986614,-82.513634
2514,Lois Av @ Osborne Av,27.989213,-82.513616
3662,Memorial Hwy @ Independence Pkwy,27.98164,-82.555357
3661,Memorial Hwy @ Dana Shores Dr,27.981657,-82.556937
2529,Lois Av @ Dale Av,27.939462,-82.514159
2528,Lois Av @ Azeele St,27.941373,-82.514121
2527,Lois Av @ Cleveland St,27.943176,-82.514112
3658,Memorial Hwy @ Waltham Av,27.981882,-82.559075
2526,Lois Av @ Cypress St,27.952441,-82.513964
3659,Memorial Hwy @ Kelly Rd,27.981903,-82.564803
2525,Lois Av @ Arch St,27.954511,-82.513916
2524,Lois Av @ Laurel St,27.956033,-82.513907
2523,Lois Av @ Union St,27.958422,-82.513914
2522,Lois Av @ Spruce St,27.959034,-82.513899
3655,Memorial Hwy @ George Rd,27.981908,-82.550648
2520,Lois Av @ Woodlawn Av,27.975927,-82.513776
2535,Lois Av @ Henderson Blvd,27.926672,-82.514178
2534,Lois Av @ Estrella Av,27.928602,-82.51418
3669,Northbridge Blvd @ Terrace Wood Cr,28.022885,-82.575426
2531,Lois Av @ Culbreath Av,27.935975,-82.514146
3664,Memorial Hwy @ George Rd,27.98161,-82.549736
2530,Lois Av @ Swann Av,27.937786,-82.514188
2533,Lois Av @ Zelar St,27.93131,-82.514142
3665,Morgan St @ Eunice Av,27.94402,-82.453364
2437,Gibsonton Dr @ Ray St,27.849834,-82.35831
2438,Gibsonton Dr @ Linda St,27.849838,-82.361278
2436,Gibsonton Dr @ Vaughn St,27.849772,-82.356348
2433,Gibsonton Dr @ Hagadorn Rd,27.85721,-82.33489
5732,Providence @ Providence Bapt Church,27.897646,-82.31853
3721,Webb Rd @ Jackson Springs Rd,28.007962,-82.575301
5731,Providence Rd @ Purity Lane,27.900995,-82.318455
3720,Webb Rd @ Elm St,28.010135,-82.575274
2432,Gibsonton Dr @ Oak Ridge Av,27.857193,-82.329293
5733,Providence Rd @ Lakewood Dr,27.92554,-82.315384
3728,Armenia Av @ Ohio Av,27.977126,-82.484704
2439,Gibsonton Dr @ Martin Rd,27.849836,-82.363883
7060,Macdill Av @ Paxton Av,27.888086,-82.493809
7062,Waters Av @ Willow Av,28.025232,-82.471493
7061,Waters Av @ Perry Ellis Int'L,28.025343,-82.529314
2441,Gibsonton Dr @ Alafia St,27.849835,-82.370363
2440,Gibsonton Dr @ River Dr,27.84983,-82.366053
4210,Whiting St @ Franklin St,27.94532,-82.457036
5741,Sheldon Rd @ Fawn Ridge Blvd,28.062122,-82.582732
3712,Webb Rd @ Jackson Springs Rd,28.007464,-82.575108
5749,Sheldon Rd @ Meadow Pkwy,28.033244,-82.583145
5748,Sheldon Rd @ Redwood Blvd,28.036522,-82.583069
5747,Sheldon @ N Hills Co Health Ctr,28.039039,-82.583033
5745,Sheldon Rd @ Gardner Rd,28.051059,-82.582864
2420,21St Av @ 34th St,27.970345,-82.42255
5744,Sheldon Rd @ S Meadowview  Cr,28.053392,-82.582818
5743,Sheldon Rd @ Shelodn West Dr,28.05603,-82.582747
2422,21St Av @ 40th St,27.970317,-82.414793
5742,Sheldon Rd @ Westwind D,28.058439,-82.582744
7070,Dale Mabry Hwy @ Beach St,27.963714,-82.505422
7073,M L King Jr Blvd @ 39th St,27.98133,-82.41635
7072,M L King Jr Blvd @ 20th St,27.981278,-82.4377
7074,M L King Jr Blvd @ Park Oaks Blvd,27.981438,-82.332329
5751,Dale Mabry Hwy @ 12000,28.059027,-82.50381
7077,Dale Mabry Hwy@ Gaither High School,28.101676,-82.502518
5752,Dale Mabry Hwy @ Colby Rd N/S,28.057028,-82.503974
7076,Hillsborough Av @ Orient Rd,27.996357,-82.373551
4223,Westshore Blvd @ Ballast Point Blvd,27.889613,-82.526731
7079,Dale Mabry @ 14306 Landmark Plaza,28.076838,-82.50699
7078,Dale Mabry@ 14502 Village French Pz,28.08155,-82.506575
5750,Dale Mabry Hwy @ Stall Rd F/S,28.061537,-82.503947
2455,Gibsonton Dr @ Sunset Ct,27.84969,-82.36201
4226,Hillsborough Av @ Highland Av,27.996002,-82.461676
3743,Armenia Av @ Hanna Av,28.003245,-82.484344
5754,Dale Mabry Hwy @ 11500,28.053319,-82.504196
3742,Armenia Av @ Burke St,28.00195,-82.48434
2453,Gibsonton Dr @ Vern St,27.849635,-82.366669
3741,Armenia Av @ Clifton St,28.000552,-82.484344
5756,Dale Mabry Hwy @ 11010,28.049259,-82.504475
3740,Armenia Av @ Powhatan Av,27.998883,-82.484343
5755,Dale Mabry Hwy @ 11210,28.050463,-82.504397
5758,Dale Mabry Hwy @ Lake Carroll Way,28.043629,-82.504905
5757,Dale Mabry Hwy @ 10444,28.046585,-82.504705
2457,Gibsonton Dr @ Ray St,27.849649,-82.358623
4228,Hillsborough Av @ Ola Av,27.996322,-82.464118
3745,Armenia Av @ Minnehaha St,28.008906,-82.484337
4229,Hillsborough Av @ Lee Place,27.996176,-82.469766
3744,Armenia Av @ Diana St,28.006537,-82.484333
5759,Dale Mabry Hwy @ 10004,28.041513,-82.505016
3749,Armenia Av @ 7519,28.016787,-82.484905
3748,Armenia Av @ Hamilton Av,28.014224,-82.485218
7042,24th St @ 151St Av,28.088881,-82.432306
7041,Dale Mabry Hwy @ Fair Oaks Av,27.901903,-82.506021
7040,N Boulevard @ Bougainvillea Av,28.043715,-82.467791
7049,Armenia Av @ Burke St,28.002232,-82.484454
7048,Armenia Av @ Hanna Av,28.003479,-82.484451
7047,Armenia Av @ Armenia Place,28.03583,-82.48349
7046,Linebaugh Av @ Valle Dr,28.039927,-82.477894
5760,Sheldon Rd @ Sheldon Chase Dr,28.034765,-82.583127
4234,Marion St @ Zack St,27.950863,-82.457311
7045,Armenia Av @ 6905,28.011873,-82.484554
3750,Armenia Av @ Kenmore Av,28.018843,-82.484237
5761,Sheldon Rd @ Fountain Estates,28.030935,-82.583181
4233,Marion St @ Kennedy Blvd,27.948681,-82.456328
2461,Gibsonton Dr @ Kenda Dr,27.85694,-82.335336
7044,M L King Jr Blvd @ Berkley Dr,27.981354,-82.368604
4231,Hillsborough Av @ Rome Av,27.99607,-82.47597
5763,Waters Av @ Northbridge Blvd,28.025792,-82.575421
7043,Nuccio Pkwy @ 13th St,27.963219,-82.445527
3730,Armenia Av @ Virginia Av,27.979628,-82.484676
5767,Sheldon Rd @ Fountain Estates,28.031479,-82.582777
4235,Marion St @ Cass St,27.952312,-82.457939
2443,Gibsonton Dr @ Gloria St,27.849854,-82.372652
5766,Sheldon @River Oaks Treatment Plant,28.026706,-82.58284
2444,Gibsonton Dr @ Davis St,27.849855,-82.37648
3732,Armenia Av @ Eddy Dr,27.98544,-82.484582
5765,Waters Av @ Sheldon Rd,28.026107,-82.583943
4237,Marion Transit Center,27.954927,-82.458753
2445,Gibsonton Dr @ Ethel St,27.84984,-82.37872
3731,Armenia Av @ Wishart Blvd,27.982894,-82.484566
5764,Waters Av @ Jasmine Apts,28.025732,-82.56548
2446,Gibsonton Dr @ Massachusetts St,27.849839,-82.380541
3734,Armenia Av @ Osborne Av,27.988491,-82.484527
3733,Armenia Av @ Erna Dr,27.986326,-82.484561
2448,Gibsonton Dr @ Gloria St,27.849659,-82.373003
3736,Armenia Av @ Hillsborough Av,27.995795,-82.484306
5769,Sheldon Rd @ Sheldon Chase Dr,28.033824,-82.58274
3735,Armenia Av @ Violet St,27.99047,-82.484487
5768,Sheldon Rd @ Country Side Villas,28.033389,-82.58274
3739,Armenia Av @ Comanche Av,27.997506,-82.484346
7051,M L King Jr Blvd @ Habana Av  Ws,27.981158,-82.489687
7050,Armenia Av @ Clifton St,28.000631,-82.484459
7053,Bearss Av @ Livingston Av,28.080511,-82.430206
7052,N Boulevard @ Braddock St,27.972157,-82.4677
7058,Macdill Av @ S Adams St,27.869116,-82.494161
5770,Sheldon Rd @ Redwood Blvd,28.036468,-82.582674
4241,Marion St @ Cass St,27.951651,-82.457858
5773,Sheldon Rd @ Gardner Rd,28.050748,-82.582505
5774,Sheldon Rd @ S Meadowview Cr,28.052949,-82.582459
7054,Livingston Av @ 148th Av,28.083659,-82.430742
4242,Marion St @ Washington St,27.947177,-82.45566
5771,Sheldon @ N Hills Co Health Ctr,28.03904,-82.582607
7057,Macdill Av @ Estrella St,27.92846,-82.493542
2451,Gibsonton Dr @ Alafia St,27.849658,-82.37093
4244,Marion St @ Estelle St,27.958208,-82.45869
7056,30th St @ Fern St,28.004833,-82.426596
2479,Broadway Av @ 52nd St,27.962668,-82.398108
2478,Broadway Av @ 51St St,27.962414,-82.399161
4247,Florida Av @ Waters Av,28.024459,-82.459563
4255,Macdill Air Force Base,27.863302,-82.499519
2484,Broadway Av @ 59th St,27.965073,-82.388396
4256,South Boulevard @ Deleon St,27.938973,-82.46865
4253,South Boulevard @ Deleon St,27.93864,-82.46859
4254,Britton Plaza,27.906778,-82.504183
2481,Broadway Av @ 53Rd St,27.963228,-82.39586
5706,Us Hwy 41 @ Dimare Packing,27.759138,-82.401191
5707,Us Hwy 41 @ Dickman Dr,27.718124,-82.434251
5704,Gibsonton Dr @ Gibsonton St,27.855531,-82.339706
5705,Gibsonton  @ Gibsonton Elem School,27.84986,-82.36851
2468,Broadway Av @ 62nd St,27.966254,-82.384122
5702,Us Hwy 301 @ Balm Riverview Rd,27.865937,-82.326697
2465,Broadway Av @ Locicero Dr,27.966824,-82.378119
5701,Providence Rd @ Purity Lane,27.901467,-82.318647
2466,Broadway Av @ 68th St,27.966839,-82.379589
4264,21St Av @ 43Rd St,27.970334,-82.410246
2471,Broadway Av @ 59th St,27.965256,-82.388161
2472,Broadway Av @ 58th St,27.964858,-82.389772
5717,Us Hwy 41 @ Pembroke Rd,27.80739,-82.3841
5718,Us Hwy 41 @ Beach Av  (Twin Oaks),27.840939,-82.381483
5719,Gibsonton Dr @ Massachusetts St,27.849654,-82.380425
2499,Lois Av @ Dale Av,27.939344,-82.513987
5711,Sr 674 @ South Bay Hospital,27.713057,-82.365334
2498,Lois Av @ Swann Av,27.93803,-82.51404
2497,Lois Av @ Inman Av,27.93573,-82.513954
5714,Us Hwy 41 @ Dickman Dr,27.718741,-82.433907
3703,Tampa Bay Blvd @ Dale Mabry Hwy,27.973973,-82.503736
5715,Us Hwy 41 @ Dimare Packing,27.758977,-82.400995
3700,Tampa Bay Blvd @ Dale Mabry Hwy,27.974123,-82.503852
5716,Us Hwy 41 @ P.T.G. Packing,27.784678,-82.3842
4273,University Mall,28.057475,-82.436651
4271,N Boulevard @ Sligh Av,28.011124,-82.467729
4272,N Boulevard @ Country Club Dr,28.054482,-82.46744
7089,Broadway Av @ 61St St,27.965766,-82.386095
7087,Orient Rd @ King Alfred Dr,27.982571,-82.373234
7088,Broadway Av @ 64th St,27.96642,-82.383606
7085,Causeway Blvd @ Vemtura Av,27.923113,-82.344372
7086,Tampa St @ Royal St,27.953362,-82.461037
7084,Causeway Blvd @ Ventura Av,27.92278,-82.34484
7081,Dale Mabry @ 13246 Publix Market,28.068828,-82.506039
7080,Dale Mabry @13856 Drs Walkin Clinic,28.07084,-82.50664
5728,Providence Rd @ Dianne Cove,27.872656,-82.318297
5729,Providence Rd @ Watermark 6000,27.891025,-82.318403
2487,Broadway Av @ 64th St,27.966392,-82.382998
5723,Gibsonton Dr @ Fren Hill Dr,27.855187,-82.339707
2486,Broadway Av @ 61St St,27.965516,-82.386583
5720,Gibsonton Dr @ Davis St,27.849661,-82.376694
5721,Gibsonton @ Gibsonton Elem School,27.849658,-82.368921
5727,Riverview Dr @ North St,27.871602,-82.32139
5724,Gibsonton Dr @ Oak Ridge Av,27.856933,-82.328216
5725,Us Hwy 301 @ Rivercrest Dr,27.861044,-82.326431
4284,Westfield Brandon,27.931992,-82.324716
4285,Palm River Rd @ 50th St,27.942878,-82.401185
2492,Broadway Av @ 73Rd St,27.966704,-82.374056
2493,Lois Av @ Henderson Blvd,27.927071,-82.513997
7099,Hillsborough Av @ 44th St,27.996189,-82.408227
2494,Lois Av @ Estrella Av,27.928339,-82.513998
2495,Lois Av @ Zelar St,27.931111,-82.51397
4289,Republica De Cuba @ Columbus Dr,27.966534,-82.444312
2496,Lois Av @ Morrison Av,27.933883,-82.513942
7094,Manhattan Av @ Euclid Av,27.907946,-82.518048
7095,Ingraham St @ Kissimmee St,27.862099,-82.529019
7091,Broadway Av @ 53Rd St,27.963281,-82.39616
7092,Broadway Av @ 52nd St,27.962754,-82.398297
7093,Columbus Dr @ Taliaferro Av,27.966759,-82.452849
1396,Westshore Blvd @ Gandy Blvd,27.894187,-82.526876
1394,Westshore Blvd @ Oakellar St,27.894732,-82.526878
1391,Westshore Blvd @ Fair Oaks Av,27.900684,-82.526787
1390,Westshore Blvd @ Flamingo Road,27.904717,-82.52676
1388,Westshore Blvd @ Bay Court Av,27.907502,-82.526762
7021,34th St @ 21St Av,27.96958,-82.422425
7022,17th Av @ 29th St,27.967544,-82.428349
7023,21St St @ 11th Av,27.96344,-82.435558
7024,Palm Av @ Nuccio Pkwy,27.962477,-82.446424
7025,Palm Av @ Nuccio Pkwy,27.962259,-82.447107
7028,56th St @ 11402,28.051325,-82.393849
7020,40th St @ Bluff Av,28.019656,-82.414039
7019,40th St @ River Pines Apts,28.017926,-82.414111
7018,40th St @ Pine Tree Place,28.016359,-82.414051
5779,Palm Av @ Florence St,27.962445,-82.449714
5777,Sheldon Rd @ Fawn Ridge Blvd,28.061877,-82.582362
5778,Palm Av @ Florence St,27.962186,-82.450144
1342,Westshore Blvd @ Euclid Av,27.908628,-82.526599
5775,Sheldon Rd @ Sheldon West Dr,28.056671,-82.582394
5776,Sheldon Rd @ Westwind Dr,28.057875,-82.582396
7034,15th St @ College Park Lane,28.055626,-82.442757
7035,Waters Av @ Branch Av,28.02519,-82.457854
1341,Westshore Blvd @ Bay Vista Av,27.906399,-82.526627
7032,Waters Av @ Branch Av,28.025361,-82.457824
5795,Westshore Blvd @ Interbay Blvd,27.86606,-82.52705
7038,N Boulevard @ El Portal Dr,28.032269,-82.467675
7039,Country Club Dr @ Country Club Pl,28.054676,-82.464526
7036,Nuccio Pkwy @ 13th St,27.963415,-82.445814
7037,Rome Av @ Ferris Av,27.982782,-82.476529
7030,34th St @ Palifox St,27.986847,-82.422527
7031,15th St @ Mohawk Av,27.996711,-82.442845
1339,Westshore Blvd @ Wallcraft Av,27.902903,-82.526624
1335,Westshore Blvd @ Oakellar St,27.895774,-82.526677
1336,Westshore Blvd @ Coachman Av,27.897377,-82.526669
1337,Westshore Blvd @ Alline St,27.898854,-82.52666
1338,Westshore Blvd @ Fair Oaks Av,27.900221,-82.526651
1334,Westshore Blvd @ Gandy Blvd,27.894205,-82.526793
7006,12th St @ Washington St,27.948668,-82.446623
7000,Falkenburg Rd @ Columbus Dr,27.965922,-82.335375
7001,Parson Av @ Mason St,27.934921,-82.285691
5799,S Florida Av @ Jackson St,27.947363,-82.456754
5798,Tampa St @ Kennedy Blvd,27.947149,-82.458768
7016,Osborne Av @ 40th St,27.988711,-82.414616
7017,40th St @ Norfork St,28.01156,-82.415004
7014,Morgan St @ Bell St,27.945257,-82.453868
7015,M L King Jr Blvd @ 6605,27.981335,-82.380598
7012,Dale Mabry Hwy @ Elmwood Terrace,27.877381,-82.506295
7013,Dale Mabry Hwy @ Cam St,27.903806,-82.506003
7010,Swann Av @ Edison Av,27.937337,-82.469627
7011,Dale Mabry Hwy @ Elmwood Terrace,27.877728,-82.506577
7008,56th St @ Puritan Rd Ns,28.021197,-82.393535
7007,12th St @ Kennendy Blvd,27.950249,-82.446559
1317,Hillsborough Av @ Orient Rd,27.996029,-82.373507
1316,Hillsborough Av @ 6813,27.996031,-82.375938
1314,Hillsborough Av @ Walton Way,27.996024,-82.380689
1313,Hillsborough Av @ Harney Rd,27.996026,-82.382938
1311,Hillsborough Av @ 50th St,27.995925,-82.401982
1310,Hillsborough Av @ 46th St,27.996002,-82.406746
1329,Westshore Blvd @ Pearl Av,27.887602,-82.526739
1328,Westshore Blvd @ Wallace Av,27.885216,-82.526847
1324,Westshore Blvd @ Fairview Heights,27.878469,-82.52688
1327,Westshore Blvd @ Trilby Av,27.883218,-82.526765
1326,Westshore Blvd @ Wisconsin Av,27.881665,-82.526852
1321,Westshore Blvd @ Everett St,27.871767,-82.526804
1320,Westshore Blvd @ McCoy St,27.869635,-82.526904
1322,Westshore Blvd @ Westshore Circle,27.87337,-82.526816
1307,Hillsborough Av @ 43Rd St,27.995998,-82.410105
1306,Hillsborough Av @ 40th St Es,27.996001,-82.413184
1308,Hillsborough Av @ 44th St,27.996,-82.408603
1301,Hillsborough Av @ 32nd St,27.995997,-82.424601
1303,Hillsborough Av @ 36th St,27.996002,-82.42049
1302,Hillsborough Av @ 34th St,27.996,-82.422638
1305,Hillsborough Av @ 40th St Ws,27.996002,-82.41553
1304,Hillsborough Av @ 37th St,27.996004,-82.418513
4196,Gunn Hwy @ Anderson Rd,28.061443,-82.542855
4185,Fowler Av @ 17th St,28.054667,-82.440466
4184,Tyler St @ Ashley Dr,27.951505,-82.462171
3797,Armenia Av @ Braddock St,27.972658,-82.484863
3799,Armenia Av @ Abdella St,27.970455,-82.484931
4173,S Meridian St @ Cumberland Av,27.945502,-82.448249
4172,Jefferson St @ Crosstown Expwy,27.9459,-82.452177
4179,Pierce St @ Whiting St,27.946798,-82.453758
4178,North St @ Delia St,27.715812,-82.306561
3783,Armenia Av @ Comanche Av,27.997665,-82.484464
3782,Armenia Av @ Powhatan Av,27.999148,-82.484457
2405,21St Av @ 9th St,27.970536,-82.44967
3777,Armenia Av @ Hiawatha St,28.00883,-82.484434
3778,Armenia Av @ Diana St,28.006808,-82.484442
3775,Armenia Av @ Sligh Av,28.010385,-82.484456
2401,21St Av @ Republica De Cuba,27.970552,-82.444137
2400,21St Av @ 15th St,27.970546,-82.442753
3773,Armenia Av @ Armenia Ct,28.017013,-82.484986
3774,Armenia Av @ Hamilton Av,28.014143,-82.485309
2409,21St Av @ 15th St,27.970374,-82.443178
2408,21St Av @ Republica De Cuba,27.970437,-82.444414
2407,21St Av @ 13th St,27.970437,-82.44569
2406,21St Av @ 11th St,27.970446,-82.448009
3792,Armenia Av @  M L King Jr Blvd,27.981553,-82.484755
3791,Armenia Av @ Alva St,27.983237,-82.484712
3793,Armenia Av @ Virginia Av,27.980164,-82.484804
3788,Armenia Av @ Osborne Av,27.988914,-82.484619
2414,21St Av @ 22nd St,27.970383,-82.435158
3789,Armenia Av @ Erna Dr,27.986539,-82.484664
2413,21St Av @ Banza St,27.970374,-82.436282
2416,21St Av @ 26th St,27.970337,-82.430743
3784,Armenia Av @ Hillsborough Av,27.996491,-82.484489
2410,21St Av @ 16th St,27.970392,-82.441619
3785,Armenia Av @ Crest Av,27.993966,-82.484508
3786,Armenia Av @ Wilder Av,27.992524,-82.48454
2412,21St Av @ 19th St,27.970383,-82.437639
3787,Armenia Av @ Violet St,27.990334,-82.484594
2411,21St Av @ 17th St,27.970383,-82.44008
2418,21St Av @ 32nd St,27.970337,-82.42412
2417,21St Av @ 29th St,27.970346,-82.428231
3761,Armenia Av @ Marianna St,28.03777,-82.482403
3760,Armenia Av @ Armenia Place,28.035161,-82.483668
3753,Armenia Av @ Rose Hill Av,28.024421,-82.48417
3754,Armenia Av @ Waters Av,28.026024,-82.48415
3751,Armenia Av @ Marquette Av,28.019565,-82.484213
3752,Armenia Av @ Sitka St,28.021533,-82.484209
3758,Armenia Av @ Skagway Av,28.032046,-82.484052
3755,Armenia Av @ Okaloosa Av,28.031168,-82.484072
3759,Armenia Av @ Rambla St,28.033682,-82.484098
3770,Armenia Av @ Westhigh Av,28.021451,-82.484391
3772,Armenia Av @ Kenmore Av,28.018798,-82.48442
3771,Armenia Av @ Marquette St,28.020129,-82.48441
3765,Armenia Av @ Humphrey St,28.029918,-82.484294
3768,Armenia Av @ Waters Av,28.025218,-82.484342
3869,Bloomingdale Av @ Kings Av,27.893499,-82.293232
5633,M L King Jr Blvd @ 6606,27.981642,-82.380708
5632,M L King Jr Blvd @ 69th St,27.981584,-82.377383
2335,7th Av @ 23Rd St,27.960139,-82.433609
4103,131St Av @ 20th St,28.065451,-82.436755
2332,7th Av @ 10th St,27.960338,-82.448414
5635,M L King Jr Blvd @ Carroway St,27.98153,-82.391179
2333,7th Av @ Scott St,27.960184,-82.448372
5634,M L King Blvd @ Interstate Ind Park,27.981561,-82.388023
5637,M L King Jr Blvd @ 52nd St,27.981545,-82.39772
2338,7th Av @ 31St St,27.96013,-82.425408
5636,M L King Jr Blvd @ 54th St,27.981527,-82.395661
4107,22nd St @ Aimee Ct,28.078199,-82.434524
2336,7th Av @ 24th St,27.96013,-82.432101
5639,Cleveland St @ Melville Av,27.943353,-82.479754
5638,M L King Jr Blvd @ Phillips St,27.981552,-82.399608
2337,7th Av @ 25 th St,27.96013,-82.431118
7169,Fowler Av @ Riverhills Dr,28.054136,-82.368059
7168,Fowler Av @ Gillette Av,28.054204,-82.376148
7167,Fowler Av @ Moffat Place,28.054206,-82.380071
2342,7th Av @ 35th St,27.960111,-82.421094
5640,Manhattan Av @ Bayview Av,27.905131,-82.518479
7166,Fowler Av @ 62nd St,28.054227,-82.384613
4112,22nd St @ Osborne Av,27.988596,-82.43463
2341,7th Av @ 34th St,27.96012,-82.422623
5641,Manhattan Av @ 4315,27.901694,-82.518467
2329,7th Av @ 26th St,27.960282,-82.430847
5646,Westshore Blvd @ Bay Vista Av,27.905979,-82.526778
2321,7th Av @ 39th St,27.960251,-82.415403
5645,Manhattan Av @ Mango Av,27.875524,-82.518687
2322,7th Av @ 38th St,27.960245,-82.417275
4116,22nd St @ Flager St,27.941431,-82.434626
5644,Manhattan Av @ Bay Av,27.87932,-82.518699
4117,22nd St @ Chapin St,27.942867,-82.434633
5643,Manhattan Av @ La Villa Lane,27.898231,-82.518458
4119,22nd St @ Stuart St,27.947124,-82.434612
5649,Wsetshore Blvd @ Coachman Av,27.897685,-82.526851
2326,7th Av @ 31St St,27.960282,-82.425179
5648,Westshore Blvd @ Alline Av,27.898943,-82.526797
2327,7th Av @ 27th St,27.960275,-82.429212
5647,Westshore Blvd @ Wallcraft Av,27.902865,-82.526758
7179,4th Av @ 19th St,27.958002,-82.437568
5652,Westshore Blvd @ Ballast Point Blvd,27.88981,-82.52687
4122,22nd St @ 11th Av,27.963001,-82.434652
5653,Westshore Blvd @ Pearl Av,27.887564,-82.526882
7175,Davis Rd @ Temple Terrace Hwy,28.033092,-82.356565
5650,Westshore Blvd @ McElroy Av,27.892793,-82.526907
7178,Fletcher Av @ Magnolia Dr F/S,28.069252,-82.420747
2331,7th Av @ 23Rd St,27.960293,-82.433346
5651,Westshore Blvd @ Price Av,27.891002,-82.526852
4123,22nd St @ Hansel Ct,28.079168,-82.434747
7177,78th St @ Renald Blvd,28.027528,-82.368805
2330,7th Av @ 24th St,27.960293,-82.43209
7172,Davis Rd @ Christi Ct,28.044221,-82.356554
7171,Davis Rd @ Morris Bridge Rd,28.050578,-82.356619
7174,Davis Rd @ Copeland Rd,28.035682,-82.356572
7170,Fowler Av @ Morris Bridge Rd,28.054079,-82.362292
5619,M L King Jr Blvd @ Williams Rd,27.981438,-82.319171
2318,7th Av @ 43Rd St,27.960264,-82.409884
2316,7th Av @ 47th St,27.960947,-82.405752
5617,M L King Jr Blvd @ Orange St,27.981702,-82.307629
5616,M L King Jr Blvd @ Peek St,27.981734,-82.304684
2320,7th Av @ 40th St,27.960242,-82.413996
7188,M L King Jr Blvd @ Ola Av,27.981583,-82.463695
7187,M L King Jr Blvd @ Ola Av,27.981517,-82.463625
7186,Linebaugh Av @ Florida Av,28.0399,-82.458861
7185,Temple Terrace Hwy @ 78th St Fs,28.03262,-82.368364
7184,Dale Mabry Hwy @ Columbus Dr,27.966098,-82.505317
2307,Platt St @ Plant Av,27.941551,-82.462695
2308,Platt St @ Parker St,27.94156,-82.461308
5629,M L King Jr Blvd @ Danny Bryan Rd,27.981628,-82.364234
5628,M L King Jr Blvd @ Us Hwy 301 Ws,27.981636,-82.360662
2303,Platt St @ Delaware Av,27.94173,-82.470785
5627,M L King Jr Blvd @ Us Hwy 301 Es,27.981603,-82.358588
2304,Platt St @ S Boulevard,27.941631,-82.468718
5626,M L King Jr Blvd @ 9001,27.981627,-82.356827
2305,Platt St @ Magnolia Av,27.941596,-82.465995
5625,M L King Jr Blvd @ Coconut Palm,27.981496,-82.350328
2306,Platt St @ Hyde Park Av,27.941596,-82.464162
5624,M L King Jr Blvd @ Riga Blvd,27.981411,-82.346721
5623,M L King Jr Blvd @ Cragmont Dr,27.98146,-82.341716
2300,Platt St @ Packwood Av,27.941755,-82.477697
5622,M L King Jr Blvd @ Wedgemere Dr,27.981454,-82.339661
2301,Platt St @ Dakota Av,27.941719,-82.475905
5621,M L King Jr Blvd @ McLane Dr,27.981455,-82.336211
2302,Platt St @ Willow Av,27.941748,-82.472233
7198,56th St @ King High School,28.008912,-82.393405
5630,M L King Jr Blvd @ Cromwell Dr,27.981601,-82.367811
7197,Hillsborough Av @ Jamaica St,27.996017,-82.494618
5631,M L King Jr Blvd @ Orient Rd Ws,27.981625,-82.373975
4102,Linebaugh Av @ Armenia Av,28.040056,-82.480554
7199,Gunn Hwy @ Birmingham St,28.063303,-82.547805
7192,Sr 60 @ Nissan,27.948531,-82.343819
7191,Sr 60 @ Comfort Suites,27.945933,-82.339667
7194,Kennedy Bl @ Lincoln Av,27.944654,-82.496903
7193,Florida Av @ 12738,28.062569,-82.459454
7196,Cass St @ Ashley Dr,27.950428,-82.46216
2382,21St Av @ 43Rd St,27.970455,-82.410341
2386,21St Av @ 38th St,27.970452,-82.417206
2383,21St Av @ 42nd St,27.970497,-82.412322
2384,21St Av @ 40th St,27.970489,-82.41375
5601,Brandon Blvd @ Moon Av,27.937836,-82.288369
2368,18th Av @ 31St St,27.968273,-82.425936
5600,Brandon Blvd @ Edwards Av,27.937819,-82.287001
2367,18th Av @ 32nd St,27.96829,-82.424151
5605,Brandon Blvd @ Limona Rd,27.937893,-82.303813
3810,Armenia Av @ Deleon St,27.938802,-82.485106
5606,Providence @ Providence Pk Apts So,27.931689,-82.314322
2369,21St St @ Mallory Av,27.970226,-82.435548
3811,Armenia Av @ Swann Av,27.937679,-82.485129
5604,Brandon Blvd @ Lakeside Dr,27.93789,-82.30053
5607,Providence @ Providence Pk  Apts No,27.932748,-82.31438
2370,21St St @ 19th Av,27.96886,-82.435544
2371,21St St @ 17th Av,27.967633,-82.435541
2372,21St St @ Columbus Dr,27.966851,-82.435604
3801,Armenia Av @ Kathleen St,27.96752,-82.48497
3802,Armenia Av @ St Joseph St,27.966116,-82.484969
4129,22nd St @ Linebaugh Av,28.04006,-82.434749
3800,Armenia Av @ Cordelia St,27.969012,-82.484895
2357,14th Av Se @ 6th St Se,27.705988,-82.426781
4128,22nd St @ Poinsettia Av,28.041826,-82.43465
4126,22nd St @ Fowler Av,28.053679,-82.43466
2354,14th Av Se @ 21St St Se,27.705902,-82.406318
4125,22nd St @ 142nd Av,28.075945,-82.434616
3809,Armenia Av @ Horatio St,27.939999,-82.485112
3807,Armenia Av @ Chestnut St,27.958795,-82.485023
3808,Armenia Av @ Azeele St,27.941244,-82.48511
3806,Armenia Av @ Walnut St,27.960213,-82.485006
3803,Armenia Av @ St John St,27.964604,-82.484998
3804,Armenia Av @ Beach St,27.963146,-82.485018
2363,14th Av Se @ 15th St Se,27.705768,-82.414798
4135,22nd St @ North Bay St,27.983441,-82.434775
2361,14th Av Se @ 6th St Se,27.705834,-82.427144
4132,22nd St @ Busch Blvd,28.033037,-82.434686
4133,22nd St @ Skagway Av,28.032025,-82.434694
4130,22nd St @ 97th Av,28.037439,-82.434648
4131,22nd St @ Sewaha St,28.035081,-82.43466
2347,7th Av @ 43Rd St,27.960108,-82.41025
2349,7th Av @ 50th St,27.961519,-82.402766
2344,7th Av @ 38th St,27.960092,-82.416831
2343,7th Av @ 36th St,27.960111,-82.419646
1298,Hillsborough Av @ 30th St,27.995999,-82.426632
2346,7th Av @ 40th St,27.960091,-82.414189
2345,7th Av @ 39th St,27.960101,-82.415849
4144,50th St @ Crosstown Expwy,27.949825,-82.401837
2353,14th Av Se @ 24th St Se,27.705864,-82.402461
4146,Bearss Av @ Pinecrest Rd,28.087859,-82.457645
4141,Bruce B Downs Blvd @ Mimosa St,28.06723,-82.42593
4142,50th St @ Adamo Dr,27.952785,-82.401587
1293,Hillsborough Av @ 12th St,27.995993,-82.445942
1290,Hillsborough Av @ Central Av,27.99593,-82.455558
1291,Hillsborough Av @ Nebraska Av,27.996031,-82.451324
1297,Hillsborough Av @ 22nd St,27.99599,-82.434999
1294,Hillsborough Av @ 15th St,27.995991,-82.443133
1295,Hillsborough Av @ 19th St,27.995994,-82.43905
1289,Hillsborough Av @ Florida Av,27.995975,-82.459752
1287,Hillsborough Av @ Rome Av,27.995916,-82.476496
1280,Hillsborough Av @ MacDill Av,27.996036,-82.492177
1281,Hillsborough Av @ Gomez Av,27.996083,-82.490201
1282,Hillsborough Av @ Habana Av,27.996081,-82.488218
1283,Hillsborough Av @ Armenia Av,27.996022,-82.484752
1284,Hillsborough Av @ Howard Av,27.99595,-82.481581
1285,Hillsborough Av @ Mendenhall Dr,27.995924,-82.478877
1277,Hillsborough Av @ Himes Av,27.995939,-82.500511
1278,Hillsborough Av @ Lincoln Av,27.995952,-82.49709
1274,Hillsborough Av @ Lois Av,27.995979,-82.512933
7101,Winn Dixie Pnr @ Apollo Beach Blvd,27.767959,-82.393938
1272,Hillsborough Av @ Lois Av,27.995962,-82.513803
7100,Hillsborough Av @ Airport Blvd,27.996125,-82.527318
7102,Hillsborough Av @ 4941,27.996,-82.403546
7105,Memorial Hwy @ Mohr Rd,28.001408,-82.58682
7104,Hillsborough Av @ Beaumont Ctr Blvd,27.996275,-82.549156
1269,Hillsborough Av @ Hoover Blvd,27.996147,-82.533345
2398,21St Av @ 17th St,27.970533,-82.439923
2399,21St Av @ 16th St,27.970525,-82.441328
5699,Providence Rd @ Providence Lake Bl,27.911558,-82.318865
5698,Providence Rd @ Sweetridge Av,27.916047,-82.318843
1261,Hillsborough Av @ Kelly Rd,27.996483,-82.564521
7112,Gunn Hwy @ Citrus Park Dr,28.065923,-82.569372
2397,21St Av @ 19th St,27.970524,-82.437769
7111,Citrus Park Dr @ Easy St,28.065957,-82.571095
2396,21St Av @ 20th St,27.970519,-82.436729
7110,Citrus Pk Dr @ Gunn/Mall East Entry,28.066272,-82.57264
2395,21St Av @ 21St St,27.970524,-82.43537
2394,21St Av @ 22nd St,27.970506,-82.434633
7116,Sligh Av @ 10th St,28.010548,-82.44931
2393,21St Av @ 23Rd St,27.970498,-82.43331
7115,Turner Rd @ Ehrlich Rd,28.081853,-82.541822
2392,21St Av @ 26th St,27.970491,-82.43052
2391,21St Av @ 29th St,27.970481,-82.42798
7114,Columbia Dr @ Davis Blvd,27.936507,-82.458826
2390,21St Av @ 31St St,27.970472,-82.425721
7113,Arbor Place @ Davis Blvd,27.934686,-82.457621
1259,Hillsborough Av @ Town N Country,27.996518,-82.569248
7108,22nd St @ Ellicott St/Middleton Sch,27.990359,-82.434763
1258,Hillsborough Av @ Halifax Dr,27.996538,-82.572097
7109,Citrus Park Dr @ Gunn Hwy/ Circle K,28.066275,-82.570779
7106,22nd St @ Ellicott St/Middleton Sch,27.990217,-82.43464
7107,22nd St @ Meridel St,28.046136,-82.434526
1254,Hillsborough Av @ Memorial Hwy,27.996887,-82.581503
1257,Hillsborough Av @ Webb Rd,27.996566,-82.575417
2387,21St Av @ 35th St,27.970485,-82.420439
2388,21St Av @ 34th St,27.970499,-82.422134
5682,Euclida Av @ thatcher Av,27.908655,-82.515448
5681,Euclid Av @ Collidge St,27.908671,-82.517259
5680,Manhattan Av @ Paul Av,27.891423,-82.518306
5686,Swann Av @ Habana Av,27.937357,-82.489256
5685,Swann Av @ Gomez  Av,27.937374,-82.49124
1251,Hillsborough Av @ Webb Rd,27.996777,-82.574756
5684,Henderson Blvd @ Himes Av,27.937097,-82.50197
7123,Sr 674 @ 33Rd St Se,27.712197,-82.376502
1250,Hillsborough Av @ Halifax Dr,27.996755,-82.572013
1245,Hillsborough Av @ Sawyer Rd,27.996639,-82.556358
5679,Manhattan Av @ Ballast Point Blvd,27.889575,-82.518336
1246,Hillsborough Av @ Hanley Rd,27.996691,-82.563689
5676,Manhattan Av @ Lancaster St,27.868358,-82.518496
5677,Manhattan Av @ McCoy St,27.869654,-82.518477
1244,Hillsborough Av @ Golden Dr,27.99662,-82.553584
1249,Hillsborough Av @ Town 'N Country,27.996726,-82.568107
7118,Sligh @ Riverhills Church Of God,28.010822,-82.380801
7117,Sligh Av @ Riverhills Church Of God,28.010659,-82.380791
7119,Sr 60 @ Falkenburg Rd N/S,27.943949,-82.335948
1248,Hillsborough Av @ Ambassador Dr,27.996705,-82.565084
7137,Boy Scout Blvd @ Lois Av,27.963437,-82.515942
7138,Webb Rd @ Elm St,28.009746,-82.575101
7135,Cypress St @ Marie Av,27.952031,-82.504208
5695,Sr 60 @ Brandon Town Center Dr,27.938818,-82.323119
7133,Kelly Rd @ Swindon Rd,27.986257,-82.565016
1240,Hillsborough @ 5555 Crown Bowling,27.996432,-82.537866
5697,Providence Rd @ Windingwood Av,27.919731,-82.31884
1242,Hillsborough Av @ Beaumont Ctr Blvd,27.996524,-82.548751
1241,Hillsborough Av @ Benjamin Dr,27.996469,-82.540496
7132,Channelside,27.943881,-82.447075
1232,Hillsborough Av @ Lois Av N/S,27.996261,-82.513961
5687,Platt St @ Melville Av,27.94179,-82.479935
1233,Hillsborough Av @ Lois Av (Hooters),27.996267,-82.514812
1234,Hillsborough Av @4427 Hesperides St,27.996309,-82.519859
1236,Hillsborough Av @ Anderson Rd,27.996322,-82.5223
1238,Hillsborough Av @ Hoover Blvd,27.99642,-82.534204
5664,Westshore Blvd @ the Park,27.866793,-82.52686
7143,Channelside Dr @ Caesar St,27.943629,-82.449774
5662,Ingraham St @ Sherrill St,27.862088,-82.531092
7144,22nd St @ 25th Av,27.97376,-82.434799
5661,Westshore Blvd @ McCoy St,27.869864,-82.526982
7145,Habana Av @ Mohawk Av,27.996672,-82.488632
5660,Westshore Blvd @ Lookout Pointe,27.877274,-82.526959
7146,Sligh Av @ 56th St W/S,28.010793,-82.394883
7149,Boardwalk @ Morris Bridge Rd,28.053424,-82.360366
1227,Hillsborough Av @ MacDill Av,27.996199,-82.49242
1228,Hillsborough Av @ Lincoln Av,27.996195,-82.497458
5658,Westshore Blvd @ Fairview Heights,27.878733,-82.526943
1225,Hillsborough Av @ Habana Av,27.99621,-82.488429
5659,Westshore Blvd @ Westshore Cr,27.873547,-82.526971
5656,Westshore Blvd @ Wisconsin Av,27.881783,-82.526921
5657,Westshore Blvd @ Ohio Av,27.880202,-82.526923
5654,Westshore Blvd @ Wallace Av,27.885384,-82.526896
5655,Westshore Blvd @ Trilby Av,27.883408,-82.52691
7151,78th St @ Renald Blvd,28.027369,-82.36868
7152,78th St @ Sequoia Dr,28.030294,-82.368708
7150,Boardwalk @ Morris Bridge Rd,28.053593,-82.360549
5673,Euclid Av @ Royal Palm Cr Ws,27.908678,-82.521034
7155,Davis Rd @ Copeland Rd,28.035603,-82.35644
5672,Euclid Av @ Renellie Cr Es,27.908749,-82.523141
7156,Davis Rd @ Christi Ct,28.043841,-82.356351
5675,Interbay Blvd @ 8014,27.86583,-82.519728
1220,Hillsborough Av @ Florida Av,27.996299,-82.460303
5674,Euclid Av @ Royal Palm Cr Es,27.908684,-82.519354
7154,Davis Rd @ Temple Terrace Hwy,28.033224,-82.3564
5671,Euclid Av @ Renellie Cr Ws,27.90872,-82.524909
7157,Davis Rd @ Morris Bridge Rd,28.050668,-82.356436
5669,Westshore Blvd @ Flamingo Rd,27.904832,-82.526626
1214,Hillsborough Av @ 19th St,27.996122,-82.438388
1215,Hillsborough Av @ 15th St,27.996122,-82.442724
1216,Hillsborough Av @ 13th St,27.996131,-82.445246
1217,Hillsborough Av @ 11th St,27.996131,-82.447434
5665,Westshore Blvd @ Lancaster St,27.868377,-82.526908
5666,Westshore Blvd @ Lookout Pointe Ap,27.877028,-82.526884
5667,Westshore Blvd @ Ohio Av,27.880023,-82.526866
1212,Hillsborough Av @ 22nd St,27.996131,-82.4346
5668,Westshore Blvd @ Price Av,27.89061,-82.526722
1213,Hillsborough Av @ 20th St,27.996131,-82.436484
1219,Hillsborough Av @ Central Av,27.996243,-82.45561
4971,30th St @ 109th Av,28.046904,-82.426112
4970,3Oth St @ Times Customer Service,28.045185,-82.426111
4963,22nd St @ Water Av,28.02512,-82.434586
4964,22nd St @ Rowlett Park Rd,28.02745,-82.4324
4961,29th St @ 38th Av,27.984185,-82.427936
4962,30th St @ Cayuga St,27.986612,-82.426345
4967,30th St @ 99th Av,28.03891,-82.42613
4968,30th St @ Pointsettia Av,28.041295,-82.426117
4965,Yukon St @ 26th St,28.028705,-82.430433
4966,30th St @ 97th Av,28.038276,-82.426115
4969,30th St @ University Center,28.04482,-82.42609
4980,30th St @ Railroad Crossing,28.053833,-82.426315
4981,30th St @ Foxfire II Apts,28.045507,-82.426277
4972,30th St @ 113th Av,28.050822,-82.426099
4973,30th St @ Railroad Crossing,28.052574,-82.426031
4975,30th St @ Campus Hill Dr,28.060313,-82.425948
4978,30th St @ Campus Hill Dr,28.060433,-82.426205
4979,30th St @ Pine Dr,28.057753,-82.426254
4993,Kennedy Blvd @ Grady Av,27.944972,-82.510287
4991,30th St @ Shadowlawn St,27.993739,-82.426547
4990,30th St @ Comanche Av,27.997686,-82.42651
4989,30th St @ Idlewild Av,28.001078,-82.426527
4987,30th St @ Pocahontas Av,28.00888,-82.42653
4988,30th St @ County Hospital,28.002319,-82.426533
4985,22nd St @ Waters Av,28.025554,-82.434517
4986,22nd St @ Rowlett Park Dr,28.022692,-82.435186
4983,30th St @ Kelly Rigde Lane,28.03057,-82.426481
4984,22nd St @ Rowlett Park Dr,28.027365,-82.432632
4998,Spruce St @ Frontage Rd,27.96006,-82.532615
1204,Hillsborough Av @ 37th St,27.996147,-82.4182
4999,Tpa Internat'L  Airport Post Office,27.968271,-82.538498
1203,Hillsborough Av @ 40th St,27.996146,-82.413591
1206,Hillsborough Av @ 36th St,27.996156,-82.420114
4994,Westshore Blvd @ 1311 N,27.95478,-82.523994
1200,Hillsborough Av @ 46th St,27.996189,-82.406637
4996,Westshore Blvd @ Main St,27.957334,-82.523976
1202,Hillsborough Av @ 43Rd St,27.996192,-82.409904
4997,Spruce St @ Westshore Blvd,27.959987,-82.524951
1208,Hillsborough Av @ 32nd St,27.996166,-82.424136
1207,Hillsborough Av @ 34th St,27.996157,-82.42215
1209,Hillsborough Av @ 30th St,27.996157,-82.426263
2749,Palm Av @ 19th St,27.962295,-82.438135
2748,Palm Av @ 17th St,27.96225,-82.440636
2747,Palm Av @ 15th St,27.962304,-82.44336
3005,Columbus Dr @ Florida Av,27.966906,-82.459014
2742,Palm Av @ Florida Av,27.96232,-82.459282
3875,Davis Blvd @ Biscayne Av,27.925982,-82.452943
3006,Columbus Dr @ Tampa St,27.966928,-82.460741
2741,Palm Av @ Morgan St,27.962313,-82.457902
3003,Columbus Dr @ Central Av,27.966897,-82.45521
2740,Palm Av @ Central Av,27.962311,-82.455231
3009,Columbus Dr @ Massachusetts Av,27.966956,-82.465456
3878,Davis Blvd @ Bering St,27.931626,-82.45661
2745,Palm Av @ Mitchell Av,27.962177,-82.452099
3007,Columbus Dr @ Highland Av,27.966928,-82.462236
2744,Palm Av @ Central Av,27.962149,-82.45543
3876,Davis Blvd @ Barbados Av,27.927878,-82.454032
3008,Columbus Dr @ Ola Av,27.966925,-82.463496
2743,Palm Av @ Morgan St,27.962167,-82.458184
3877,Davis Blvd @ Bosphorus Av,27.92896,-82.45518
3013,Columbus Dr @ Ridgewood Av,27.966957,-82.472925
3882,Davis Blvd @ Adriatic Av,27.932603,-82.457003
3012,Columbus Dr @ Poplar Av,27.966956,-82.471521
3011,Columbus Dr @ Myrtle Av,27.966945,-82.46936
3010,Columbus Dr @ N Boulevard,27.966968,-82.467466
2759,Progress Blvd @ 85th St,27.899257,-82.362922
2750,Palm Av @ 20th St,27.962277,-82.436404
2757,Progress Blvd @ Us Hwy  301 F/S,27.893901,-82.340398
3000,Columbus Dr @ Nebraska Av,27.966914,-82.450935
3002,Columbus Dr @ Taliaferro Av,27.966897,-82.452891
3001,Columbus Dr @ Mitchell Av,27.966906,-82.451929
2769,Providence Rd @ Mahin Lane,27.880377,-82.318343
2768,Providence Rd @ Hackney Dr,27.878928,-82.318345
2767,Providence Rd @ Desoto Rd,27.876717,-82.318338
2766,Providence Rd @ Hannaway Dr,27.875041,-82.31834
3029,Columbus Dr @ St Vincent St,27.966609,-82.495987
3027,Columbus Dr @ Glen Av,27.96658,-82.499531
3028,Columbus Dr @ Lincoln Av,27.966581,-82.497445
3025,Columbus Dr @ Glen Av,27.966804,-82.499233
3026,Columbus Dr @ Himes Av,27.966579,-82.500817
2770,Providence Rd @ Roberts Lane,27.882189,-82.31837
3035,Columbus Dr @ Howard Av,27.966561,-82.482984
2771,Providence Rd @ Watson Rd,27.886636,-82.318407
3034,Columbus Dr @ Armenia Av,27.966596,-82.485131
3033,Columbus Dr @ Tampania Av,27.966614,-82.487055
3032,Columbus Dr @ Habana Av,27.966662,-82.48916
3030,Columbus Dr @ MacDill Av,27.966574,-82.493425
3018,Columbus Dr @ Armenia Av,27.966748,-82.484727
3019,Columbus Dr @ Tampania Av,27.966759,-82.486843
2779,Providence Rd @ Providence Lakes Bl,27.910597,-82.318441
2778,Providence Rd @ Providence Ridge Bl,27.907934,-82.318425
3014,Columbus Dr @ Rome Av,27.966664,-82.476875
3015,Columbus Dr @ Fremont Av,27.966684,-82.478962
2775,Providence Rd @ Providence Park,27.895777,-82.318422
3016,Columbus Dr @ Albany Av,27.966687,-82.480409
2774,Providence Rd @ Bloomingdale Av,27.893458,-82.318405
3017,Columbus Dr @ Howard Av,27.966725,-82.482584
3022,Columbus Dr @ MacDill Av,27.966812,-82.492872
3021,Columbus Dr @ Gomez Av,27.966779,-82.491001
2781,Providence Rd @ Sweetridge Av,27.912573,-82.31847
3024,Columbus Dr @ Lincoln Av,27.966797,-82.497176
2782,Providence Rd @ Windingwood Av,27.92073,-82.318483
3023,Columbus Dr @ Matanzas Av,27.966812,-82.495101
3020,Columbus Dr @ Habana Av,27.966777,-82.488907
0488,Nebraska Av @ McEwen Av,28.042396,-82.451361
3048,Columbus Dr @ Nebraska Av,27.96675,-82.451036
3047,Columbus Dr @ Central Av,27.966759,-82.455603
0485,Nebraska Av @ 109th Av,28.047431,-82.451331
0487,Nebraska Av @ Bougainvillea Av,28.043777,-82.451285
2705,Osborne Av @ 39th St,27.988831,-82.416109
2706,Osborne Av @ 37th St,27.988875,-82.418181
2709,Osborne Av @ Webster St,27.988694,-82.421149
0492,Nebraska Av @ Richmere St,28.035325,-82.45133
3052,Columbus Dr @ 13th St,27.966733,-82.445558
0491,Nebraska Av @ Annie St,28.036558,-82.451324
3053,Columbus Dr @ Republica De Cuba,27.966724,-82.444393
3050,Columbus Dr @ 10th St,27.966751,-82.449163
3051,Columbus Dr @ 12th St,27.966751,-82.447026
3056,Columbus Dr @ 17th St,27.966715,-82.440545
3057,Columbus Dr @ 19th St,27.966715,-82.438075
0490,Nebraska Av @ Castle Ct,28.03795,-82.451381
3054,Columbus Dr @ 15th St,27.966715,-82.44332
3055,Columbus Dr @ 16th St,27.966715,-82.441781
3037,Columbus Dr @ Fremont Av,27.966535,-82.478802
3036,Columbus Dr @ Albany Av,27.966535,-82.480402
0499,Nebraska Av @ Juneau St,28.024214,-82.451334
3039,Columbus Dr @ Ridgewood Av,27.966827,-82.473243
3038,Columbus Dr @ Rome Av,27.966509,-82.476757
0497,Nebraska Av @ Fairbanks St,28.026718,-82.451307
2710,Osborne Av @ Troy St,27.988694,-82.419741
0498,Nebraska Av @ Waters Av,28.025417,-82.451346
2711,Osborne Av @ 37th St,27.988712,-82.41813
0495,Nebraska Av @ Yukon St,28.029697,-82.451296
2712,Osborne Av @ 39th St,27.988711,-82.416439
2713,Palm River Rd @ 78th St,27.941135,-82.369504
0496,Nebraska Av @ Seward St,28.028072,-82.451299
2718,Palm River Rd @ 68th St,27.94115,-82.379072
3040,Columbus Dr @ Poplar Av,27.966801,-82.471177
3041,Columbus Dr @ Glenwood Dr,27.966801,-82.469213
3042,Columbus Dr @ Ola Av,27.966766,-82.463714
3043,Columbus Dr @ Highland Av,27.966776,-82.462448
3045,Columbus Dr @ Tampa St,27.966776,-82.461051
3046,Columbus Dr @ Florida Av,27.966776,-82.459583
2724,Palm River Rd @ 56th St,27.942921,-82.395303
2722,Palm River Rd @ 50th St,27.943042,-82.40162
2729,Palm River Rd @ 70th St,27.941001,-82.377315
2727,Palm River Rd @ 66th St,27.941031,-82.381435
2725,Palm River Rd @ 57th St,27.943038,-82.39177
2726,Palm River Rd @ 58th St,27.94301,-82.389735
3079,131St Av @ 20th St,28.065605,-82.436522
3076,131St Av @ 25th St,28.065579,-82.43101
3077,131St Av @ 23Rd St,28.065554,-82.432328
3075,131St Av @ Bruce B Downs @ Va Hosp,28.065622,-82.427307
2732,Palm River Rd @ 76th St,27.941035,-82.372962
2733,Palm River Rd @ 78th St,27.940933,-82.369014
2734,Palm Av @ 20th St,27.962525,-82.436498
2735,Palm Av @ 19th St,27.962527,-82.437781
3059,Columbus Dr @ 23Rd St,27.966697,-82.433882
3058,Columbus Dr @ 21St St,27.966715,-82.435725
2730,Palm River Rd @ Coconut Dr,27.941028,-82.375777
2731,Palm River Rd @ Turner Dr,27.941026,-82.373934
2736,Palm Av @ 17th St,27.962463,-82.440297
2738,Palm Av @  Republica De Cuba,27.962549,-82.443994
3060,Columbus Dr @ 25th St,27.966688,-82.431776
3065,Columbus Dr @ 34th St,27.966632,-82.421731
3067,Columbus Dr @ 37th St,27.96664,-82.41847
3068,Columbus Dr @ 40th St,27.966631,-82.414349
3061,Columbus Dr @ 26th St,27.966678,-82.430763
3062,Columbus Dr @ 27th St,27.966678,-82.429791
3063,Columbus Dr @ 29th St,27.966687,-82.428374
3064,Columbus Dr @ 31St St,27.96666,-82.425862
4497,Nebraska Av @  Hollwood St,28.01925,-82.451341
1196,Hillsborough Av @ Harney Rd,27.99633,-82.382835
4495,Nebraska Av @ Linnwood Dr,28.067578,-82.451324
1198,Hillsborough Av @ 50th St,27.996192,-82.402004
4496,Nebraska Av @ Linebaugh Av,28.040141,-82.451315
4493,22nd St @ 131St Av,28.065918,-82.434539
3086,131St Av @ Bruce B Downs  @ Va Hosp,28.065459,-82.427307
0580,Florida Av @ Sligh Av,28.011063,-82.459411
3085,131St Av @ 19th St,28.065451,-82.438915
0581,Florida Av @ Flora St,28.01233,-82.459411
4491,131St Av @ 23Rd St,28.065432,-82.432457
3084,131St Av @ 17th St,28.06546,-82.44077
6620,Mulberry Dr @ Ogontz Av,28.021569,-82.436746
0582,Florida Av @ Hamilton Av,28.014223,-82.459392
4492,131St Av @ Livingston Av,28.065441,-82.430723
6621,Mulberry Dr @ Rowlett Park Dr,28.022357,-82.435389
3081,131St Av @ 15th St,28.065614,-82.441987
4490,22nd St @ 131St Av,28.066202,-82.434667
3080,131St Av @ 19th St,28.065605,-82.438509
1190,M L King Jr Blvd @ Carroway St,27.981403,-82.391323
0573,Florida Av @ Henry Av,27.999525,-82.459317
0572,Florida Av @ Comanche Av,27.99775,-82.459317
6611,Linebaugh Av @ Florida Av,28.039995,-82.458239
0575,Florida Av @ Hanna Av,28.003265,-82.459338
6614,Waters Av @ Arden Av,28.0251,-82.453
0574,Florida Av @ Idlewild Av,28.001527,-82.459328
6613,Waters Av @ Lamar Av,28.025154,-82.454621
0577,Florida Av @ Lambright St,28.006281,-82.459369
6616,17th St @ Juneau St,28.023987,-82.440881
1188,M L King Jr Blvd @ 54th St,27.981396,-82.395456
0576,Florida Av @ Fern St,28.004895,-82.459349
6615,Waters Av @ 17th St,28.025219,-82.440921
0579,Florida Av @ Hiawatha St,28.009496,-82.45939
4489,22nd St @ 132nd Av,28.066981,-82.434667
6618,Sitka St @ 18th St,28.021144,-82.439604
6617,17th St @ Sitka St,28.021379,-82.440921
1187,M L King Jr Blvd @ 52nd St,27.981388,-82.397866
1186,M L King Jr Blvd @ Phillips St,27.981389,-82.399639
1185,M L King Jr Blvd @ 50th St,27.98139,-82.402525
1184,M L King Jr Blvd @ 42nd St,27.981375,-82.412754
0570,Florida Av @ Frierson Av,27.994185,-82.459373
0571,Florida Av @ Hillsborough Av,27.995839,-82.459316
6610,Linebaugh Av @ Central Av,28.039979,-82.455826
1181,M L King Jr Blvd @ 37th St,27.981331,-82.418365
1180,M L King Jr Blvd @ 35th St,27.981322,-82.42033
3917,Marion St @ Kennedy Blvd,27.947748,-82.456116
6609,Linebaugh Av @ Arden Av,28.039964,-82.4529
0569,Florida Av @ Wilder Av,27.992324,-82.459375
6608,Linebaugh Av @ Nebraska Av,28.039983,-82.450975
3915,Ashley Dr @ Washington St,27.94561,-82.458515
0564,Florida Av @ Chelsea St,27.984983,-82.459374
6603,Linebaugh Av @  15th St,28.039807,-82.44302
0563,Florida Av @ Ida St,27.982565,-82.459369
6602,Linebaugh Av @ 14th St,28.039807,-82.445351
0562,Florida Av @ M L King Jr Blvd,27.981169,-82.459368
6601,Linebaugh Av @ 12th St,28.039825,-82.447611
6600,Linebaugh Av @ Jasmine Av,28.039834,-82.449709
6607,Linebaugh Av @ Jasmine Av,28.03995,-82.449392
1179,M L King Jr Blvd @ 34th St,27.98134,-82.42269
4499,Nebraska Av @ Wilder St,27.992715,-82.451187
6606,Linebaugh Av @ Lantana St,28.039947,-82.446717
0566,Florida Av @ Osborne Av,27.988591,-82.459376
6605,Linebaugh Av @ 14th St,28.039942,-82.445214
1178,M L King Jr Blvd @ 31St St,27.98135,-82.425394
0599,Florida Av @ 122nd Av,28.058134,-82.459293
0598,Florida Av @ Fowler Av,28.055006,-82.459511
0595,Florida Av @ Bougainvillea Av,28.042947,-82.459277
3942,Brandon Blvd @ Lakewood Dr,27.93788,-82.311213
0597,Florida Av @ Fowler Av,28.05515,-82.459302
3943,Memorial Hwy @ Bray Rd,27.981872,-82.556362
0596,Florida Av @ 109th Av,28.047124,-82.459335
0592,Florida Av @ Floriland Av,28.037297,-82.459265
0593,Florida Av @ Linebaugh Av,28.040665,-82.459266
0590,Florida Av @ Seward St,28.027933,-82.459314
0588,Florida Av @ Waters Av,28.024125,-82.459445
1199,Hillsborough Av @ 48th St,27.996188,-82.403625
0587,Florida Av @ Bird St,28.0226,-82.459394
0585,Florida Av @ Kirby St,28.017619,-82.459402
0583,Florida Av @ Broad St,28.016016,-82.459402
4454,Yukon St @ Branch Av,28.02912,-82.457976
2683,Orient Rd @ Chelsea St,27.985062,-82.372979
4453,Florida Av @ Hollywood St,28.019485,-82.459393
3970,Linebaugh Av @  N Boulevard,28.039885,-82.467952
2682,Orient Rd @ King Alfred Dr,27.98316,-82.372899
4452,Florida Av @ Knollwood St,28.008255,-82.45937
4451,Florida Av @ Fairbanks St,28.026566,-82.459324
3967,Linebaugh Av @ Forest Hills Dr,28.03991,-82.472664
2679,Orient Rd @ M L King Jr Blvd,27.981103,-82.372949
3966,Linebaugh Av @ Oregon Av,28.03991,-82.474823
2677,Orient Rd @ 21St Av,27.970362,-82.372929
3964,Linebaugh Av @ Dale Mabry Hwy,28.040046,-82.506671
2678,Orient Rd @ Rhode Island Dr,27.97279,-82.372948
0532,Nebraska Av @ Floribraska Av,27.970992,-82.451246
4446,22nd St @ 32nd Av,27.978913,-82.434741
3962,Linebaugh Av @ Valle Dr,28.040081,-82.477681
3961,Linebaugh Av @ Oregon Av,28.040073,-82.474266
4444,Nebraska Av @ Kay St,27.957132,-82.451116
3960,Linebaugh Av @ Forest Hills Dr,28.04003,-82.47238
4445,22nd St @ 28th Av,27.975696,-82.434743
0538,Nebraska Av @ Palm Av,27.962702,-82.451309
3968,Linebaugh Av @ Newport Av,28.039893,-82.469867
5510,Busch Blvd @ Willow Av,28.033476,-82.47161
4465,Florida Av @ April Lane,28.0812,-82.45962
4461,Florida Av @ Siobahan Av,28.084246,-82.459511
4460,Florida Av @ Wildwood St,28.074471,-82.459342
5506,50th St @ Busch Flea Market,28.03373,-82.401683
2668,Oakfield Dr @ Noland Dr,27.932954,-82.290695
3956,Linebaugh Av @ Ola Av,28.040001,-82.463748
5505,50th St @ 9422,28.035798,-82.401742
3955,Linebaugh Av @ Tampa St,28.040009,-82.460402
0523,Nebraska Av @ Cayuga St,27.987051,-82.451204
4455,Florida Av @ Humphrey St,28.031139,-82.459294
0524,Nebraska Av @ Chelsea St,27.985481,-82.451206
4456,Florida Av @ Hamiller Av,28.034155,-82.459295
5501,Wimauma Senior Center,27.715949,-82.300513
0521,Nebraska Av @ New Orleans Av,27.990457,-82.451185
4457,Florida Av @Moore Clinical Research,28.041417,-82.459276
0522,Nebraska Av @ Osborne Av,27.988561,-82.451202
4458,Florida Av @ Prince St,28.067597,-82.459259
0528,Nebraska Av @ Lake Av,27.977988,-82.451227
0525,Nebraska Av @ North Bay St,27.983429,-82.451211
3958,Linebaugh Av @ N Boulevard,28.040025,-82.467695
3957,Linebaugh Av @ 816,28.040002,-82.466044
0529,Nebraska Av @ Emily St,27.975488,-82.451226
5509,Busch Blvd @ 2308,28.03268,-82.432393
3959,Linebaugh Av @ Newport Av,28.040056,-82.469604
4472,Florida Av @ Ernie Haire Ford,28.038872,-82.459631
4471,Florida Av @ 124th Av,28.060411,-82.459441
4470,Florida Av @ 127th Av,28.062044,-82.459454
4475,Yukon St @ Branch Av,28.028948,-82.457834
4474,Florida Av @ Hamiller Av,28.034037,-82.45965
5520,Gunn Hwy @ Four Oaks Rd,28.057225,-82.531841
4473,Florida Av @ Floriland Av,28.036484,-82.459588
5521,Gunn Hwy @ Hampton Park Blvd,28.059186,-82.536
5512,Busch Blvd @ Oakleaf Av,28.033496,-82.47892
4468,Florida Av @ 143Rd Av,28.075908,-82.459528
3985,Anderson Rd @ Waters Av,28.024549,-82.536821
0554,Florida Av @ Columbus Dr,27.96713,-82.45934
4469,Florida Av @ Wildwood St,28.074359,-82.459503
2698,Orient Rd @ Broadway Av Ss,27.966405,-82.373105
5514,Busch Blvd @ Twin Lakes Blvd,28.035997,-82.492258
4466,Florida Av @ Floral Dr,28.080476,-82.459609
3983,Anderson Rd @ Tampa West Blvd,28.019679,-82.5341
0556,Florida Av @ Floribraska Av,27.970716,-82.45933
2695,Orient Rd @ Rhode Island Dr,27.972826,-82.37313
4467,Florida Av @ 145th Av,28.078546,-82.459575
0557,Florida Av @ Plymouth St,27.973053,-82.459321
2696,Orient Rd @ 21St Av,27.970535,-82.373122
5516,Gunn Hwy @ Hubert Av,28.045775,-82.515445
5515,Busch Blvd @ Himes Av,28.036377,-82.500411
0551,Florida Av @ Palm Av,27.962103,-82.459369
5518,Gunn Hwy @ Country Run Rd,28.052351,-82.523706
2699,Orient Rd @ 14th Av,27.965463,-82.373095
5517,Gunn Hwy @ Casey Rd,28.048141,-82.51821
0553,Florida Av @ Frances St,27.964938,-82.459359
5519,Gunn Hwy @ Marbrisa Apts,28.05548,-82.528291
0558,Florida Av @ 26th Av,27.974439,-82.459311
0559,Florida Av @ Lake Av,27.977726,-82.459302
4481,Nebraska Av @ Mohawk Av,27.997086,-82.451106
4480,Nebraska Av @ Palm Av,27.963047,-82.451199
2690,Orient Rd @ Chelsea St,27.985342,-82.373161
4482,Nebraska Av @ Juneau St,28.0236,-82.451202
4485,Nebraska Av @ 126th Av,28.061212,-82.451019
5531,Gunn Hwy @ Cain Rd,28.065266,-82.558037
2692,Orient Rd @ Delano Av,27.977853,-82.373157
4484,Nebraska Av @ 113th Av,28.05109,-82.451092
5532,Gunn Hwy @ Normandie Rd,28.064529,-82.55319
2691,Orient Rd @ M L King Jr Blvd,27.98172,-82.373235
3980,Anderson Rd @ Crenshaw St,28.015315,-82.533467
2694,Orient Rd @ Westinghouse Av,27.974366,-82.373129
2693,Orient Rd @ Waycross Av,27.975978,-82.373148
5525,Gunn Hwy @ Normandie Rd,28.065,-82.553484
3972,Linebaugh Av @ Dartmouth Av,28.039868,-82.463259
3971,Linebaugh Av @ 816,28.039867,-82.466066
5524,Gunn Hwy @ Henderson Rd,28.063791,-82.549488
4478,Tampa St @ Amelia Av,27.966242,-82.46097
0546,Nebraska Av @ Cass St,27.953618,-82.451312
5523,Gunn Hwy @ Mullis City Way,28.044354,-82.513715
4479,Marion St @ Henderson Av,27.959069,-82.458872
5522,Gunn Hwy @ Forest Lane Dr,28.060053,-82.537846
3973,Linebaugh Av @ Florida Av,28.039868,-82.460077
0544,Nebraska Av @ India St,27.955701,-82.451296
5529,Gunn Hwy @ Community Campus Dr,28.065368,-82.56415
0541,Nebraska Av @ 7th Av,27.960623,-82.451275
2688,Orient @ Draper  @ Seminole Complex,27.992359,-82.373193
2689,Orient Rd @ Cayuga St @ Fairgrounds,27.987561,-82.3732
5527,Gunn Hwy @ Landing Place Rd,28.065595,-82.560624
5526,Gunn Hwy @ Cain Rd,28.065611,-82.557662
1108,M L King Jr Blvd @ 37th St,27.981524,-82.418155
1109,M L King Jr Blvd @ 36th St,27.981524,-82.419785
5539,Gunn Hwy @ Hubert Av,28.045234,-82.515102
4404,Busch Blvd @ Armenia Av,28.033531,-82.48388
1107,M L King Jr Blvd @ 39th St,27.981529,-82.416124
5537,Gunn Hwy @ Colonnade Exec Ctr,28.055411,-82.528775
1104,M L King Jr Blvd @ Lake Av,27.981499,-82.403075
5538,Gunn Hwy @ Casey Rd,28.048045,-82.518502
4406,Gunn Hwy @ Anderson Rd,28.061895,-82.543221
5535,Gunn Hwy Hampton Park Blvd,28.05899,-82.53613
5536,Gunn Hwy @ Nixon St,28.055868,-82.52966
4403,Route 39 @ Yukon Transfer Center,28.029574,-82.456404
5533,Gunn Hwy @ Henderson Rd,28.063609,-82.550117
4402,Route 39 @ Yukon Transfer Center,28.029422,-82.456407
5534,Gunn Hwy @ Wood Trail Blvd,28.06255,-82.546462
1110,M L King Jr Blvd @ 34th St,27.981553,-82.422126
5542,Busch Blvd @ Twin Lakes Blvd,28.035864,-82.491983
5541,Busch Blvd @ Himes Av Es,28.036229,-82.50019
5540,Gunn Hwy @ Mullis City  Way,28.043947,-82.513628
6689,Route 9 @ Yukon Transfer Center,28.029293,-82.456244
6688,Route 9 @ Yukon Transfer Center,28.029742,-82.456248
4417,7th Av @ 21St St,27.960139,-82.435614
4416,Jackson St @ Marion St,27.947576,-82.455417
4414,Tampa General Hospital,27.93696,-82.457622
5545,Busch Blvd @ Oakleaf Av,28.033307,-82.479117
4413,Kennedy Blvd @ Marion St,27.948182,-82.456561
5547,Busch Blvd @ Willow Av,28.033362,-82.471698
5552,Busch Blvd @ Traveler'S Inn,28.032418,-82.432976
5551,Busch Blvd @ 19th St,28.032391,-82.437922
5554,Busch Blvd @ 29th St,28.032462,-82.426948
5550,Busch Blvd @  Elmer St,28.032409,-82.440131
0518,Nebraska Av @ Frierson Av,27.994374,-82.451187
0517,Nebraska Av @ Hillsborough Av,27.996385,-82.451208
0516,Nebraska Av @ Mohawk Av,27.996931,-82.451223
0514,Nebraska Av @ Powhattan Av,27.998906,-82.451248
1124,M L King Jr Blvd @ Central Av,27.98159,-82.455079
0513,Nebraska Av @ Henry Av,27.999848,-82.451273
5557,Busch Blvd @ 4200,28.032451,-82.4136
1125,M L King Jr Blvd @ Branch Av,27.981588,-82.45719
0512,Nebraska Av @ Idlewild Av,28.00189,-82.451345
0511,Nebraska Av @ Hanna Av,28.003038,-82.451374
1122,M L King Jr Blvd @ 10th St,27.981553,-82.449062
0510,Nebraska Av @ Jean St,28.004542,-82.451354
5556,Busch Blvd @ 40th St,28.032452,-82.415647
1129,M L King Jr Blvd @ Highland Av,27.981588,-82.462436
5559,Busch Blvd @ Broadmoor Apts,28.03244,-82.405462
6677,138th Av @ 15th St,28.072931,-82.442723
6686,142nd Av @ 22nd St,28.075628,-82.434707
5560,Temple Heights Rd @ 5035,28.036151,-82.400059
6684,19th St @ 142nd Av,28.075574,-82.43857
6682,138th Av @ 19th St,28.072812,-82.438824
5565,M L King Jr Blvd @ Fairview Park Dr,27.981305,-82.376759
4430,Special Ops Command,27.852477,-82.488568
1131,M L King Jr Blvd @ N Boulevard,27.981639,-82.467422
6683,19th St @ 139th Av,28.073654,-82.43859
5564,M L King Jr Blvd @ Corporex  Dr,27.981325,-82.380031
1130,M L King Jr Blvd @ Lynn Av,27.981593,-82.46529
5563,M L King Bl @ I-4 Foxworth Trailers,27.981411,-82.388012
6681,138th Av @ 1805,28.072794,-82.440334
5562,56th St @ Kenny Dr,28.015801,-82.393581
0508,Nebraska Av @ Knollwood St,28.008134,-82.451343
1119,M L King Jr Blvd @ 15th St,27.98156,-82.44273
0507,Nebraska Av @ Sligh Av,28.010202,-82.451374
0509,Nebraska Av @ Lambright St,28.006678,-82.451347
0504,Nebraska Av @ Broad St,28.016277,-82.451334
0503,Nebraska Av @ Kirby St,28.018399,-82.451337
0506,Nebraska Av @ Flora St,28.012593,-82.451345
0505,Nebraska Av @ Hamilton Av,28.014465,-82.451339
0500,Nebraska Av @ Bird St,28.022807,-82.451389
1111,M L King Jr Blvd @ 31St St,27.981552,-82.42531
5566,M L King Jr Blvd @ Orient Rd E,27.981303,-82.372597
4436,Harbour Place Dr @ Beneficial Dr,27.939433,-82.451063
1113,M L King Jr Blvd @ 26th St,27.981531,-82.430488
5568,M L King Jr Blvd @ Beechwood Blvd,27.981318,-82.367361
0501,Nebraska Av @ Sitka St,28.021404,-82.451329
1114,M L King Jr Blvd @ 24th St,27.981544,-82.432597
5569,M L King Jr Blvd @ Danny Bryan Rd,27.981315,-82.363644
6666,Bearss Av @ Reflections Apts,28.080254,-82.429241
1116,M L King Jr Blvd @ 20th St,27.981553,-82.43741
4438,Route 1 @ Yukon Transfer Center,28.029263,-82.456419
6669,Bruce B Downs Blvd @ 138th Av,28.07316,-82.426234
6673,142nd Av @ 19th St,28.07573,-82.438608
5570,M L King Jr Blvd @ Us Hwy 301  Ws,27.981322,-82.361345
6674,19th St @ 139th Av,28.073962,-82.438773
6675,138th Av @ 19th St,28.072942,-82.439056
5572,M L King Jr Blvd @ 9009,27.981301,-82.356787
6676,138th Av @ 1805,28.072944,-82.44028
5571,M L King Jr Blvd @ Us Hwy 301 Es,27.981302,-82.357891
5574,M L King Jr Blvd @ Riga Blvd,27.981137,-82.345872
5573,M L King Jr Blvd @ Coconut Palm Dr,27.981208,-82.349305
1121,M L King Jr Blvd @ 12th St,27.981572,-82.446932
5576,M L King Jr  Blvd @ Falkenburg Rd,27.98112,-82.336541
4441,Highland Av @ M L King Jr Blvd,27.981711,-82.462108
1120,M L King Jr Blvd @ 13th St,27.981563,-82.444863
5575,M L King Jr Blvd @ Cragmont Dr,27.981187,-82.341172
7701,Causeway Blvd @ 50th St F/S,27.923033,-82.402287
7700,Causeway Blvd @ 78th St,27.922781,-82.368989
1149,M L King Jr Blvd @ Gomez Av,27.981175,-82.491601
7703,Nebraska Av @ E Grove Av,28.070602,-82.45099
7702,M L King Jr Bvdl @ Himes Av,27.981233,-82.500939
7705,40th St @ Humphrey St,28.030396,-82.416428
7704,Nebraska Av @ E Orange Av,28.070068,-82.451324
5579,M L King Jr Blvd @ Lakewood Dr,27.981381,-82.310208
7707,40th St @ Riverhills Dr,28.020715,-82.414779
5578,M L King Jr Blvd @ Williams Rd,27.981103,-82.319638
7706,40th St @ Miller Av,28.022572,-82.415366
5577,M L King Jr Blvd @ Sabal Park Ctr,27.98111,-82.335407
7709,Cypress St @ Rome Av,27.951909,-82.475748
7708,Columbus Dr @ N Gomez Av,27.966838,-82.491278
1153,M L King Blvd @ Armenia Av Es,27.981151,-82.484177
6661,151St  Av @ Livingston Av,28.0885,-82.430935
1154,M L King Jr Blvd @ Howard Av,27.981197,-82.483336
1151,M L King Jr Blvd @ Tampania Av,27.981132,-82.486344
1152,M L King Jr Blvd @ Armenia Av    Ws,27.981151,-82.484906
6665,Livingston Av @ Bearss Av,28.08202,-82.430935
1150,M L King Jr Blvd @ Habana Av Es,27.981158,-82.488107
6664,Livingston Av @ Irene St,28.083776,-82.430914
5580,M L King Jr Blvd @ Hewitt St,27.981386,-82.306856
7710,Kelly Rd @ Dosina Lane,27.982852,-82.565062
6662,Livingston Av @ 149th Av,28.08654,-82.43085
5581,M L King Blvd @ Cr 579,27.981725,-82.302662
6645,Magnolia Dr @ Holly Dr,28.066832,-82.420449
6647,Bruce B Downs Blvd @ 138th Av,28.072313,-82.425897
5589,Providence @ Plantation Key Apts,27.931744,-82.314504
1134,M L King Jr Blvd @ Poplar Av,27.981627,-82.471543
5588,Providence Rd  @ Brandon  Blvd,27.936599,-82.314517
1133,M L King Jr Blvd @ Myrtle Av,27.981619,-82.469571
6649,Bearss Av @ Collegean Hall,28.080535,-82.427933
1136,M L King Jr Blvd @ 1931,27.981342,-82.479417
1135,M L King Jr Blvd @ Riverside Dr,27.981632,-82.473047
5595,Oakfield Dr @ Hilltop Rd,27.933943,-82.305988
1140,M L King Jr Blvd @ Tampania Av,27.981384,-82.48629
5596,Oakfield Dr @ Buckingham Place,27.93413,-82.296017
1141,M L King Jr Blvd @ Habana Av,27.981439,-82.488684
5597,Oakfield Dr @ Lifestyles Fitness,27.934203,-82.292929
5598,Oakfield Dr @ Sunlake Apts,27.933981,-82.299834
5591,Providence Rd @ Town Center Blvd,27.925795,-82.315657
6651,Sinclair Hills Rd @ Livingston Av,28.091559,-82.431349
1169,M L King Jr  Blvd @ 13th St,27.981378,-82.445063
1168,M L King Jr Blvd @ 12th St,27.981369,-82.44722
1167,M L King Jr Blvd @ 10th St,27.981341,-82.449458
5599,Parsons Ave @ Robertson St,27.936144,-82.285679
1166,M L King Jr Blvd @ Nebraska Av,27.981332,-82.451393
3903,Marion St @ Whiting St,27.946308,-82.455488
3907,7th Av @ 15th St,27.960158,-82.443097
3909,7th Av @ 22nd St,27.960139,-82.434581
6643,Livingston Av @ Campus Lodge Apts,28.089888,-82.430701
1171,M L King Jr Blvd @ 17th St,27.981278,-82.440211
1170,M L King Jr Blvd @ 15th St,27.981314,-82.443148
1156,M L King Jr Blvd @ St Isabel St,27.98118,-82.479012
6626,Waters Av @ N Boulevard,28.025306,-82.467949
6627,Waters Av @ Otis Av,28.025308,-82.46605
1158,M L King Jr Blvd @ Myrtle Av,27.981464,-82.469714
6628,Waters Av @ Ola Av,28.02531,-82.463487
1157,M L King Jr Blvd @ Poplar Av,27.981482,-82.471791
6629,Waters Av @ Ashley St,28.025302,-82.461965
6622,Waters Av @ Ashley St,28.025413,-82.461286
6623,Waters Av @ Ola Av,28.025409,-82.463187
6624,Waters Av @ Otis Av,28.02539,-82.46575
6625,Waters Av @ N Boulevard,28.025406,-82.467541
1160,M L King Jr Blvd @ Lynn Av,27.981515,-82.465738
1161,M L King Jr Blvd @ Highland Av,27.981505,-82.462247
1163,M L King Jr Blvd @ Suwanee Av,27.981376,-82.458108
1165,M L King Jr Blvd @ Central Av,27.98135,-82.455586
6594,Waters Av @ Lamar Av,28.02532,-82.455
6593,Waters Av @ Arden Av,28.025254,-82.452686
6592,17th St @ Waters Av,28.025219,-82.440688
6599,Linebaugh Av @ Nebraska Av,28.039843,-82.450651
6598,Linebaugh Av @ Arden Av,28.039833,-82.453033
6597,Linebaugh Av @ Central Av,28.039851,-82.456023
6591,17th St @ Juneau St,28.023851,-82.440708
6590,Sitka St @ 17th St,28.021286,-82.440703
6589,Sitka St @ 18th St,28.021267,-82.439098
2647,Kings Av @ Bloomingdale Av,27.894388,-82.293858
7678,Busch Blvd @ Hyaleah Rd,28.03273,-82.405574
7679,Busch Blvd @ 33Rd St,28.032435,-82.423511
2642,50th St @ Adamo Dr,27.952511,-82.401861
3146,Habana Av @ Rio Vista Ct,27.99842,-82.488471
3147,Habana Av @ Henry Av,27.999651,-82.488462
2640,50th St @ Acline St,27.954626,-82.401959
2648,Kings Av @ Southwood Cove,27.903482,-82.293867
7680,Gunn Hwy @ Community Campus Dr,28.06573,-82.564201
3156,Habana Av @ Paris St,28.002921,-82.488616
7684,Kennedy Blvd @ Ashley Dr,27.946895,-82.460287
2650,Kings Av @ Hickory Lake Dr,27.91454,-82.29379
7683,Sheldon Rd @ Westchase Surgical Ctr,28.048829,-82.582533
3154,Habana Av @ Ralston Beach Cr,28.008288,-82.488533
7682,Sheldon @ Chase Professional Park,28.048756,-82.582948
3153,Habana Av @ Sligh Av,28.009883,-82.488532
7681,Gunn Hwy @ Cedar Forest Dr,28.065309,-82.560541
7688,N 42nd St @ Lazy Oak Dr,28.072175,-82.414115
3151,Habana Av @ Minnehaha St,28.008345,-82.488396
7687,22nd St @ 140th Av,28.073917,-82.434626
3150,Habana Av @ North St,28.005656,-82.488435
7686,22nd St @ 137th Av,28.070657,-82.434667
7685,Progress Blvd @ Valleydale Dr,27.893856,-82.343779
2656,Kings Av @ Tradewind Dr,27.917895,-82.294081
3139,Habana Av @ Eddy Dr,27.985195,-82.488708
7689,N 42nd St @ Lazy Oak Dr,28.072728,-82.413943
2655,Kings Av @ Oak Park Place,27.921174,-82.294116
2658,Kings Av @ Tanglewood Way,27.909987,-82.294115
2657,Kings Av @ Calm Dr,27.914272,-82.294087
3135,Temple Heights Rd @ 56th St,28.036085,-82.393664
3137,Habana Av @ Bel Aire Circle,27.982446,-82.48872
3138,Habana Av @ Eddy Dr,27.984575,-82.48872
7691,6th Medical Group @ MacDill AFB,27.859809,-82.49994
7690,Boy Scout Blvd @ Jim Walter Blvd,27.966355,-82.51156
3143,Habana Av @ Wilder Av,27.9923,-82.488585
7693,Melburne Blvd @ 49th St,27.970341,-82.402884
7692,6th Medical Graoup @ MacDill AFB,27.859918,-82.500122
3142,Habana Av @ Violet St,27.99045,-82.488615
2660,Kings Av @ Bloomingdale Av,27.894865,-82.294151
3145,Habana Av @ Mohawk Av,27.996714,-82.488551
7695,50th St @ 26th Av,27.974434,-82.401455
7694,50th St @ 23Rd Av,27.972532,-82.401506
7697,N 50th St @ 23Rd Av,27.97198,-82.401881
7696,N 50th St @ 26th Av,27.973954,-82.40185
7699,Causeway Blvd @ 78th St,27.922627,-82.369495
3141,Habana Av @ Osborne Av,27.988673,-82.488661
3140,Habana Av @ Curtis St,27.987434,-82.488671
7698,Melburne Blvd @ N 49th St,27.970494,-82.402509
3995,Florida Av @ Bearss Av,28.08649,-82.459521
3126,Temple Heights Rd @ 56th St,28.036207,-82.394311
2621,50th St @ Uceta Rd,27.958217,-82.401665
3996,Highland Av @ Osborne Av,27.988948,-82.462097
3994,First Baptist Church Pnr Lutz,28.135334,-82.464311
2625,50th St @ Sligh Av,28.011004,-82.401844
3128,Temple Heights Rd @ Overlook Dr,28.036285,-82.396461
3998,Highland Av @ Emma St,27.985904,-82.46213
2629,50th St @ Busch Blvd,28.033552,-82.40157
2627,50th St @ Kirby St,28.017889,-82.401915
2626,50th St @ Cumberland Dr,28.01373,-82.401832
3130,Temple Heights Rd @ Terrace Village,28.036313,-82.399806
3134,Temple Heights Rd @ Overlook Dr,28.036131,-82.396664
3131,Temple Heights Rd @ 50th St,28.036323,-82.401518
2630,50th St @ Temple Heights Rd,28.036079,-82.401549
2632,50th St @ Busch Blvd,28.032885,-82.401709
2634,50th St @ Puritan Rd,28.020023,-82.401961
2636,50th St @ Dolphin Dr,28.013766,-82.402025
2635,50th St @ Porpoise Dr,28.017533,-82.402033
2604,Fir Dr @ 81St St,27.90257,-82.366709
2605,Fir Dr @ 83Rd St,27.903529,-82.364876
2602,Fir Dr @ 79th St,27.902481,-82.368297
2600,Chelsea St @ 29th St,27.985154,-82.427875
2601,Chelsea St @ 30th St,27.984991,-82.426649
3199,Kelly Rd @ Caracas St,27.992579,-82.564782
3197,Kelly Rd @ Brighten Dr,27.988426,-82.564914
3198,Kelly Rd @ New Orleans St,27.991085,-82.56479
3195,Kelly Rd @ Winchester Dr,27.983781,-82.56495
3196,Kelly Rd @ Swindon Rd,27.986239,-82.564834
3194,Kelly Rd @ Memorial Hwy,27.9821,-82.564888
3191,Hanley Rd @ Henry Av,28.00049,-82.56279
3192,Hanley Rd @ Hillsborough Av,27.996829,-82.562945
2619,50th St @ Acline St,27.954328,-82.401663
2616,Harney Rd @ Hillsborough Av,27.996847,-82.384524
2614,Harney Rd @ Hanna Av,28.002735,-82.381151
3179,Hanley Rd @ Waters Av,28.02464,-82.562205
3186,Hanley Rd @ Woodbridge Blvd,28.013171,-82.562548
3188,Hanley Rd @ Jackson Springs Rd,28.00764,-82.562641
3189,Hanley Rd @ Hanna Av,28.004228,-82.56272
3182,Hanley Rd @ Winging Way Dr,28.023508,-82.562548
3183,Hanley Rd @ Nesting Place Ct,28.022086,-82.562566
3184,Hanley Rd @ Barry Rd,28.01779,-82.562572
3185,Hanley Rd @ Barry Rd,28.017819,-82.562576
3181,Hanley Rd @ Waters Av Ss,28.025545,-82.56251
3169,Hanley Rd @ Hillsborough Av,27.997273,-82.562748
3168,Habana Av @ M L King Jr Blvd,27.981484,-82.488968
3173,Hanley Rd @ Jackson Springs Rd,28.00724,-82.562506
3174,Hanley Rd @ Fountain Av,28.01043,-82.562451
3172,Hanley Rd @ Hanna Av,28.003857,-82.562575
3177,Hanley Rd @ Twelve Oaks Blvd,28.021507,-82.562251
3175,Hanley Rd @ Woodbridge Blvd,28.0128,-82.5624
3176,Hanley Rd @ Barry Rd,28.017332,-82.562326
3170,Hanley Rd @ Comanche Av,27.998948,-82.562701
3158,Habana Av @ Henry Av,27.999914,-82.488644
3157,Habana Av @ Idlewild Av,28.00101,-82.488635
3161,Habana Av @ Frierson Av,27.994972,-82.488613
3162,Habana Av @ Wilder Av,27.992877,-82.488714
3164,Habana Av @ Osborne Av,27.988901,-82.488811
3165,Habana Av @ Curtis Av,27.987892,-82.488819
0480,Nebraska Av @ Fowler Av,28.053601,-82.451304
7611,Nebraska Av @ 19th Av,27.968716,-82.45129
7610,Nebraska Av @ 33Rd Av,27.980562,-82.451048
0482,Nebraska Av @ 113th Av,28.051098,-82.451332
1095,Himes Av @ Palmetto St,27.962502,-82.501494
0483,Nebraska Av @ 112th Av,28.049522,-82.451332
1097,Himes Av @ Spruce St,27.959659,-82.501514
1096,Himes Av @ Pine St,27.961358,-82.501497
0478,Nebraska Av @ 123Rd Av,28.059302,-82.451343
7607,Marion St @ Kay St,27.956877,-82.458699
7608,Fishhawk Sports Complex Pnr,27.854933,-82.210817
0477,Nebraska Av @ 126th Av,28.06143,-82.451354
7605,Ashley Dr @ Twiggs St,27.948526,-82.460014
1972,Euclid Av @ Lois Av,27.908646,-82.514466
4389,Courtney Cambell  @ Rocky Point Rd,27.96766,-82.56877
0479,Nebraska Av @ 120th Av,28.056993,-82.451353
7606,Cumberland St @ 11th St,27.944923,-82.447571
1973,Euclid Av @ Clark Av,27.90862,-82.512412
7603,Channelside Dr @ Times Forum Dr,27.943564,-82.450274
1974,Euclid Av @ Grady Av,27.908613,-82.510317
0473,Nebraska Av @ Fletcher Av,28.068737,-82.451314
7604,Madison St @ Tampa St,27.947983,-82.459123
1975,Euclid Av @ Church Av,27.908614,-82.508233
0476,Nebraska Av @ 128th Av,28.062661,-82.451354
7601,Marion Transit Center,27.955473,-82.458517
1976,Euclid Av @ Dale Mabry Hwy,27.908588,-82.506785
0475,Nebraska Av @ 131St Av,28.065776,-82.451324
7602,Times Forum Dr @ Channelside Dr,27.943374,-82.450284
1978,Euclid Av @ Himes Av,27.908581,-82.502748
1979,Euclid Av @ Lynwood Av,27.908565,-82.49957
0471,Nebraska Av @ 131St Av,28.065359,-82.450999
1082,Himes Av @ Hillsborough Av,27.995751,-82.501051
7600,Aparicio - Levy Technical Center,27.990073,-82.332459
1081,Himes Av @ Hillsborough Av,27.996249,-82.501021
0470,Nebraska Av @ 128th Av,28.062607,-82.451009
1085,Himes Av @ M L King Blvd,27.982586,-82.501429
0469,Nebraska Av @ 124th Av,28.059963,-82.451019
0468,Nebraska Av @ 120th Av,28.056774,-82.451086
0466,Nebraska Av @ Fowler Av,28.055107,-82.451019
0465,Nebraska Av @ 10921,28.04916,-82.451017
0464,Nebraska Av @ 109th Av,28.047038,-82.451102
1987,56th St @ Hanna Av,28.003837,-82.393327
0463,Nebraska Av @ Chilkoot Av,28.044906,-82.451104
0462,Nebraska Av @ Bougainvillea Av,28.043437,-82.451109
1075,Himes Av @ Sligh Av,28.010865,-82.500889
1077,Himes Av @ Lambright St,28.007515,-82.500928
4374,Orange Grove Dr @ Whittington Place,28.037855,-82.488324
4375,Riverview Oaks Plaza,27.858053,-82.325373
1076,Himes Av @ Minnehaha Av,28.008719,-82.500908
1071,Himes Av @ Townhouse Ct,28.01888,-82.500824
7633,22nd St @ 137th Av,28.071082,-82.434474
4373,Orange Grove Park-N-Ride,28.038117,-82.487848
7632,S Meridian Av @ Cumberland Av,27.945167,-82.448482
4370,Citrus Park Park-N-Ride,28.076127,-82.570107
0460,Nebraska Av @ Linebaugh Av,28.039755,-82.45114
7631,N Meridian Av @ Jackson St,27.94985,-82.448857
4371,Carrollwood Park-N-Ride,28.081731,-82.54651
0461,Nebraska Av @ Poinsettia Av,28.042352,-82.45112
7630,N Meridian Av @ Jackson St,27.949633,-82.448655
0452,Nebraska Av @ Seward St,28.027704,-82.451218
1995,56th St @ River Hills Dr,28.027011,-82.393294
0451,Nebraska Av @ Fairbanks St,28.026736,-82.451212
7626,Sheldon Rd @ Linebaugh Av,28.044899,-82.582567
1996,56th St @ Chicago Av,28.028034,-82.393314
7623,Hcc Southshore Campus,27.722495,-82.400556
0454,Nebraska Av @ Humphrey St,28.030536,-82.45121
1997,56th St @ Bullard Pkwy,28.032399,-82.393322
0453,Nebraska Av @ Yukon St,28.029168,-82.451212
7624,21 St Avenue,27.969039,-82.410945
0456,Nebraska Av @ 93Rd Av,28.033487,-82.451168
1991,56th St @ Sligh Av,28.011564,-82.393391
7629,Columbus Dr @ 43Rd St (Dacco),27.96681,-82.408435
0455,Nebraska Av @ Skagway Av,28.031937,-82.451106
1068,Himes Av @ Waters Av,28.025735,-82.500801
1992,56th St @ Kenny Dr,28.01599,-82.39333
7627,Boyette Rd @ McMullen Rd,27.853643,-82.30396
0458,Nebraska Av @ Castle Ct,28.036963,-82.451066
1993,56th St @ Neal Dr,28.017885,-82.393286
4368,Sligh Av @ Rowlett Park Dr,28.010557,-82.429736
0457,Nebraska Av @ Richmere St,28.035271,-82.451163
1994,56th St @ Puritan Rd,28.020663,-82.393196
7628,Columbus Dr @ 43Rd St (Dacco),27.966638,-82.409336
0459,Nebraska Av @ Lotus Av,28.038313,-82.451145
1065,Himes Av @ Kenyon Av,28.032529,-82.500801
4387,Courtney Cambell @ Rocky Point Dr,27.967335,-82.56696
1064,Himes Av @ Humphrey St,28.028475,-82.500805
7620,Nebraska Av @ Saint Clair St,27.970183,-82.451097
4382,Sun Coast Health Center,27.706197,-82.394486
1061,Himes Av @ Kenyon Av,28.032472,-82.500642
7622,Gornto Lake Rd @ Causeway Blvd,27.923619,-82.322977
4384,Kings Point Club House,27.711043,-82.359693
7621,Gornto Lake Rd @ Causeway Blvd,27.923637,-82.322654
0443,Nebraska Av @ Hamilton St,28.014291,-82.451237
0442,Nebraska Av @ Flora St,28.012364,-82.451243
0441,Nebraska Av @ Sligh Av,28.01048,-82.451226
0440,Nebraska Av @ Knollwood St,28.008152,-82.451263
0447,Nebraska Av @ Van Dyke Place,28.021031,-82.451214
1058,Himes Av @ Waters Av,28.025264,-82.500657
7616,Nebraska Av @ E Emily St,27.975699,-82.451078
7617,Nebraka Av @ Osborne Av,27.989093,-82.451029
0446,Nebraska Av @ Hollywood St,28.019317,-82.451239
0445,Nebraska Av @ Patterson Av,28.017832,-82.451226
1056,Himes Av @ Sitka St,28.021343,-82.500623
7618,Nebraska Av @ 33Rd Av,27.980807,-82.45121
0444,Nebraska Av @ Broad St,28.015986,-82.451233
7619,Nebraska Av @ 24th Av,27.972746,-82.45128
0449,Nebraska Av @ Waters Av,28.024975,-82.451171
0448,Nebraska Av @ Bird St,28.022444,-82.451209
4350,M L King Jr Blvd @ Florida Av,27.981367,-82.459637
4352,M L King Jr Blvd @ Armenia Av,27.981376,-82.484433
5400,Hwy 60 @ Grey Hound Bus Station,27.960489,-82.72053
0437,Nebraska Av @ Hanna Av,28.003183,-82.451245
0438,Nebraska Av @ Fern St,28.004934,-82.451267
0439,Nebraska Av @ Lambright St,28.006811,-82.451266
0433,Nebraska Av @ Powhattan Av,27.998681,-82.451168
4347,M L King Jr Blvd @ 22nd St,27.98159,-82.435426
4348,M L King Jr Blvd @ 22nd St,27.98136,-82.435006
0435,Nebraska Av @ Henry Av,27.999928,-82.451193
4345,M L King Jr Blvd @ 40th St,27.981518,-82.41376
0436,Nebraska Av @ Idelwild Av,28.001858,-82.451239
4346,M L King Jr Blvd @ 40th St,27.981375,-82.413443
0430,Nebraska Av @ Frierson Av,27.994217,-82.451098
0431,Nebraska Av @ Hillsborough Av,27.99578,-82.451076
4349,M L King Jr Blvd @ Florida Av,27.981584,-82.460176
4360,Hillsborough Av @ Hanley Rd,27.996452,-82.563084
4361,Hillsborough Av @ Westshore Blvd,27.996077,-82.523015
4364,Wal-Mart @ Mlk And Cr 579,27.982675,-82.301729
4363,Brandon Regional Hospital,27.934071,-82.286533
4366,M L King Jr Blvd @ Orient Rd,27.981303,-82.373275
4365,M L King Jr Blvd @ Orient Rd,27.981627,-82.372715
0429,Nebraska Av @ Mc Berry St,27.992712,-82.451102
0427,Nebraska Av @ New Orleans Av,27.990083,-82.451097
0424,Nebraska Av @ Chelsea St,27.984984,-82.451094
4356,Tampa Bay Blvd @ Hills Comm College,27.973991,-82.510048
4357,Tampa Bay Blvd @ Hills Comm College,27.97411,-82.510515
0423,Nebraska Av @ North Bay St,27.983852,-82.451097
5401,Hwy 60 @ Cross St,27.960588,-82.718096
7635,Boyette Rd @ Balm Riverview Rd,27.853438,-82.313931
0420,Nebraska Av @ Lake Av,27.97769,-82.451129
7634,S Meridian Av @ Channelside Dr,27.943827,-82.448694
4333,J C Handley Park Pnr,27.899361,-82.295315
4331,Fletcher Av @ Florida Av,28.069188,-82.460216
4330,Fletcher Av @ Florida Av,28.069382,-82.460195
7676,Westshore Blvd @ Laurel St,27.955667,-82.524278
7677,Westshore Blvd @ Laurel St,27.956211,-82.523995
7674,Westshore Blvd @ Spruce St,27.959263,-82.524282
7675,Westshore Blvd @ Union St,27.957488,-82.52426
0416,Nebraska Av @ 23Rd Av,27.97217,-82.451159
0418,Nebraska Av @ 26th Av,27.974132,-82.45115
4329,Mission Bell,28.065758,-82.501659
2559,83Rd St @ Progress Blvd,27.899407,-82.364789
4327,Terrace Plaza Pnr,28.031684,-82.39317
0411,Nebraska Av @ 12th Av,27.963937,-82.451192
4326,113th Av @ Temple Terrace City Hall,28.050772,-82.394396
4323,Brandon K-Mart @ Hwy 60,27.938032,-82.308826
0413,Nebraska Av @ 15th Av,27.966342,-82.451183
2553,83Rd St @ Ash St,27.899579,-82.364586
0414,Nebraska Av @ 19th Av,27.968736,-82.451178
4341,Westshore Plaza,27.948737,-82.525436
4340,Tampa International Main Terminal,27.980492,-82.533571
0407,Nebraska Av @ Estelle St,27.958481,-82.451116
0405,Nebraska Av @ Maryland Av,27.95455,-82.451146
0409,Nebraska Av @ 7th Av,27.960157,-82.451116
2546,79th St @ 78th St,27.902299,-82.368227
2547,82nd St @ Dahlia Av,27.896328,-82.365247
2548,82nd St @ Bahia Av,27.89775,-82.365246
0403,Nebraska Av @ Twiggs St,27.951797,-82.450892
1003,N Boulevard @ Cliff Circle,28.045318,-82.467791
4301,Yukon Transfer Center,28.029428,-82.456456
1004,N Boulevard @ Newport Circle,28.042221,-82.467811
4304,M L King Jr Blvd @ N Boulevard,27.981474,-82.46783
4306,Hillsborough Co Jail Orient Rd,27.959412,-82.372276
1008,N Boulevard @ Perdiz St,28.038547,-82.467761
4305,Broadway Av @ 50th St,27.962035,-82.400721
4308,Yukon Transfer Center,28.029594,-82.456243
1006,N Boulevard @ Linebaugh Av,28.040455,-82.467783
1011,N Boulevard @ El Portal Dr,28.031997,-82.467804
1010,N Boulevard @ Forest Hills Dr,28.034613,-82.467833
5443,Himes Av @ Walnut St,27.960574,-82.501342
5442,Lois Av @ Union St,27.95817,-82.51378
5445,Himes Av @ Tampa Bay Park,27.982888,-82.501252
5446,Himes Av @ New Orleans Av,27.990236,-82.501031
5447,Himes Av @ 5223,27.99265,-82.50098
4319,Florida Av @ Bearss Av,28.086998,-82.459693
6545,Linebaugh Av @ Countryway Blvd,28.05522,-82.622825
4317,N Boulevard@ Sligh Av,28.010961,-82.467901
6548,Linebaugh Av @ Anderson Rd,28.040119,-82.542616
4316,Country Club Dr @ N Boulevard,28.05469,-82.467421
1900,Kennedy Blvd @ Parker St,27.945989,-82.462281
1902,Swann Av @ Delaware Av,27.937346,-82.470589
1903,Swann Av @ Newport Av,27.937355,-82.471581
1904,Swann Av @ Orleans Av,27.937363,-82.473626
1905,Swann Av @ Oregon Av,27.93739,-82.474628
1906,Swann Av @ Melville Av,27.937383,-82.479807
1907,Swann Av @ Albany Av,27.937407,-82.480786
1909,Swann Av @ Habana Av,27.937453,-82.489067
1908,Swann Av @ Audubon Av,27.937446,-82.486989
5451,Himes Av @ Humphrey St,28.029212,-82.500649
5450,Himes Av @ 8507,28.027139,-82.500628
4321,St Matthews Church Park-N-Ride,28.000149,-82.562229
5453,Dale Mabry Hwy @ Linebaugh Av,28.040249,-82.504671
4322,Rogers Field Park-N-Ride,27.942198,-82.281831
5452,Gunn Hwy @ Premier North Dr,28.038617,-82.507994
5455,Dale Mabry Hwy @ Countrywood Apts,28.05941,-82.503459
5454,Dale Mabry Hwy @ 11511,28.053415,-82.50388
1910,Swann Av @ Gomez Av,27.93747,-82.491065
6578,Bearss Av @ Gregory Dr,28.080511,-82.438237
5414,Us Hwy 41 @ St Anne'S Church,27.729562,-82.433594
5415,Us Hwy 41 @ Coastal Mart (1202),27.729729,-82.43396
1917,Swann Av @ Lincoln Av,27.937407,-82.497627
1918,Swann Av @ Matanzas Av,27.93739,-82.49541
1915,Swann Av @ Henderson Blvd,27.937178,-82.502142
1916,Swann Av @ Glen Av,27.937433,-82.499692
1913,Swann Av @ Lincoln Av,27.937509,-82.497385
1914,Swann Av @ Glen Av,27.93756,-82.500435
1911,Swann Av @ MacDill Av,27.937516,-82.493089
1912,Swann Av @ Matanzas Av,27.937502,-82.495237
6580,Bearss Av @ 18th St,28.080529,-82.440206
1919,Swann Av @ MacDill Av,27.937382,-82.493629
6583,Skipper Rd @ Nebraska Av,28.080468,-82.450491
6584,Nebraska Av @ 142nd Av,28.076379,-82.451366
6581,Skipper Rd @ Skipper,28.080711,-82.443246
6582,Skipper Rd @ 1250 Skipper Rd,28.080479,-82.446228
6587,Mulberry Dr @ Ogontz,28.021787,-82.436683
6585,Nebraska Av @ 140th Av,28.074662,-82.451303
6586,Nebraska Av @ 138th Av,28.073065,-82.451291
1926,Swann Av @ Rome Av,27.937263,-82.477037
1927,Swann Av @ Dakota Av,27.937263,-82.475509
1929,Swann Av @ Orleans Av,27.937209,-82.473899
1922,Swann Av @ Audubon Av,27.937322,-82.48715
1923,Swann Av @ Parkland Blvd,27.937323,-82.485561
1924,Swann Av @ Moody Av,27.937287,-82.484174
1925,Swann Av @ Albany Av,27.937252,-82.481076
6575,Nebraska Av @ 138th Av,28.073125,-82.451097
6576,Skipper Rd @ 1250 Skipper Rd,28.080354,-82.446185
6577,Skipper Rd @ Skipper,28.080526,-82.443234
1936,El Prado Blvd @ Lois Av,27.91166,-82.51418
1935,El Prado Blvd @ Clark Av,27.91165,-82.51216
1934,El Prado Blvd @ Grady Av,27.911666,-82.510036
1933,El Prado Blvd @ Church Av,27.911649,-82.508559
1937,El Prado Blvd @ Manhattan Av,27.911733,-82.517434
1048,Himes Av @ Sunrise Villas Ct,28.005061,-82.500764
6519,78th St @ Temple Terrace Hwy,28.032177,-82.368909
5479,Himes Av @ 5223,27.992708,-82.50114
5478,Himes Av @ Courtney Apts,27.998794,-82.500982
1932,Swann Av @ Edison Av,27.937183,-82.469901
1931,Swann Av @ Delaware Av,27.937192,-82.470802
1930,Swann Av @ Newport Av,27.937192,-82.471804
1049,Himes Av @ Lambright St,28.006863,-82.500755
1050,Himes Av @ Minnehaha St,28.008683,-82.500726
1051,Himes Av @ Sligh Av,28.010712,-82.500717
5484,Spruce St @ Marie Av,27.959549,-82.504781
5487,Lois Av @ Morrison Av,27.934181,-82.514124
1055,Himes Av @ Townhouse Ct,28.018708,-82.500652
5488,Manhattan Av @ Palmira St,27.92248,-82.517895
1052,Himes Av @ Carlton Arms Dr,28.013428,-82.500699
5485,Cypress St @ Jefferson High School,27.952383,-82.519962
1053,Himes Av @ Hamilton St,28.014325,-82.500679
5480,Himes Av @ New Orleans Av,27.990547,-82.501237
1945,El Prado Blvd @ Lois Av,27.911445,-82.514398
1944,El Prado Blvd @ Coolidge Av,27.911443,-82.51711
1947,El Prado Blvd @ Grady Av,27.911412,-82.510289
1946,El Prado Blvd @ Clark Av,27.911438,-82.512394
1949,El Prado Blvd @ Dale Mabry Hwy,27.911403,-82.506254
1948,El Prado Blvd @ Church Av,27.911386,-82.508235
1035,Himes Av @ Columbus Dr,27.967159,-82.501354
6506,Linebaugh Av @ Henderson Av,28.040285,-82.548718
1034,Himes Av @ Columbus Dr,27.966463,-82.501394
5489,Manhattan Av @ Granada St,27.920872,-82.517888
1037,Himes Av @ Leroy St,27.971757,-82.501397
1036,Himes Av @ IVy St,27.969758,-82.501356
1039,Himes Av @ Heiter St,27.974918,-82.501374
1038,Himes Av @ Tampa Bay Blvd,27.973689,-82.501372
1040,Himes Av @ Woodlawn Av,27.976126,-82.501372
5490,Manhattan Av @ San Jaun St,27.918544,-82.517916
5491,Manhattan Av @ Corona St,27.914327,-82.517989
1959,Euclid Av @ Coolidge Av,27.908834,-82.517472
1958,Euclid Av @ thatcher Av,27.908794,-82.515251
1957,Euclid Av @ Lois Av,27.908784,-82.514264
1956,Euclid Av @ Clark Av,27.908768,-82.511587
1955,Euclid Av @ Grady Av,27.90875,-82.510125
1954,Euclid Av @ Church Av,27.908739,-82.507898
1953,Euclid Av @ Himes Av,27.908745,-82.501797
1029,N Boulevard @ Cypress St,27.952612,-82.468536
1952,Euclid Av @ Lynwood Av,27.908738,-82.498852
1951,Euclid Av @ Waverly Circle,27.908729,-82.497992
1026,N Boulevard @ Plymouth St,27.973905,-82.46771
5459,Dale Mabry Hwy @ 13734 Lake Side,28.07108,-82.50636
1025,N Boulevard @ Peninsular St,27.97639,-82.46768
5458,Stall Rd @ Orange Grove Dr,28.062001,-82.500704
1024,N Boulevard @ Indiana Av,27.97813,-82.46769
5457,Dale Mabry Hwy @ Colby Rd F/S,28.056376,-82.50367
1023,N Boulevard @ Virginia Av,27.979856,-82.467692
5465,Dale Mabry Hwy @ Gaither High Sch,28.101368,-82.502112
1032,Himes Av @ Beach St,27.962982,-82.501307
1033,Himes Av @ St John St,27.964612,-82.501322
5461,Dale Mabry Hwy @ Grand Plaza North,28.080153,-82.506589
5462,Dale Mabry @ Carrollwood Springs Bl,28.088257,-82.50344
5460,Dale Mabry Hwy @ 13907 Bay Lake,28.07337,-82.50667
1969,Euclid Av @ Manhattan Av,27.90867,-82.518342
1963,Euclid Av @ Renellie Circle Ws,27.908865,-82.52563
1017,N Boulevard @ Kirby St,28.018187,-82.467834
1962,Euclid Av @ Renellie Circle Es,27.908871,-82.523203
1964,Euclid Av @ Westshore Blvd,27.908909,-82.526549
1013,N Boulevard @ Yukon St,28.029072,-82.467836
1012,N Boulevard @ Humphrey St,28.031034,-82.46778
6528,Uatc Express Stop,28.066854,-82.429486
1961,Euclid Av @ Royal Palm Cirle Ws,27.908838,-82.520982
1015,N Boulevard @ Sitka St,28.021873,-82.467854
1960,Euclid Av @ Royal Palm Circle Es,27.908874,-82.51938
1014,N Boulevard @ Waters Av,28.025972,-82.467774
5474,Himes Av @ 8506,28.027427,-82.500776
5475,Himes Av @ Interconics Inc,28.024093,-82.500802
1021,N Boulevard @ Lowry Park,28.01366,-82.467912
5476,Himes Av @ Sitka St,28.021615,-82.500806
5477,Himes Av @ Coopers Pond Apts,28.005405,-82.500946
5470,Gunn Hwy @ Premier North Dr,28.038544,-82.508288
6530,Linebaugh Av @ Anderson Rd,28.040526,-82.543245
6533,Linebaugh Av @ Countryway Blvd,28.05594,-82.6265
5473,Himes Av @ Colwell Av,28.034456,-82.50085
